timestamp,state,x,y,z,roll_deg,pitch_deg,yaw_deg,dist_left,dist_center,dist_right,dist_top,dist_bottom,dtof_alert,collision_event,best_dir,max_space,cmd_vx,cmd_vz,cmd_yaw
20:07:57.271,SEARCHING,0.048,0.000,1.002,0.00,0.00,0.00,10.000,10.000,10.000,10.000,10.000,0,0,SEARCHING,10.000,0.800,0.030,0.000
20:07:57.518,SEARCHING,0.115,0.000,1.006,0.00,0.00,1.52,1.876,0.999,0.999,0.999,0.999,0,0,SEARCHING,0.999,0.320,0.000,0.234
20:07:57.716,SEARCHING,0.122,0.000,1.005,0.00,0.00,1.79,1.802,0.961,0.961,0.965,0.957,0,0,SEARCHING,0.957,0.308,0.019,0.243
20:07:57.910,SEARCHING,0.134,0.001,1.009,0.00,0.00,2.34,1.802,0.957,0.957,0.961,0.957,0,0,SEARCHING,0.957,0.306,0.010,0.245
20:07:58.116,SEARCHING,0.140,0.001,1.012,0.00,0.00,2.62,1.788,0.953,0.953,0.957,0.957,0,0,SEARCHING,0.953,0.305,0.000,0.245
20:07:58.308,SEARCHING,0.140,0.001,1.012,0.00,0.00,2.62,1.760,0.946,0.938,0.946,0.946,0,0,SEARCHING,0.938,0.303,0.000,0.249
20:07:58.511,SEARCHING,0.140,0.001,1.013,0.00,0.00,2.62,1.747,0.946,0.942,0.946,0.949,0,0,SEARCHING,0.942,0.303,-0.010,0.245
20:07:58.715,SEARCHING,0.140,0.001,1.012,0.00,0.00,2.62,1.747,0.946,0.938,0.946,0.942,0,0,SEARCHING,0.938,0.303,0.010,0.247
20:07:58.912,SEARCHING,0.140,0.001,1.012,0.00,0.00,2.62,1.760,0.946,0.938,0.946,0.949,0,0,SEARCHING,0.938,0.303,-0.010,0.249
20:07:59.113,SEARCHING,0.140,0.001,1.011,0.00,0.00,2.62,1.760,0.946,0.942,0.946,0.946,0,0,SEARCHING,0.942,0.303,0.000,0.247
20:07:59.314,SEARCHING,0.140,0.001,1.011,0.00,0.00,2.62,1.760,0.942,0.942,0.946,0.946,0,0,SEARCHING,0.942,0.301,0.000,0.247
20:07:59.515,SEARCHING,0.140,0.001,1.011,0.00,0.00,2.62,1.747,0.942,0.938,0.942,0.946,0,0,SEARCHING,0.938,0.301,-0.010,0.247
20:07:59.712,SEARCHING,0.146,0.001,1.011,0.00,0.00,2.91,1.733,0.957,0.923,0.953,0.953,0,0,SEARCHING,0.923,0.306,0.000,0.253
20:07:59.910,SEARCHING,0.146,0.001,1.013,0.00,0.00,2.91,1.747,0.942,0.934,0.942,0.938,0,0,SEARCHING,0.934,0.301,0.010,0.249
20:08:00.116,SEARCHING,0.146,0.001,1.015,0.00,0.00,2.91,1.747,0.942,0.934,0.942,0.938,0,0,SEARCHING,0.934,0.301,0.010,0.249
20:08:00.337,SEARCHING,0.176,0.003,1.016,0.00,0.00,4.34,1.720,0.961,0.923,0.949,0.970,0,0,SEARCHING,0.923,0.308,-0.048,0.251
20:08:00.517,SEARCHING,0.182,0.004,1.013,0.00,0.00,4.62,1.670,0.970,0.890,0.961,0.970,0,0,SEARCHING,0.890,0.310,-0.019,0.262
20:08:00.713,SEARCHING,0.182,0.004,1.009,0.00,0.00,4.62,1.670,0.965,0.890,0.961,0.970,0,0,SEARCHING,0.890,0.309,-0.019,0.262
20:08:00.918,SEARCHING,0.182,0.004,1.005,0.00,0.00,4.62,1.670,0.970,0.890,0.961,0.970,0,0,SEARCHING,0.890,0.310,-0.019,0.262
20:08:01.121,SEARCHING,0.182,0.004,1.001,0.00,0.00,4.62,1.670,0.965,0.890,0.961,0.970,0,0,SEARCHING,0.890,0.309,-0.019,0.262
20:08:01.321,SEARCHING,0.182,0.004,0.998,0.00,0.00,4.62,1.670,0.970,0.897,0.946,0.970,0,0,SEARCHING,0.897,0.310,-0.058,0.258
20:08:01.517,SEARCHING,0.182,0.004,0.990,0.00,0.00,4.62,1.646,0.965,0.880,0.961,0.965,0,0,SEARCHING,0.880,0.309,-0.010,0.264
20:08:01.718,SEARCHING,0.182,0.004,0.987,0.00,0.00,4.62,1.646,0.965,0.877,0.957,0.957,0,0,SEARCHING,0.877,0.309,0.000,0.267
20:08:01.929,SEARCHING,0.182,0.004,0.985,0.00,0.00,4.62,1.670,0.970,0.890,0.961,0.970,0,0,SEARCHING,0.890,0.310,-0.019,0.262
20:08:02.122,SEARCHING,0.182,0.004,0.978,0.00,0.00,4.62,1.670,0.970,0.890,0.961,0.970,0,0,SEARCHING,0.890,0.310,-0.019,0.262
20:08:02.325,SEARCHING,0.182,0.004,0.973,0.00,0.00,4.62,1.670,0.970,0.890,0.957,0.970,0,0,SEARCHING,0.890,0.310,-0.029,0.262
20:08:02.522,SEARCHING,0.182,0.004,0.964,0.00,0.00,4.62,1.670,0.970,0.890,0.961,0.970,0,0,SEARCHING,0.890,0.310,-0.019,0.262
20:08:02.726,SEARCHING,0.182,0.004,0.961,0.00,0.00,4.62,1.670,0.970,0.890,0.961,0.970,0,0,SEARCHING,0.890,0.310,-0.019,0.262
20:08:02.929,SEARCHING,0.182,0.004,0.955,0.00,0.00,4.62,1.670,0.970,0.887,0.961,0.970,0,0,SEARCHING,0.887,0.310,-0.019,0.264
20:08:03.123,SEARCHING,0.189,0.004,0.949,0.00,0.00,4.92,1.682,0.970,0.897,0.946,0.970,0,0,SEARCHING,0.897,0.310,-0.058,0.260
20:08:03.326,SEARCHING,0.189,0.004,0.939,0.00,0.00,4.92,1.658,0.970,0.880,0.953,0.961,0,0,SEARCHING,0.880,0.310,-0.019,0.267
20:08:03.522,SEARCHING,0.189,0.004,0.937,0.00,0.00,4.92,1.670,0.970,0.887,0.965,0.965,0,0,SEARCHING,0.887,0.310,0.000,0.264
20:08:03.723,SEARCHING,0.189,0.004,0.937,0.00,0.00,4.92,1.646,0.961,0.873,0.961,0.957,0,0,SEARCHING,0.873,0.308,0.010,0.269
20:08:03.937,SEARCHING,0.189,0.004,0.937,0.00,0.00,4.92,1.658,0.970,0.883,0.957,0.961,0,0,SEARCHING,0.883,0.310,-0.010,0.264
20:08:04.129,SEARCHING,0.195,0.005,0.936,0.00,0.00,5.23,1.646,0.970,0.873,0.965,0.961,0,0,SEARCHING,0.873,0.310,0.010,0.269
20:08:04.325,SEARCHING,0.201,0.005,0.937,0.00,0.00,5.53,1.646,0.965,0.877,0.961,0.965,0,0,SEARCHING,0.877,0.309,-0.010,0.267
20:08:04.527,SEARCHING,0.201,0.005,0.941,0.00,0.00,5.53,1.646,0.965,0.877,0.965,0.949,0,0,SEARCHING,0.877,0.309,0.038,0.267
20:08:04.726,SEARCHING,0.201,0.005,0.948,0.00,0.00,5.53,1.634,0.965,0.870,0.961,0.949,0,0,SEARCHING,0.870,0.309,0.029,0.269
20:08:04.926,SEARCHING,0.201,0.005,0.953,0.00,0.00,5.53,1.634,0.965,0.867,0.961,0.949,0,0,SEARCHING,0.867,0.309,0.029,0.271
20:08:05.143,SEARCHING,0.201,0.005,0.959,0.00,0.00,5.53,1.646,0.965,0.873,0.965,0.949,0,0,SEARCHING,0.873,0.309,0.038,0.269
20:08:05.340,SEARCHING,0.207,0.006,0.967,0.00,0.00,5.84,1.611,0.965,0.860,0.961,0.957,0,0,SEARCHING,0.860,0.309,0.010,0.271
20:08:05.533,SEARCHING,0.226,0.008,0.968,0.00,0.00,6.77,1.611,0.961,0.854,0.961,0.961,0,0,SEARCHING,0.854,0.308,0.000,0.275
20:08:05.729,SEARCHING,0.226,0.008,0.970,0.00,0.00,6.77,1.578,0.965,0.826,0.953,0.946,0,0,SEARCHING,0.826,0.309,0.019,0.288
20:08:05.931,SEARCHING,0.226,0.008,0.974,0.00,0.00,6.77,1.589,0.965,0.838,0.957,0.949,0,0,SEARCHING,0.838,0.309,0.019,0.282
20:08:06.133,SEARCHING,0.226,0.008,0.977,0.00,0.00,6.77,1.600,0.965,0.838,0.957,0.949,0,0,SEARCHING,0.838,0.309,0.019,0.284
20:08:06.337,SEARCHING,0.238,0.009,0.981,0.00,0.00,7.42,1.567,0.961,0.823,0.953,0.946,0,0,SEARCHING,0.823,0.308,0.019,0.288
20:08:06.537,SEARCHING,0.238,0.009,0.987,0.00,0.00,7.42,1.567,0.961,0.823,0.953,0.946,0,0,SEARCHING,0.823,0.308,0.019,0.288
20:08:06.735,SEARCHING,0.244,0.010,0.990,0.00,0.00,7.75,1.567,0.961,0.814,0.957,0.965,0,0,SEARCHING,0.814,0.308,-0.019,0.295
20:08:06.933,SEARCHING,0.244,0.010,0.988,0.00,0.00,7.75,1.567,0.961,0.814,0.957,0.961,0,0,SEARCHING,0.814,0.308,-0.010,0.295
20:08:07.134,SEARCHING,0.244,0.010,0.985,0.00,0.00,7.75,1.567,0.957,0.814,0.961,0.957,0,0,SEARCHING,0.814,0.306,0.010,0.295
20:08:07.338,SEARCHING,0.244,0.010,0.986,0.00,0.00,7.75,1.567,0.961,0.814,0.957,0.961,0,0,SEARCHING,0.814,0.308,-0.010,0.295
20:08:07.543,SEARCHING,0.244,0.010,0.984,0.00,0.00,7.75,1.567,0.957,0.811,0.961,0.957,0,0,SEARCHING,0.811,0.306,0.010,0.297
20:08:07.740,SEARCHING,0.250,0.011,0.990,0.00,0.00,8.09,1.546,0.953,0.806,0.957,0.961,0,0,SEARCHING,0.806,0.305,-0.010,0.297
20:08:07.939,SEARCHING,0.256,0.012,0.987,0.00,0.00,8.43,1.557,0.961,0.811,0.961,0.957,0,0,SEARCHING,0.811,0.308,0.010,0.295
20:08:08.137,SEARCHING,0.268,0.014,0.986,0.00,0.00,9.12,1.536,0.957,0.800,0.953,0.961,0,0,SEARCHING,0.800,0.306,-0.019,0.299
20:08:08.350,SEARCHING,0.268,0.014,0.989,0.00,0.00,9.12,1.525,0.957,0.786,0.965,0.961,0,0,SEARCHING,0.786,0.306,0.010,0.308
20:08:08.538,SEARCHING,0.274,0.015,0.992,0.00,0.00,9.47,1.505,0.961,0.776,0.986,0.965,0,0,SEARCHING,0.776,0.308,0.048,0.312
20:08:08.742,SEARCHING,0.274,0.015,1.002,0.00,0.00,9.47,1.515,0.961,0.776,0.986,0.965,0,0,SEARCHING,0.776,0.308,0.048,0.315
20:08:08.946,SEARCHING,0.274,0.015,1.007,0.00,0.00,9.47,1.515,0.953,0.781,0.986,0.957,0,0,SEARCHING,0.781,0.305,0.067,0.310
20:08:09.145,SEARCHING,0.274,0.015,1.021,0.00,0.00,9.47,1.515,0.949,0.781,0.986,0.949,0,0,SEARCHING,0.781,0.304,0.087,0.310
20:08:09.345,SEARCHING,0.274,0.015,1.036,0.00,0.00,9.47,1.515,0.953,0.781,0.986,0.949,0,0,SEARCHING,0.781,0.305,0.087,0.310
20:08:09.540,SEARCHING,0.274,0.015,1.052,0.00,0.00,9.47,1.505,0.970,0.776,0.991,0.965,0,0,SEARCHING,0.776,0.310,0.058,0.312
20:08:09.745,SEARCHING,0.274,0.015,1.063,0.00,0.00,9.47,1.486,0.974,0.760,0.986,0.986,0,0,SEARCHING,0.760,0.312,0.000,0.321
20:08:09.942,SEARCHING,0.274,0.015,1.065,0.00,0.00,9.47,1.496,0.974,0.776,0.986,0.965,0,0,SEARCHING,0.776,0.312,0.048,0.310
20:08:10.146,SEARCHING,0.274,0.015,1.075,0.00,0.00,9.47,1.515,0.957,0.781,0.986,0.953,0,0,SEARCHING,0.781,0.306,0.077,0.310
20:08:10.354,SEARCHING,0.274,0.015,1.089,0.00,0.00,9.47,1.515,0.970,0.781,0.991,0.949,0,0,SEARCHING,0.781,0.310,0.096,0.310
20:08:10.550,SEARCHING,0.280,0.016,1.107,0.00,0.00,9.83,1.486,0.982,0.768,0.991,0.982,0,0,SEARCHING,0.768,0.314,0.019,0.315
20:08:10.747,SEARCHING,0.280,0.016,1.114,0.00,0.00,9.83,1.505,0.978,0.773,0.995,0.970,0,0,SEARCHING,0.773,0.313,0.058,0.315
20:08:10.947,SEARCHING,0.280,0.016,1.121,0.00,0.00,9.83,1.476,0.978,0.755,0.999,0.995,0,0,SEARCHING,0.755,0.313,0.010,0.323
20:08:11.149,SEARCHING,0.280,0.016,1.124,0.00,0.00,9.83,1.496,0.982,0.765,0.995,0.982,0,0,SEARCHING,0.765,0.314,0.029,0.319
20:08:11.352,SEARCHING,0.280,0.016,1.130,0.00,0.00,9.83,1.486,0.982,0.768,0.995,0.982,0,0,SEARCHING,0.768,0.314,0.029,0.315
20:08:11.550,SEARCHING,0.280,0.016,1.139,0.00,0.00,9.83,1.505,0.982,0.773,0.999,0.970,0,0,SEARCHING,0.773,0.314,0.067,0.315
20:08:11.754,SEARCHING,0.280,0.016,1.150,0.00,0.00,9.83,1.486,0.974,0.765,0.999,0.982,0,0,SEARCHING,0.765,0.312,0.038,0.317
20:08:11.949,SEARCHING,0.287,0.017,1.161,0.00,0.00,10.19,1.476,0.978,0.760,0.995,0.982,0,0,SEARCHING,0.760,0.313,0.029,0.319
20:08:12.155,SEARCHING,0.287,0.017,1.167,0.00,0.00,10.19,1.486,0.978,0.765,0.999,0.978,0,0,SEARCHING,0.765,0.313,0.048,0.317
20:08:12.354,SEARCHING,0.287,0.017,1.174,0.00,0.00,10.19,1.476,0.978,0.760,0.991,0.978,0,0,SEARCHING,0.760,0.313,0.029,0.319
20:08:12.558,SEARCHING,0.287,0.017,1.180,0.00,0.00,10.19,1.476,0.978,0.760,0.991,0.978,0,0,SEARCHING,0.760,0.313,0.029,0.319
20:08:12.759,SEARCHING,0.287,0.017,1.187,0.00,0.00,10.19,1.476,0.978,0.760,0.991,0.978,0,0,SEARCHING,0.760,0.313,0.029,0.319
20:08:12.962,SEARCHING,0.293,0.018,1.192,0.00,0.00,10.55,1.486,0.978,0.765,0.995,0.978,0,0,SEARCHING,0.765,0.313,0.038,0.317
20:08:13.155,SEARCHING,0.299,0.019,1.198,0.00,0.00,10.91,1.448,0.991,0.743,0.995,0.982,0,0,SEARCHING,0.743,0.317,0.029,0.328
20:08:13.321,SEARCHING,0.311,0.021,1.204,0.00,0.00,11.67,1.448,1.004,0.736,1.004,1.012,0,0,SEARCHING,0.736,0.321,-0.019,0.669
20:08:13.521,SEARCHING,0.330,0.025,1.197,0.00,0.00,13.96,1.395,1.004,0.704,1.973,1.050,0,0,SEARCHING,0.704,0.321,0.981,0.704
20:08:13.721,SEARCHING,0.385,0.042,1.295,0.00,0.00,18.70,1.300,1.876,0.717,1.860,1.876,0,0,SEARCHING,0.717,0.600,-0.010,0.625
20:08:13.921,SEARCHING,0.450,0.066,1.297,0.00,0.00,22.78,1.204,1.682,0.750,1.682,1.670,0,0,SEARCHING,0.750,0.538,0.010,0.503
20:08:14.122,SEARCHING,0.508,0.092,1.300,0.00,0.00,26.10,1.150,1.557,0.778,1.546,1.546,0,0,SEARCHING,0.778,0.498,0.000,0.415
20:08:14.322,SEARCHING,0.559,0.118,1.299,0.00,0.00,26.19,1.079,1.439,1.876,1.439,1.439,0,0,SEARCHING,1.079,0.461,0.000,-0.393
20:08:14.522,SEARCHING,0.609,0.141,1.299,0.00,0.00,23.41,1.074,1.467,1.990,1.467,1.457,0,0,SEARCHING,1.074,0.469,0.010,-0.428
20:08:14.723,SEARCHING,0.662,0.163,1.301,0.00,0.00,20.36,1.069,1.486,0.646,1.505,1.505,0,0,SEARCHING,0.646,0.475,0.000,0.612
20:08:14.923,SEARCHING,0.714,0.183,1.301,0.00,0.00,20.83,1.035,1.439,2.061,1.439,1.430,0,0,SEARCHING,1.035,0.461,0.010,-0.481
20:08:15.124,SEARCHING,0.767,0.202,1.301,0.00,0.00,17.48,1.040,1.486,2.243,1.486,1.486,0,0,SEARCHING,1.040,0.475,0.000,-0.516
20:08:15.325,SEARCHING,0.822,0.218,1.300,0.00,0.00,18.77,1.022,1.457,2.222,1.457,1.467,0,0,SEARCHING,1.022,0.466,-0.010,-0.529
20:08:15.525,SEARCHING,0.875,0.235,1.297,0.00,0.00,15.12,1.008,1.412,2.288,1.421,1.421,0,0,SEARCHING,1.008,0.452,0.000,-0.555
20:08:15.725,SEARCHING,0.927,0.247,1.297,0.00,0.00,11.23,1.045,1.370,2.724,1.370,1.362,0,0,SEARCHING,1.045,0.438,0.010,-0.590
20:08:15.927,SEARCHING,0.979,0.257,1.298,0.00,0.00,14.19,1.017,1.330,2.630,1.315,1.323,0,0,SEARCHING,1.017,0.426,-0.010,-0.603
20:08:16.128,SEARCHING,1.028,0.268,1.296,0.00,0.00,10.03,1.012,1.323,2.692,1.330,1.323,0,0,SEARCHING,1.012,0.423,0.010,-0.616
20:08:17.240,SEARCHING,1.079,0.275,1.295,0.00,0.00,5.76,1.045,1.421,3.011,1.421,1.404,0,0,SEARCHING,1.045,0.455,0.019,-0.625
20:08:17.251,SEARCHING,1.107,0.278,1.299,0.00,0.00,3.61,1.059,1.467,3.134,1.448,1.457,0,0,SEARCHING,1.059,0.469,-0.010,-0.625
20:08:17.385,SEARCHING,1.165,0.280,1.297,0.00,0.00,-0.73,1.022,1.802,0.870,1.802,1.845,0,0,SEARCHING,0.870,0.577,-0.029,0.170
20:08:17.576,SEARCHING,1.235,0.279,1.294,0.00,0.00,-2.88,1.035,1.891,5.867,1.907,1.891,0,0,SEARCHING,1.035,0.605,0.010,-0.795
20:08:17.776,SEARCHING,1.313,0.272,1.295,0.00,0.00,-8.08,1.162,2.409,4.487,2.409,2.384,0,0,SEARCHING,1.162,0.771,0.010,-0.638
20:08:17.976,SEARCHING,1.391,0.267,1.295,0.02,-0.01,-15.84,1.387,3.051,3.751,3.134,3.051,0,0,SEARCHING,1.387,0.800,0.019,-0.455
20:08:18.176,SEARCHING,1.433,0.283,1.328,0.10,-0.02,-33.11,2.860,4.237,2.692,4.237,3.223,0,0,SEARCHING,2.692,0.800,0.163,0.000
20:08:18.377,SEARCHING,1.468,0.287,1.343,0.24,0.01,-46.94,4.670,2.757,0.331,2.724,2.825,0,0,SEARCHING,0.331,0.800,-0.029,2.806
20:08:18.577,SEARCHING,1.483,0.289,1.331,0.57,-0.30,-52.87,4.014,2.692,0.329,2.600,2.757,0,0,SEARCHING,0.329,0.800,-0.048,2.788
20:08:18.813,INSPECTING,1.495,0.289,1.394,0.53,-0.20,-57.75,3.575,0.472,0.322,0.457,0.474,0,0,SEARCHING,0.322,0.000,0.000,0.000
20:08:19.010,INSPECTING,1.495,0.289,1.429,0.53,-0.20,-57.75,3.467,0.475,0.326,0.423,0.469,0,0,LEFT,3.467,0.150,0.000,1.100
20:08:19.215,INSPECTING,1.495,0.289,1.429,0.53,-0.20,-57.75,3.467,0.470,0.326,0.456,0.469,0,0,LEFT,3.467,0.150,0.000,1.100
20:08:19.420,INSPECTING,1.495,0.289,1.429,0.53,-0.20,-57.75,3.467,0.475,0.326,0.423,0.469,0,0,LEFT,3.467,0.150,0.000,1.100
20:08:19.614,INSPECTING,1.495,0.289,1.429,0.53,-0.20,-57.75,3.467,0.471,0.325,0.456,0.469,0,0,LEFT,3.467,0.150,0.000,1.100
20:08:19.828,INSPECTING,1.495,0.289,1.429,0.53,-0.20,-57.75,3.520,0.468,0.327,0.454,0.469,0,0,LEFT,3.520,0.150,0.000,1.100
20:08:20.024,INSPECTING,1.495,0.289,1.429,0.23,0.30,-57.44,3.520,0.451,0.327,0.455,0.459,0,0,LEFT,3.520,0.150,0.000,1.100
20:08:20.226,INSPECTING,1.495,0.289,1.429,0.55,-0.21,-57.31,3.575,2.600,0.327,0.458,0.468,0,0,LEFT,3.575,0.150,0.000,1.100
20:08:20.415,INSPECTING,1.494,0.289,1.429,0.24,0.30,-57.23,3.575,0.467,0.328,0.456,0.471,0,0,LEFT,3.575,0.150,0.000,1.100
20:08:20.653,SEARCHING,1.494,0.289,1.429,0.24,0.30,-57.23,3.575,0.467,0.328,0.456,0.471,0,0,LEFT,3.575,0.150,0.000,1.100
20:08:20.822,INSPECTING,1.494,0.289,1.429,0.56,-0.22,-57.10,3.520,0.470,0.326,0.456,0.472,0,0,LEFT,3.520,0.150,0.000,1.100
20:08:21.017,INSPECTING,1.494,0.290,1.429,0.25,0.30,-57.01,3.575,0.467,0.328,0.456,0.470,0,0,LEFT,3.575,0.150,0.000,1.100
20:08:21.215,INSPECTING,1.494,0.290,1.429,0.57,-0.22,-56.89,3.575,2.630,0.327,0.458,0.471,0,0,LEFT,3.575,0.150,0.000,1.100
20:08:21.418,INSPECTING,1.494,0.290,1.429,0.57,-0.22,-56.89,3.632,2.630,0.327,0.463,0.476,0,0,LEFT,3.632,0.150,0.000,1.100
20:08:21.641,INSPECTING,1.494,0.290,1.429,0.58,-0.22,-56.69,3.575,2.661,0.327,0.462,0.479,0,0,LEFT,3.575,0.150,0.000,1.100
20:08:21.824,INSPECTING,1.494,0.290,1.429,0.26,0.29,-56.60,3.632,2.661,0.328,0.465,0.482,0,0,LEFT,3.632,0.150,0.000,1.100
20:08:22.027,INSPECTING,1.494,0.290,1.429,0.58,-0.23,-56.48,3.632,0.466,0.327,0.465,0.471,0,0,LEFT,3.632,0.150,0.000,1.100
20:08:22.220,INSPECTING,1.494,0.290,1.429,0.27,0.29,-56.40,3.632,0.471,0.328,0.464,0.470,0,0,LEFT,3.632,0.150,0.000,1.100
20:08:22.460,SEARCHING,1.494,0.290,1.429,0.27,0.29,-56.40,3.632,0.471,0.328,0.623,0.470,0,0,LEFT,3.632,0.150,0.000,1.100
20:08:22.627,INSPECTING,1.494,0.290,1.429,0.58,-0.23,-56.29,3.632,0.466,0.327,0.465,0.471,0,0,LEFT,3.632,0.150,0.000,1.100
20:08:22.821,INSPECTING,1.494,0.291,1.429,0.27,0.29,-56.21,3.632,0.466,0.327,0.466,0.472,0,0,LEFT,3.632,0.150,0.000,1.100
20:08:23.018,INSPECTING,1.494,0.291,1.429,0.27,0.29,-56.21,3.632,0.470,0.328,0.465,0.470,0,0,LEFT,3.632,0.150,0.000,1.100
20:08:23.222,INSPECTING,1.494,0.291,1.429,0.27,0.29,-56.21,3.632,0.470,0.328,0.627,0.470,0,0,LEFT,3.632,0.150,0.000,1.100
20:08:23.420,INSPECTING,1.494,0.291,1.429,0.27,0.29,-56.21,3.632,0.467,0.328,0.467,0.474,0,0,LEFT,3.632,0.150,0.000,1.100
20:08:23.622,INSPECTING,1.494,0.291,1.429,0.27,0.29,-56.21,3.632,0.470,0.328,0.465,0.470,0,0,LEFT,3.632,0.150,0.000,1.100
20:08:23.823,INSPECTING,1.494,0.291,1.429,0.27,0.29,-56.21,3.632,0.470,0.328,0.627,0.470,0,0,LEFT,3.632,0.150,0.000,1.100
20:08:24.030,INSPECTING,1.494,0.291,1.429,0.28,0.29,-56.03,3.632,0.470,0.328,0.465,0.470,0,0,LEFT,3.632,0.150,0.000,1.100
20:08:24.262,SEARCHING,1.494,0.291,1.429,0.59,-0.23,-55.92,3.691,0.470,0.328,0.470,0.472,0,0,LEFT,3.691,0.150,0.000,1.100
20:08:24.434,INSPECTING,1.494,0.291,1.429,0.28,0.29,-55.85,3.691,0.470,0.329,0.469,0.472,0,0,LEFT,3.691,0.150,0.000,1.100
20:08:24.629,INSPECTING,1.494,0.291,1.429,0.28,0.29,-55.85,3.691,0.471,0.328,0.471,0.475,0,0,LEFT,3.691,0.150,0.000,1.100
20:08:24.825,INSPECTING,1.494,0.291,1.429,0.59,-0.23,-55.74,3.691,0.471,0.328,0.470,0.475,0,0,LEFT,3.691,0.150,0.000,1.100
20:08:25.037,INSPECTING,1.494,0.291,1.429,0.59,-0.23,-55.74,3.691,0.471,0.328,0.471,0.478,0,0,LEFT,3.691,0.150,0.000,1.100
20:08:25.252,INSPECTING,1.493,0.292,1.429,0.60,-0.23,-55.40,3.691,0.472,0.328,0.472,0.477,0,0,LEFT,3.691,0.150,0.000,1.100
20:08:25.435,INSPECTING,1.493,0.292,1.429,0.60,-0.23,-55.40,3.691,0.475,0.328,0.473,0.484,0,0,LEFT,3.691,0.150,0.000,1.100
20:08:25.639,INSPECTING,1.493,0.292,1.429,0.60,-0.23,-55.40,3.691,0.475,0.328,0.473,0.484,0,0,LEFT,3.691,0.150,0.000,1.100
20:08:25.828,INSPECTING,1.493,0.292,1.429,0.60,-0.23,-55.23,3.691,0.474,0.327,0.474,0.485,0,0,LEFT,3.691,0.150,0.000,1.100
20:08:26.062,SEARCHING,1.493,0.292,1.429,0.29,0.29,-55.17,3.751,0.474,0.329,0.474,0.482,0,0,LEFT,3.751,0.150,0.000,1.100
20:08:26.232,INSPECTING,1.493,0.292,1.429,0.61,-0.23,-55.07,3.751,0.478,0.327,0.474,0.485,0,0,LEFT,3.751,0.150,0.000,1.100
20:08:26.433,INSPECTING,1.493,0.292,1.429,0.61,-0.23,-55.07,3.691,0.478,0.329,0.475,0.476,0,0,LEFT,3.691,0.150,0.000,1.100
20:08:26.629,INSPECTING,1.493,0.292,1.429,0.61,-0.23,-55.07,3.751,0.476,0.327,0.474,0.486,0,0,LEFT,3.751,0.150,0.000,1.100
20:08:26.827,INSPECTING,1.493,0.292,1.429,0.61,-0.23,-55.07,3.691,0.478,0.329,0.475,0.479,0,0,LEFT,3.691,0.150,0.000,1.100
20:08:27.062,INSPECTING,1.493,0.293,1.429,0.30,0.29,-54.72,3.751,0.480,0.328,0.477,0.486,0,0,LEFT,3.751,0.150,0.000,1.100
20:08:27.226,INSPECTING,1.493,0.293,1.429,0.61,-0.23,-54.62,3.814,0.481,0.328,0.476,0.487,0,0,LEFT,3.814,0.150,0.000,1.100
20:08:27.430,INSPECTING,1.493,0.293,1.429,0.61,-0.23,-54.62,3.878,0.489,0.328,0.479,0.490,0,0,LEFT,3.878,0.150,0.000,1.100
20:08:27.634,INSPECTING,1.493,0.293,1.429,0.30,0.29,-54.57,3.751,0.481,0.326,0.477,0.490,0,0,LEFT,3.751,0.150,0.000,1.100
20:08:27.867,SEARCHING,1.493,0.293,1.429,0.30,0.29,-54.57,3.878,0.489,0.328,0.479,0.490,0,0,LEFT,3.878,0.150,0.000,1.100
20:08:28.038,INSPECTING,1.493,0.293,1.429,0.62,-0.23,-54.48,3.878,0.489,0.328,0.479,0.490,0,0,LEFT,3.878,0.150,0.000,1.100
20:08:28.236,INSPECTING,1.493,0.293,1.429,0.31,0.29,-54.43,3.878,0.482,0.328,0.479,0.491,0,0,LEFT,3.878,0.150,0.000,1.100
20:08:28.435,INSPECTING,1.493,0.294,1.429,0.32,0.29,-54.29,3.878,0.491,0.328,2.288,0.494,0,0,LEFT,3.878,0.150,0.000,1.100
20:08:28.641,INSPECTING,1.493,0.294,1.429,0.63,-0.23,-54.21,3.878,2.692,0.326,2.200,2.692,0,0,LEFT,3.878,0.150,0.000,1.100
20:08:28.897,INSPECTING,1.493,0.294,1.429,0.32,0.29,-54.16,3.878,0.490,0.326,0.478,2.630,0,0,LEFT,3.878,0.150,0.000,1.100
20:08:29.050,INSPECTING,1.493,0.294,1.429,0.47,0.04,-54.01,3.878,2.661,0.327,2.243,2.661,0,0,LEFT,3.878,0.150,0.000,1.100
20:08:29.237,INSPECTING,1.493,0.294,1.429,0.75,-0.44,-54.04,3.878,0.492,0.328,2.243,2.311,0,0,LEFT,3.878,0.150,0.000,1.100
20:08:29.440,INSPECTING,1.493,0.294,1.429,0.42,0.10,-53.91,3.878,2.661,0.329,2.288,2.692,0,0,LEFT,3.878,0.150,0.000,1.100
20:08:29.676,SEARCHING,1.493,0.294,1.429,0.42,0.10,-53.91,3.945,2.692,0.329,0.479,2.384,0,0,LEFT,3.945,0.150,0.000,1.100
20:08:29.844,INSPECTING,1.503,0.294,1.369,1.07,-1.63,-57.98,3.632,0.502,0.277,2.571,2.335,0,0,SEARCHING,0.277,0.000,0.000,0.000
20:08:30.044,INSPECTING,1.503,0.294,1.371,1.07,-1.63,-57.98,3.467,0.499,0.278,2.514,0.501,0,0,LEFT,3.467,0.150,0.000,1.100
20:08:30.242,INSPECTING,1.503,0.294,1.372,0.42,-0.61,-57.71,3.467,0.500,0.278,2.542,0.502,0,0,LEFT,3.467,0.150,0.000,1.100
20:08:30.438,INSPECTING,1.503,0.294,1.371,0.42,-0.61,-57.71,3.467,0.500,0.277,2.571,0.506,0,0,LEFT,3.467,0.150,0.000,1.100
20:08:30.650,INSPECTING,1.503,0.294,1.372,0.10,-0.08,-57.59,3.520,0.500,0.278,2.571,0.506,0,0,LEFT,3.520,0.150,0.000,1.100
20:08:30.860,INSPECTING,1.503,0.294,1.371,-0.18,0.39,-57.59,3.520,0.503,0.275,2.630,0.506,0,0,LEFT,3.520,0.150,0.000,1.100
20:08:31.046,INSPECTING,1.503,0.294,1.372,-0.15,0.36,-57.49,3.520,0.508,0.276,2.661,0.745,0,0,LEFT,3.520,0.150,0.000,1.100
20:08:31.240,INSPECTING,1.503,0.294,1.371,-0.15,0.36,-57.49,3.520,0.507,0.275,2.692,2.571,0,0,LEFT,3.520,0.150,0.000,1.100
20:08:31.456,INSPECTING,1.503,0.294,1.371,0.17,-0.17,-57.38,3.520,0.507,0.275,2.661,0.750,0,0,LEFT,3.520,0.150,0.000,1.100
20:08:31.681,SEARCHING,1.503,0.295,1.371,-0.12,0.34,-57.39,3.575,0.517,0.273,2.692,2.571,0,0,LEFT,3.575,0.150,0.000,1.100
20:08:31.848,INSPECTING,1.503,0.295,1.371,0.20,-0.19,-57.30,3.575,0.513,0.278,2.692,2.571,0,0,LEFT,3.575,0.150,0.000,1.100
20:08:32.041,INSPECTING,1.503,0.295,1.371,-0.10,0.32,-57.29,3.575,2.630,0.276,2.692,2.661,0,0,LEFT,3.575,0.150,0.000,1.100
20:08:32.237,INSPECTING,1.503,0.295,1.371,-0.10,0.32,-57.29,3.575,2.630,0.276,2.692,2.661,0,0,LEFT,3.575,0.150,0.000,1.100
20:08:32.440,INSPECTING,1.503,0.295,1.371,-0.10,0.32,-57.29,3.575,0.518,0.277,2.692,2.571,0,0,LEFT,3.575,0.150,0.000,1.100
20:08:32.698,INSPECTING,1.503,0.295,1.371,0.07,0.04,-57.14,3.575,0.517,0.277,2.692,2.600,0,0,SEARCHING,0.277,0.000,0.000,0.000
20:08:32.860,INSPECTING,1.509,0.294,1.372,-0.26,0.44,-59.40,3.575,2.630,0.276,2.661,2.630,0,0,LEFT,3.575,0.150,0.000,1.100
20:08:33.041,INSPECTING,1.509,0.295,1.372,-0.21,0.39,-59.34,3.316,0.386,0.273,0.471,1.271,0,0,LEFT,3.316,0.150,0.000,1.100
20:08:33.247,INSPECTING,1.509,0.295,1.372,-0.21,0.39,-59.34,3.269,2.630,0.272,0.481,2.630,0,0,LEFT,3.269,0.150,0.000,1.100
20:08:33.453,INSPECTING,1.509,0.295,1.372,-0.21,0.39,-59.34,3.269,2.630,0.272,0.481,2.630,0,0,LEFT,3.269,0.150,0.000,1.100
20:08:33.659,INSPECTING,1.509,0.295,1.372,0.11,-0.14,-59.24,3.269,2.630,0.274,0.479,1.285,0,0,LEFT,3.269,0.150,0.000,1.100
20:08:33.858,INSPECTING,1.509,0.295,1.372,-0.18,0.36,-59.27,3.269,2.661,0.273,0.476,0.383,0,0,LEFT,3.269,0.150,0.000,1.100
20:08:34.052,INSPECTING,1.509,0.295,1.372,0.14,-0.17,-59.18,3.269,2.661,0.273,0.476,0.383,0,0,LEFT,3.269,0.150,0.000,1.100
20:08:34.250,INSPECTING,1.509,0.295,1.372,0.14,-0.17,-59.18,3.269,2.661,0.273,0.476,0.383,0,0,LEFT,3.269,0.150,0.000,1.100
20:08:34.489,SEARCHING,1.509,0.295,1.372,0.14,-0.17,-59.18,3.269,2.661,0.273,0.476,0.383,0,0,LEFT,3.269,0.150,0.000,1.100
20:08:34.651,INSPECTING,1.509,0.295,1.372,-0.15,0.33,-59.20,3.269,2.661,0.273,0.476,0.383,0,0,LEFT,3.269,0.150,0.000,1.100
20:08:34.855,INSPECTING,1.509,0.295,1.371,0.16,-0.19,-59.13,3.269,2.661,0.276,0.477,0.384,0,0,LEFT,3.269,0.150,0.000,1.100
20:08:35.060,INSPECTING,1.509,0.295,1.372,0.16,-0.19,-59.13,3.316,0.386,0.274,0.478,2.600,0,0,LEFT,3.316,0.150,0.000,1.100
20:08:35.256,INSPECTING,1.510,0.295,1.372,-0.13,0.32,-59.13,3.269,0.385,0.275,0.479,1.378,0,0,LEFT,3.269,0.150,0.000,1.100
20:08:35.462,INSPECTING,1.510,0.295,1.372,-0.13,0.32,-59.13,3.316,0.385,0.273,0.484,0.383,0,0,LEFT,3.316,0.150,0.000,1.100
20:08:35.660,INSPECTING,1.510,0.296,1.372,-0.12,0.30,-59.07,3.316,0.386,0.274,0.481,0.383,0,0,LEFT,3.316,0.150,0.000,1.100
20:08:35.856,INSPECTING,1.510,0.296,1.372,-0.12,0.30,-59.07,3.316,0.386,0.275,0.482,0.383,0,0,LEFT,3.316,0.150,0.000,1.100
20:08:36.058,INSPECTING,1.510,0.296,1.372,-0.12,0.30,-59.07,3.316,0.386,0.276,0.484,0.383,0,0,LEFT,3.316,0.150,0.000,1.100
20:08:36.305,SEARCHING,1.510,0.296,1.371,0.19,-0.22,-59.02,3.316,0.386,0.275,0.482,0.383,0,0,LEFT,3.316,0.150,0.000,1.100
20:08:36.476,INSPECTING,1.510,0.296,1.372,-0.10,0.29,-58.97,3.365,2.661,0.273,0.483,1.404,0,0,LEFT,3.365,0.150,0.000,1.100
20:08:36.675,INSPECTING,1.510,0.296,1.372,-0.09,0.28,-58.92,3.365,0.384,0.275,0.485,0.382,0,0,LEFT,3.365,0.150,0.000,1.100
20:08:36.867,INSPECTING,1.511,0.296,1.372,-0.08,0.28,-58.88,3.365,0.384,0.278,0.487,0.382,0,0,LEFT,3.365,0.150,0.000,1.100
20:08:37.071,INSPECTING,1.511,0.297,1.372,0.22,-0.25,-58.82,3.365,0.387,0.276,0.486,0.384,0,0,LEFT,3.365,0.150,0.000,1.100
20:08:37.315,INSPECTING,1.511,0.297,1.372,0.22,-0.25,-58.77,3.365,2.630,0.274,0.488,1.515,0,0,LEFT,3.365,0.150,0.000,1.100
20:08:37.476,INSPECTING,1.512,0.297,1.372,0.08,0.01,-58.72,3.365,0.384,0.274,0.490,1.589,0,0,LEFT,3.365,0.150,0.000,1.100
20:08:37.672,INSPECTING,1.512,0.297,1.372,0.03,0.06,-58.73,3.365,0.385,0.276,0.496,1.557,0,0,LEFT,3.365,0.150,0.000,1.100
20:08:37.872,INSPECTING,1.512,0.298,1.372,-0.01,0.11,-58.72,3.365,2.600,0.274,0.496,2.434,0,0,LEFT,3.365,0.150,0.000,1.100
20:08:38.120,SEARCHING,1.512,0.298,1.372,-0.05,0.15,-58.71,3.365,2.600,0.276,0.495,2.288,0,0,LEFT,3.365,0.150,0.000,1.100
20:08:38.312,SEARCHING,1.513,0.298,1.271,0.22,-0.32,-58.77,3.365,2.542,0.275,0.501,1.816,0,0,SEARCHING,0.275,0.800,-1.000,1.669
20:08:38.488,INSPECTING,1.520,0.296,1.172,-0.04,0.49,-61.78,2.934,2.514,0.446,2.434,0.367,0,0,LEFT,2.934,0.150,0.000,1.100
20:08:38.662,INSPECTING,1.520,0.296,1.172,0.27,-0.04,-61.72,2.934,0.770,0.415,0.381,2.119,0,0,LEFT,2.934,0.150,0.000,1.100
20:08:38.866,INSPECTING,1.520,0.297,1.172,0.00,0.43,-61.80,2.972,0.784,0.416,0.381,2.099,0,0,LEFT,2.972,0.150,0.000,1.100
20:08:39.081,INSPECTING,1.521,0.297,1.172,0.04,0.40,-61.81,2.934,0.797,0.441,0.382,2.200,0,0,LEFT,2.934,0.150,0.000,1.100
20:08:39.305,INSPECTING,1.521,0.297,1.172,0.08,0.36,-61.83,2.934,0.795,0.441,0.382,2.159,0,0,LEFT,2.934,0.150,0.000,1.100
20:08:39.468,INSPECTING,1.522,0.297,1.171,0.39,-0.17,-61.79,2.934,0.803,0.426,0.381,2.159,0,0,LEFT,2.934,0.150,0.000,1.100
20:08:39.668,INSPECTING,1.523,0.295,1.172,0.54,-0.72,-60.62,3.011,0.823,0.427,0.382,2.384,0,0,LEFT,3.011,0.150,0.000,1.100
20:08:39.871,INSPECTING,1.525,0.292,1.172,0.54,-0.72,-59.36,3.134,0.378,0.384,2.542,0.375,0,0,LEFT,3.134,0.150,0.000,1.100
20:08:40.114,SEARCHING,1.528,0.287,1.172,0.54,-0.72,-56.84,3.467,2.542,0.363,2.542,2.359,0,0,LEFT,3.467,0.150,0.000,1.100
20:08:40.233,SEARCHING,1.564,0.243,1.169,0.54,-0.72,-44.54,4.487,2.724,0.946,2.692,2.692,0,0,SEARCHING,0.946,0.800,0.000,0.835
20:08:40.434,SEARCHING,1.634,0.178,1.173,0.54,-0.72,-40.63,5.321,3.178,2.007,3.092,2.934,0,0,SEARCHING,2.007,0.800,0.038,0.310
20:08:40.635,SEARCHING,1.708,0.117,1.184,0.54,-0.72,-38.47,5.720,3.365,2.025,3.365,2.972,0,0,SEARCHING,2.025,0.800,0.087,0.319
20:08:40.835,SEARCHING,1.784,0.058,1.203,0.54,-0.72,-36.23,6.184,3.520,2.043,3.520,3.011,0,0,SEARCHING,2.043,0.800,0.106,0.328
20:08:41.036,SEARCHING,1.863,0.003,1.224,0.54,-0.72,-33.96,6.538,3.575,2.043,3.575,3.092,0,0,SEARCHING,2.043,0.800,0.096,0.337
20:08:41.236,SEARCHING,1.943,-0.049,1.244,0.54,-0.72,-31.68,6.184,3.632,2.138,3.632,3.134,0,0,SEARCHING,2.138,0.800,0.096,0.306
20:08:41.436,SEARCHING,2.026,-0.098,1.263,0.54,-0.72,-29.63,3.092,3.691,2.222,3.751,3.178,0,0,SEARCHING,2.222,0.800,0.106,0.127
20:08:41.637,SEARCHING,2.109,-0.145,1.284,0.54,-0.72,-28.82,2.934,3.751,2.266,3.751,3.223,0,0,SEARCHING,2.266,0.800,0.096,0.101
20:08:41.839,SEARCHING,2.194,-0.191,1.301,0.54,-0.72,-28.17,2.860,3.814,2.384,3.814,3.269,0,0,SEARCHING,2.384,0.800,0.096,0.070
20:08:42.039,SEARCHING,2.279,-0.236,1.319,0.54,-0.72,-27.69,5.085,3.751,2.384,3.751,3.365,0,0,SEARCHING,2.384,0.800,0.067,0.223
20:08:42.240,SEARCHING,2.364,-0.280,1.332,0.54,-0.72,-26.73,2.724,3.814,2.384,3.814,3.365,0,0,SEARCHING,2.384,0.800,0.077,0.052
20:08:42.439,SEARCHING,2.450,-0.323,1.348,0.54,-0.72,-26.33,2.757,3.878,2.409,3.814,3.365,0,0,SEARCHING,2.409,0.800,0.077,0.052
20:08:42.640,SEARCHING,2.536,-0.365,1.362,0.54,-0.72,-26.15,4.767,3.814,2.409,3.814,3.365,0,0,SEARCHING,2.409,0.800,0.077,0.205
20:08:42.841,SEARCHING,2.623,-0.407,1.376,0.54,-0.72,-24.76,2.542,3.878,2.460,3.878,3.467,0,0,SEARCHING,2.460,0.800,0.067,0.000
20:08:43.041,SEARCHING,2.710,-0.447,1.390,0.54,-0.72,-24.76,4.670,3.814,2.434,3.878,3.520,0,0,SEARCHING,2.434,0.800,0.058,0.197
20:08:43.242,SEARCHING,2.797,-0.486,1.406,0.54,-0.72,-23.44,2.460,3.945,2.409,3.945,3.520,0,0,SEARCHING,2.409,0.800,0.067,0.000
20:08:43.442,SEARCHING,2.885,-0.524,1.424,0.54,-0.72,-22.80,2.409,4.014,2.335,4.014,3.632,0,0,SEARCHING,2.335,0.800,0.058,0.000
20:08:43.642,SEARCHING,2.974,-0.562,1.435,0.54,-0.72,-22.15,3.945,4.014,2.288,4.086,3.632,0,0,SEARCHING,2.288,0.800,0.067,0.184
20:08:43.843,SEARCHING,3.063,-0.597,1.450,0.54,-0.72,-21.08,3.092,4.160,2.335,4.160,3.691,0,0,SEARCHING,2.335,0.800,0.067,0.105
20:08:44.044,SEARCHING,3.153,-0.631,1.464,0.54,-0.72,-20.36,3.051,4.317,2.335,4.237,3.691,0,0,SEARCHING,2.335,0.800,0.077,0.101
20:08:44.244,SEARCHING,3.243,-0.664,1.479,0.54,-0.72,-19.64,3.092,4.237,2.311,4.237,3.751,0,0,SEARCHING,2.311,0.800,0.067,0.109
20:08:44.445,SEARCHING,3.334,-0.696,1.494,0.54,-0.72,-18.95,2.972,4.400,2.335,4.317,3.814,0,0,SEARCHING,2.335,0.800,0.067,0.092
20:08:44.645,SEARCHING,3.425,-0.726,1.507,0.54,-0.72,-18.32,2.934,4.487,2.288,4.400,3.814,0,0,SEARCHING,2.288,0.800,0.077,0.096
20:08:44.845,SEARCHING,3.516,-0.756,1.523,0.54,-0.72,-17.73,2.825,4.487,2.311,4.400,3.878,0,0,SEARCHING,2.311,0.800,0.067,0.079
20:08:45.046,SEARCHING,3.608,-0.785,1.537,0.54,-0.72,-17.19,2.757,4.487,2.434,4.400,3.878,0,0,SEARCHING,2.434,0.800,0.067,0.000
20:08:45.247,SEARCHING,3.699,-0.813,1.551,0.54,-0.72,-17.19,2.934,4.400,2.359,4.400,3.814,0,0,SEARCHING,2.359,0.800,0.077,0.083
20:08:45.447,SEARCHING,3.791,-0.841,1.566,0.54,-0.72,-16.59,3.178,4.237,2.359,4.400,3.878,0,0,SEARCHING,2.359,0.800,0.067,0.109
20:08:45.647,SEARCHING,3.883,-0.868,1.578,0.54,-0.72,-15.81,3.223,4.487,2.384,4.400,3.878,0,0,SEARCHING,2.384,0.800,0.067,0.109
20:08:45.848,SEARCHING,3.976,-0.894,1.591,0.54,-0.72,-15.07,3.178,4.576,2.384,4.487,4.014,0,0,SEARCHING,2.384,0.800,0.058,0.105
20:08:46.048,SEARCHING,4.069,-0.919,1.602,0.54,-0.72,-14.34,3.223,5.867,2.409,4.400,4.086,0,0,SEARCHING,2.409,0.800,0.038,0.105
20:08:46.248,SEARCHING,4.162,-0.942,1.609,0.54,-0.72,-13.71,2.972,5.720,2.487,4.400,4.086,0,0,SEARCHING,2.487,0.800,0.038,0.066
20:08:46.449,SEARCHING,4.255,-0.964,1.618,0.54,-0.72,-13.21,3.134,5.720,2.487,4.400,4.086,0,0,SEARCHING,2.487,0.800,0.038,0.083
20:08:46.651,SEARCHING,4.349,-0.986,1.625,0.54,-0.72,-12.65,3.051,5.448,2.487,4.400,4.086,0,0,SEARCHING,2.487,0.800,0.038,0.074
20:08:46.851,SEARCHING,4.442,-1.006,1.631,0.54,-0.72,-12.13,3.051,5.321,2.514,4.400,4.160,0,0,SEARCHING,2.514,0.800,0.029,0.070
20:08:47.052,SEARCHING,4.536,-1.026,1.637,0.54,-0.72,-11.66,2.972,5.085,2.542,4.317,4.160,0,0,SEARCHING,2.542,0.800,0.019,0.057
20:08:47.252,SEARCHING,4.630,-1.045,1.642,0.54,-0.72,-11.26,2.934,5.085,2.514,4.317,4.160,0,0,SEARCHING,2.514,0.800,0.019,0.057
20:08:47.453,SEARCHING,4.725,-1.064,1.646,0.54,-0.72,-10.87,2.934,4.868,2.514,4.317,4.160,0,0,SEARCHING,2.514,0.800,0.019,0.057
20:08:47.655,SEARCHING,4.819,-1.082,1.652,0.54,-0.72,-10.67,2.934,4.868,2.542,4.317,4.160,0,0,SEARCHING,2.542,0.800,0.019,0.052
20:08:47.855,SEARCHING,4.913,-1.099,1.656,0.54,-0.72,-10.49,2.896,4.767,2.571,4.317,4.160,0,0,SEARCHING,2.571,0.800,0.019,0.000
20:08:48.055,SEARCHING,5.008,-1.117,1.660,0.54,-0.72,-10.31,2.860,4.670,2.514,4.400,4.086,0,0,SEARCHING,2.514,0.800,0.038,0.000
20:08:48.255,SEARCHING,5.102,-1.134,1.669,0.54,-0.72,-10.31,2.860,4.670,2.487,4.317,4.237,0,0,SEARCHING,2.487,0.800,0.010,0.052
20:08:48.456,SEARCHING,5.197,-1.151,1.670,0.54,-0.72,-10.13,2.790,4.576,2.514,4.317,4.237,0,0,SEARCHING,2.514,0.800,0.010,0.000
20:08:48.657,SEARCHING,5.291,-1.168,1.672,0.54,-0.72,-10.13,2.724,4.576,2.514,4.317,4.237,0,0,SEARCHING,2.514,0.800,0.010,0.000
20:08:48.857,SEARCHING,5.386,-1.185,1.675,0.54,-0.72,-10.13,2.600,4.487,2.460,4.317,4.237,0,0,SEARCHING,2.460,0.800,0.010,0.000
20:08:49.057,SEARCHING,5.480,-1.202,1.678,0.54,-0.72,-10.13,2.514,4.400,2.434,4.317,4.160,0,0,SEARCHING,2.434,0.800,0.019,0.000
20:08:49.257,SEARCHING,5.575,-1.219,1.682,0.54,-0.72,-10.13,2.460,4.237,2.384,4.317,4.237,0,0,SEARCHING,2.384,0.800,0.010,0.000
20:08:49.458,SEARCHING,5.669,-1.235,1.684,0.54,-0.72,-10.13,2.409,4.237,2.409,4.237,4.160,0,0,SEARCHING,2.409,0.800,0.010,0.000
20:08:50.471,SEARCHING,5.748,-1.250,1.685,0.54,-0.72,-10.13,2.384,4.160,2.409,4.160,4.160,0,0,SEARCHING,2.384,0.800,0.000,0.000
20:08:50.564,SEARCHING,5.827,-1.264,1.685,0.54,-0.72,-10.13,2.335,4.086,2.409,4.086,4.014,0,0,SEARCHING,2.335,0.800,0.010,0.000
20:08:50.748,SEARCHING,5.921,-1.280,1.686,0.54,-0.72,-10.13,2.335,3.945,2.335,3.878,3.878,0,0,SEARCHING,2.335,0.800,0.000,0.000
20:08:50.946,SEARCHING,6.016,-1.297,1.685,0.54,-0.72,-10.13,2.266,3.814,2.311,3.814,3.751,0,0,SEARCHING,2.266,0.800,0.010,0.000
20:08:51.147,SEARCHING,6.110,-1.314,1.686,0.54,-0.72,-10.13,2.311,3.691,2.200,3.751,3.691,0,0,SEARCHING,2.200,0.800,0.010,0.000
20:08:51.347,SEARCHING,6.205,-1.331,1.687,0.54,-0.72,-10.90,2.288,3.632,4.767,3.691,3.632,0,0,SEARCHING,2.288,0.800,0.010,-0.227
20:08:51.549,SEARCHING,6.299,-1.350,1.689,0.54,-0.72,-11.68,2.288,3.691,4.670,3.691,3.632,0,0,SEARCHING,2.288,0.800,0.010,-0.223
20:08:51.749,SEARCHING,6.392,-1.371,1.692,0.54,-0.72,-13.17,2.384,3.691,4.576,3.691,3.691,0,0,SEARCHING,2.384,0.800,0.000,-0.201
20:08:51.949,SEARCHING,6.486,-1.394,1.693,0.54,-0.72,-14.56,2.409,3.751,2.119,3.751,3.751,0,0,SEARCHING,2.119,0.800,0.000,0.057
20:08:52.149,SEARCHING,6.579,-1.417,1.692,0.54,-0.72,-14.13,2.384,3.691,4.487,3.632,3.691,0,0,SEARCHING,2.384,0.800,-0.010,-0.197
20:08:52.349,SEARCHING,6.672,-1.442,1.691,0.54,-0.72,-15.42,2.460,3.691,4.317,3.751,3.691,0,0,SEARCHING,2.460,0.800,0.010,-0.175
20:08:52.550,SEARCHING,6.764,-1.468,1.694,0.54,-0.72,-16.02,2.487,3.691,2.724,3.751,3.691,0,0,SEARCHING,2.487,0.800,0.010,0.000
20:08:52.750,SEARCHING,6.856,-1.495,1.695,0.54,-0.72,-16.62,2.514,3.691,4.317,3.691,3.691,0,0,SEARCHING,2.514,0.800,0.000,-0.166
20:08:52.951,SEARCHING,6.948,-1.523,1.696,0.54,-0.72,-17.76,2.571,3.691,2.661,3.751,3.751,0,0,SEARCHING,2.571,0.800,0.000,0.000
20:08:53.151,SEARCHING,7.039,-1.552,1.697,0.54,-0.72,-18.39,2.571,3.751,5.085,3.751,3.691,0,0,SEARCHING,2.571,0.800,0.010,-0.192
20:08:53.352,SEARCHING,7.130,-1.583,1.698,0.54,-0.72,-19.06,2.514,3.751,2.384,3.814,3.751,0,0,SEARCHING,2.384,0.800,0.010,0.000
20:08:53.552,SEARCHING,7.221,-1.615,1.700,0.54,-0.72,-19.75,2.409,3.365,4.767,3.632,3.751,0,0,SEARCHING,2.409,0.800,-0.019,-0.205
20:08:53.753,SEARCHING,7.311,-1.648,1.696,0.54,-0.72,-21.17,2.384,3.269,2.335,3.575,3.878,0,0,SEARCHING,2.335,0.800,-0.048,0.000
20:08:53.954,SEARCHING,7.400,-1.683,1.685,0.54,-0.72,-21.85,2.359,3.178,4.670,3.520,3.814,0,0,SEARCHING,2.359,0.800,-0.048,-0.210
20:08:54.154,SEARCHING,7.489,-1.720,1.677,0.54,-0.72,-23.23,2.384,3.178,2.061,3.467,3.632,0,0,SEARCHING,2.061,0.800,-0.029,0.066
20:08:54.355,SEARCHING,7.577,-1.757,1.675,0.54,-0.72,-23.64,2.384,2.934,4.160,3.415,3.415,0,0,SEARCHING,2.384,0.800,0.000,-0.179
20:08:54.555,SEARCHING,7.665,-1.797,1.675,0.54,-0.72,-24.87,2.384,2.896,1.990,3.316,3.365,0,0,SEARCHING,1.990,0.800,-0.010,0.083
20:08:54.756,SEARCHING,7.752,-1.837,1.674,0.54,-0.72,-25.15,2.384,2.825,3.691,3.223,3.223,0,0,SEARCHING,2.384,0.800,0.000,-0.149
20:08:54.956,SEARCHING,7.839,-1.878,1.678,0.54,-0.72,-26.18,2.384,2.860,3.632,3.134,3.011,0,0,SEARCHING,2.384,0.800,0.029,-0.144
20:08:55.156,SEARCHING,7.924,-1.921,1.682,0.54,-0.72,-27.14,2.384,2.724,3.316,3.011,2.934,0,0,SEARCHING,2.384,0.800,0.019,-0.118
20:08:55.358,SEARCHING,8.010,-1.966,1.686,0.54,-0.72,-27.93,2.409,2.757,3.316,2.896,2.934,0,0,SEARCHING,2.409,0.800,-0.010,-0.114
20:08:55.556,SEARCHING,8.094,-2.011,1.682,0.54,-0.72,-28.69,2.434,2.661,3.178,2.790,2.757,0,0,SEARCHING,2.434,0.800,0.010,-0.096
20:08:55.756,SEARCHING,8.178,-2.058,1.684,0.54,-0.72,-29.35,2.409,2.630,3.092,2.724,2.692,0,0,SEARCHING,2.409,0.800,0.010,-0.092
20:08:55.957,SEARCHING,8.262,-2.105,1.685,0.54,-0.72,-29.95,2.434,2.600,3.011,2.661,2.630,0,0,SEARCHING,2.434,0.800,0.010,-0.079
20:08:56.157,SEARCHING,8.345,-2.153,1.689,0.54,-0.72,-30.46,2.487,2.514,2.934,2.600,2.542,0,0,SEARCHING,2.487,0.800,0.019,-0.061
20:08:56.357,SEARCHING,8.426,-2.202,1.690,0.54,-0.72,-30.91,2.460,2.266,2.896,2.434,2.359,0,0,SEARCHING,2.266,0.725,0.029,-0.061
20:08:56.559,SEARCHING,8.500,-2.246,1.699,0.54,-0.72,-31.36,2.409,2.222,2.934,2.335,2.266,0,0,SEARCHING,2.222,0.711,0.029,-0.074
20:08:56.758,SEARCHING,8.572,-2.290,1.703,0.54,-0.72,-31.89,2.288,2.222,2.896,2.288,2.266,0,0,SEARCHING,2.222,0.711,0.010,-0.092
20:08:56.960,SEARCHING,8.644,-2.336,1.705,0.54,-0.72,-32.53,2.222,2.200,2.790,2.200,2.243,0,0,SEARCHING,2.200,0.704,-0.019,-0.092
20:08:57.159,SEARCHING,8.715,-2.381,1.698,0.54,-0.72,-33.22,2.080,2.061,2.757,2.080,2.179,0,0,SEARCHING,2.061,0.660,-0.048,-0.118
20:08:57.360,SEARCHING,8.782,-2.426,1.690,0.54,-0.72,-34.02,1.990,2.043,2.661,2.061,2.099,0,0,SEARCHING,1.990,0.654,-0.019,-0.127
20:08:57.560,SEARCHING,8.845,-2.469,1.691,0.54,-0.72,-34.94,1.939,1.973,2.600,2.061,1.990,0,0,SEARCHING,1.939,0.631,0.038,-0.131
20:08:57.762,SEARCHING,8.907,-2.513,1.700,0.54,-0.72,-35.84,1.845,1.973,2.514,2.007,1.939,0,0,SEARCHING,1.845,0.631,0.038,-0.144
20:08:57.962,SEARCHING,8.976,-2.563,1.662,0.54,-0.72,-36.81,1.747,4.767,2.409,4.237,2.757,0,0,SEARCHING,1.747,0.800,0.279,-0.157
20:08:58.162,SEARCHING,9.052,-2.622,1.729,0.54,-0.72,-37.93,1.634,4.576,2.335,4.086,2.692,0,0,SEARCHING,1.634,0.800,0.279,-0.184
20:08:58.362,SEARCHING,9.127,-2.681,1.785,0.54,-0.72,-39.20,1.567,4.400,2.243,4.014,2.757,0,0,SEARCHING,1.567,0.800,0.250,-0.192
20:08:58.562,SEARCHING,9.201,-2.743,1.836,0.54,-0.72,-40.55,1.467,4.086,2.138,3.878,2.724,0,0,SEARCHING,1.467,0.800,0.240,-0.214
20:08:58.763,SEARCHING,9.273,-2.806,1.881,0.54,-0.72,-42.19,1.370,3.751,2.007,3.691,2.860,0,0,SEARCHING,1.370,0.800,0.173,-0.232
20:08:58.964,SEARCHING,9.344,-2.871,1.912,0.54,-0.72,-43.72,1.293,3.575,1.891,3.575,2.934,0,0,SEARCHING,1.293,0.800,0.135,-0.245
20:08:59.164,SEARCHING,9.412,-2.938,1.936,0.54,-0.72,-45.45,5.448,3.365,1.774,3.365,3.011,0,0,SEARCHING,1.774,0.800,0.077,0.380
20:08:59.365,SEARCHING,9.481,-3.006,1.950,0.54,-0.71,-44.97,5.448,3.316,1.816,3.365,3.051,0,0,SEARCHING,1.816,0.800,0.067,0.367
20:08:59.564,SEARCHING,9.550,-3.072,1.964,0.54,-0.71,-42.45,5.720,3.415,1.860,3.415,3.051,0,0,SEARCHING,1.860,0.800,0.077,0.363
20:08:59.765,SEARCHING,9.622,-3.136,1.978,0.54,-0.71,-39.97,1.198,3.632,1.990,3.520,3.134,0,0,SEARCHING,1.198,0.800,0.077,-0.332
20:08:59.966,SEARCHING,9.695,-3.198,1.994,0.54,-0.71,-39.94,6.022,3.575,1.990,3.467,3.134,0,0,SEARCHING,1.990,0.800,0.067,0.337
20:09:00.167,SEARCHING,9.769,-3.259,2.006,0.54,-0.71,-40.12,5.720,3.632,1.990,3.415,3.178,0,0,SEARCHING,1.990,0.800,0.048,0.328
20:09:00.368,SEARCHING,9.843,-3.320,2.015,0.54,-0.71,-37.90,5.720,3.691,2.080,3.467,3.223,0,0,SEARCHING,2.080,0.800,0.048,0.306
20:09:00.568,SEARCHING,9.920,-3.378,2.025,0.54,-0.71,-35.85,5.720,3.751,2.243,3.415,3.223,0,0,SEARCHING,2.243,0.800,0.038,0.271
20:09:00.769,SEARCHING,9.998,-3.433,2.032,0.54,-0.71,-33.97,5.581,3.751,2.288,3.365,3.223,0,0,SEARCHING,2.288,0.800,0.029,0.258
20:09:00.969,SEARCHING,10.079,-3.485,2.038,0.54,-0.71,-32.25,5.448,3.814,2.359,3.365,3.269,0,0,SEARCHING,2.359,0.800,0.019,0.240
20:09:01.170,SEARCHING,10.161,-3.536,2.042,0.54,-0.71,-30.58,5.448,3.945,2.409,3.365,3.316,0,0,SEARCHING,2.409,0.800,0.010,0.232
20:09:01.370,SEARCHING,10.244,-3.584,2.044,0.54,-0.71,-29.06,5.085,4.014,2.487,3.365,3.415,0,0,SEARCHING,2.487,0.800,-0.010,0.205
20:09:01.571,SEARCHING,10.328,-3.629,2.032,0.54,-0.71,-27.66,4.868,4.237,2.630,3.365,3.945,0,0,SEARCHING,2.630,0.800,-0.096,0.175
20:09:01.771,SEARCHING,10.414,-3.673,2.014,0.54,-0.71,-26.49,4.670,4.317,2.692,3.415,4.014,0,0,SEARCHING,2.692,0.800,-0.096,0.157
20:09:01.972,SEARCHING,10.500,-3.715,1.996,0.54,-0.71,-25.44,4.487,4.487,2.724,3.467,4.014,0,0,SEARCHING,2.724,0.800,-0.087,0.144
20:09:02.174,SEARCHING,10.587,-3.756,1.981,0.54,-0.71,-24.48,4.400,4.487,2.757,3.575,4.086,0,0,SEARCHING,2.757,0.800,-0.077,0.135
20:09:02.376,SEARCHING,10.674,-3.795,1.965,0.54,-0.71,-23.58,4.160,4.670,2.724,3.632,4.086,0,0,SEARCHING,2.724,0.800,-0.067,0.127
20:09:02.576,SEARCHING,10.763,-3.833,1.946,0.54,-0.71,-22.72,4.014,4.974,2.692,3.575,4.014,0,0,SEARCHING,2.692,0.800,-0.067,0.122
20:09:02.776,SEARCHING,10.851,-3.870,1.935,0.54,-0.71,-21.89,4.014,5.867,2.724,3.575,4.014,0,0,SEARCHING,2.724,0.800,-0.067,0.118
20:09:02.977,SEARCHING,10.941,-3.905,1.918,0.54,-0.71,-21.11,3.878,5.867,2.692,3.415,4.014,0,0,SEARCHING,2.692,0.800,-0.096,0.114
20:09:03.178,SEARCHING,11.030,-3.939,1.897,0.54,-0.71,-20.35,3.751,6.022,2.692,3.365,3.945,0,0,SEARCHING,2.692,0.800,-0.096,0.105
20:09:03.378,SEARCHING,11.121,-3.972,1.875,0.54,-0.71,-19.67,3.632,3.467,2.724,3.365,3.945,0,0,SEARCHING,2.724,0.800,-0.096,0.092
20:09:03.581,SEARCHING,11.211,-4.004,1.855,0.54,-0.71,-19.03,3.575,3.051,2.724,3.415,3.878,0,0,SEARCHING,2.724,0.800,-0.077,0.087
20:09:03.779,SEARCHING,11.302,-4.035,1.834,0.54,-0.71,-18.48,3.269,2.896,2.757,3.269,3.814,0,0,SEARCHING,2.757,0.800,-0.096,0.057
20:09:03.979,SEARCHING,11.393,-4.065,1.818,0.54,-0.71,-18.29,3.051,2.896,2.757,3.178,3.878,0,0,SEARCHING,2.757,0.800,-0.125,0.000
20:09:04.180,SEARCHING,11.484,-4.095,1.788,0.54,-0.71,-18.29,2.972,2.825,2.630,2.934,3.878,0,0,SEARCHING,2.630,0.800,-0.183,0.000
20:09:04.381,SEARCHING,11.575,-4.125,1.750,0.54,-0.71,-18.29,2.825,2.757,2.661,2.757,3.751,0,0,SEARCHING,2.661,0.800,-0.212,0.000
20:09:04.581,SEARCHING,11.667,-4.155,1.708,0.54,-0.71,-18.29,2.757,2.724,2.600,2.630,3.632,0,0,SEARCHING,2.600,0.800,-0.231,0.000
20:09:04.781,SEARCHING,11.758,-4.185,1.667,0.54,-0.71,-18.29,2.825,2.692,2.661,2.542,3.365,0,0,SEARCHING,2.542,0.800,-0.212,0.000
20:09:04.981,SEARCHING,11.849,-4.216,1.623,0.54,-0.71,-18.29,2.790,2.757,2.661,2.460,3.269,0,0,SEARCHING,2.460,0.800,-0.221,0.000
20:09:05.182,SEARCHING,11.940,-4.246,1.578,0.54,-0.71,-18.29,3.415,3.178,2.600,2.359,3.134,0,0,SEARCHING,2.359,0.800,-0.231,0.092
20:09:05.383,SEARCHING,12.031,-4.275,1.533,0.54,-0.71,-17.66,3.365,6.538,2.571,2.222,3.051,0,0,SEARCHING,2.222,0.800,-0.269,0.092
20:09:05.583,SEARCHING,12.123,-4.304,1.478,0.54,-0.71,-17.04,3.269,6.538,2.600,2.159,2.860,0,0,SEARCHING,2.159,0.800,-0.250,0.079
20:09:05.784,SEARCHING,12.215,-4.332,1.429,0.54,-0.71,-16.52,3.178,6.538,2.661,2.061,2.630,0,0,SEARCHING,2.061,0.800,-0.231,0.061
20:09:05.984,SEARCHING,12.307,-4.359,1.383,0.54,-0.71,-16.10,3.092,6.356,2.571,1.956,2.514,0,0,SEARCHING,1.956,0.800,-0.250,0.066
20:09:06.185,SEARCHING,12.399,-4.385,1.331,0.54,-0.71,-15.67,3.092,6.356,2.571,1.939,2.384,0,0,SEARCHING,1.939,0.800,-0.212,0.066
20:09:06.385,SEARCHING,12.492,-4.411,1.290,0.54,-0.71,-15.45,3.051,6.184,3.415,1.907,2.243,0,0,SEARCHING,1.907,0.800,-0.173,0.000
20:09:06.586,SEARCHING,12.584,-4.436,1.260,0.54,-0.71,-15.45,2.972,6.022,3.520,1.956,2.159,0,0,SEARCHING,1.956,0.800,-0.106,-0.052
20:09:06.787,SEARCHING,12.677,-4.462,1.238,0.54,-0.71,-15.81,3.011,5.321,3.520,1.923,2.138,0,0,SEARCHING,1.923,0.800,-0.115,0.000
20:09:06.987,SEARCHING,12.769,-4.488,1.221,0.54,-0.71,-15.99,2.934,5.200,3.467,2.061,2.099,0,0,SEARCHING,2.061,0.800,-0.019,-0.052
20:09:07.187,SEARCHING,12.861,-4.515,1.214,0.54,-0.71,-16.17,2.972,4.974,3.467,2.025,2.099,0,0,SEARCHING,2.025,0.800,-0.038,0.000
20:09:07.388,SEARCHING,12.954,-4.542,1.204,0.54,-0.71,-16.17,2.972,4.868,3.467,2.061,2.179,0,0,SEARCHING,2.061,0.800,-0.058,0.000
20:09:07.588,SEARCHING,13.046,-4.569,1.186,0.54,-0.71,-16.35,2.934,4.487,3.415,2.119,2.359,0,0,SEARCHING,2.119,0.800,-0.106,0.000
20:09:07.789,SEARCHING,13.138,-4.596,1.165,0.54,-0.71,-16.35,2.860,4.400,3.415,2.179,2.434,0,0,SEARCHING,2.179,0.800,-0.106,-0.057
20:09:07.990,SEARCHING,13.230,-4.623,1.144,0.54,-0.71,-16.55,2.934,4.576,3.365,2.222,2.384,0,0,SEARCHING,2.222,0.800,-0.067,0.000
20:09:08.190,SEARCHING,13.322,-4.650,1.134,0.54,-0.71,-16.73,2.860,4.868,3.365,2.222,2.311,0,0,SEARCHING,2.222,0.800,-0.038,-0.052
20:09:08.391,SEARCHING,13.414,-4.678,1.125,0.54,-0.71,-16.91,2.896,4.670,3.269,2.222,2.288,0,0,SEARCHING,2.222,0.800,-0.029,0.000
20:09:08.590,SEARCHING,13.506,-4.706,1.121,0.54,-0.71,-16.91,2.896,4.670,3.365,2.266,2.288,0,0,SEARCHING,2.266,0.800,-0.010,0.000
20:09:08.792,SEARCHING,13.598,-4.734,1.118,0.54,-0.71,-16.91,2.934,4.868,3.269,2.222,2.266,0,0,SEARCHING,2.222,0.800,-0.019,0.000
20:09:08.991,SEARCHING,13.689,-4.762,1.115,0.54,-0.71,-16.91,2.934,4.868,3.316,2.266,2.243,0,0,SEARCHING,2.243,0.800,0.010,0.000
20:09:09.192,SEARCHING,13.781,-4.790,1.116,0.54,-0.71,-16.91,3.092,4.400,3.269,2.266,2.311,0,0,SEARCHING,2.266,0.800,-0.019,0.000
20:09:09.392,SEARCHING,13.873,-4.818,1.109,0.54,-0.71,-16.91,3.575,4.576,3.269,2.288,2.311,0,0,SEARCHING,2.288,0.800,-0.010,0.000
20:09:09.593,SEARCHING,13.965,-4.846,1.107,0.54,-0.71,-16.91,3.751,4.670,3.223,2.222,2.311,0,0,SEARCHING,2.222,0.800,-0.038,0.000
20:09:09.793,SEARCHING,14.057,-4.873,1.097,0.54,-0.71,-16.91,3.945,4.576,3.223,2.159,2.311,0,0,SEARCHING,2.159,0.800,-0.067,0.057
20:09:09.995,SEARCHING,14.149,-4.901,1.117,0.54,-0.71,-16.49,3.945,4.487,3.178,2.159,2.514,0,0,SEARCHING,2.159,0.800,-0.144,0.061
20:09:10.195,SEARCHING,14.241,-4.928,1.118,0.54,-0.71,-16.05,4.014,4.487,3.223,2.972,2.514,0,0,SEARCHING,2.514,0.800,0.135,0.061
20:09:10.395,SEARCHING,14.333,-4.954,1.140,0.54,-0.71,-15.64,3.814,4.400,3.269,2.860,2.600,0,0,SEARCHING,2.600,0.800,0.077,0.000
20:09:10.599,SEARCHING,14.426,-4.980,1.154,0.54,-0.71,-15.64,3.878,4.317,3.269,2.825,2.630,0,0,SEARCHING,2.630,0.800,0.058,0.000
20:09:10.799,SEARCHING,14.518,-5.006,1.162,0.54,-0.71,-15.42,3.751,4.317,2.972,2.692,2.661,0,0,SEARCHING,2.661,0.800,0.010,0.070
20:09:10.999,SEARCHING,14.611,-5.031,1.163,0.54,-0.71,-14.94,3.691,4.237,2.825,2.542,2.630,0,0,SEARCHING,2.542,0.800,-0.029,0.083
20:09:11.200,SEARCHING,14.704,-5.056,1.155,0.54,-0.71,-14.65,3.632,4.237,3.269,2.434,2.630,0,0,SEARCHING,2.434,0.800,-0.067,0.000
20:09:11.401,SEARCHING,14.796,-5.080,1.141,0.54,-0.71,-14.65,3.575,4.160,3.178,2.384,2.571,0,0,SEARCHING,2.384,0.800,-0.067,0.000
20:09:11.599,SEARCHING,14.889,-5.104,1.128,0.54,-0.71,-14.65,3.467,4.086,3.134,2.311,2.542,0,0,SEARCHING,2.311,0.800,-0.087,0.000
20:09:11.800,SEARCHING,14.982,-5.129,1.109,0.54,-0.71,-14.65,3.415,4.086,3.134,2.159,2.514,0,0,SEARCHING,2.159,0.800,-0.144,0.000
20:09:12.000,SEARCHING,15.075,-5.153,1.080,0.54,-0.71,-14.65,3.316,4.014,3.134,2.080,2.460,0,0,SEARCHING,2.080,0.800,-0.163,0.000
20:09:12.201,SEARCHING,15.168,-5.177,1.045,0.54,-0.71,-14.65,3.269,3.945,3.134,2.007,2.359,0,0,SEARCHING,2.007,0.800,-0.163,0.000
20:09:12.401,SEARCHING,15.261,-5.201,1.015,0.54,-0.71,-14.65,3.092,3.878,3.092,1.923,2.243,0,0,SEARCHING,1.923,0.800,-0.163,0.000
20:09:12.601,SEARCHING,15.354,-5.226,0.982,0.54,-0.71,-14.38,3.092,4.014,3.092,1.876,2.179,0,0,SEARCHING,1.876,0.800,-0.163,0.000
20:09:12.802,SEARCHING,15.447,-5.249,0.949,0.54,-0.71,-14.38,2.972,3.945,3.051,1.860,2.099,0,0,SEARCHING,1.860,0.800,-0.135,0.000
20:09:13.002,SEARCHING,15.540,-5.273,0.928,0.54,-0.71,-14.38,2.896,3.878,3.011,1.891,2.061,0,0,SEARCHING,1.891,0.800,-0.096,0.000
20:09:13.203,SEARCHING,15.633,-5.297,0.911,0.54,-0.71,-14.38,2.825,3.878,3.011,1.956,2.043,0,0,SEARCHING,1.956,0.800,-0.048,0.000
20:09:13.403,SEARCHING,15.726,-5.321,0.906,0.54,-0.71,-14.38,2.757,3.814,2.896,1.956,2.061,0,0,SEARCHING,1.956,0.800,-0.058,0.000
20:09:13.603,SEARCHING,15.819,-5.345,0.894,0.54,-0.71,-14.38,2.692,3.814,2.860,1.973,2.061,0,0,SEARCHING,1.973,0.800,-0.048,0.000
20:09:13.805,SEARCHING,15.912,-5.369,0.887,0.54,-0.71,-14.38,2.630,3.751,2.896,2.025,2.043,0,0,SEARCHING,2.025,0.800,-0.010,0.000
20:09:14.005,SEARCHING,16.005,-5.393,0.882,0.54,-0.71,-14.38,2.571,3.751,2.790,2.007,2.043,0,0,SEARCHING,2.007,0.800,-0.019,0.000
20:09:14.205,SEARCHING,16.098,-5.416,0.882,0.54,-0.71,-14.38,2.542,3.691,2.757,2.080,2.007,0,0,SEARCHING,2.007,0.800,0.038,0.000
20:09:14.406,SEARCHING,16.191,-5.440,0.886,0.54,-0.71,-14.38,2.542,3.575,2.661,2.043,2.043,0,0,SEARCHING,2.043,0.800,0.000,0.000
20:09:14.606,SEARCHING,16.284,-5.464,0.887,0.54,-0.71,-14.38,2.630,3.575,2.542,2.025,2.061,0,0,SEARCHING,2.025,0.800,-0.019,0.000
20:09:14.807,SEARCHING,16.377,-5.488,0.884,0.54,-0.71,-14.38,2.630,3.520,2.434,2.025,2.061,0,0,SEARCHING,2.025,0.800,-0.019,0.000
20:09:15.007,SEARCHING,16.470,-5.512,0.880,0.54,-0.71,-14.38,2.692,3.467,2.335,2.025,2.043,0,0,SEARCHING,2.025,0.800,-0.010,0.057
20:09:15.208,SEARCHING,16.563,-5.535,0.879,0.54,-0.71,-13.99,2.661,3.520,2.266,2.043,2.025,0,0,SEARCHING,2.025,0.800,0.010,0.066
20:09:15.413,SEARCHING,16.656,-5.558,0.881,0.54,-0.71,-13.48,2.661,3.520,2.138,2.025,2.043,0,0,SEARCHING,2.025,0.800,-0.010,0.092
20:09:15.612,SEARCHING,16.749,-5.580,0.877,0.54,-0.71,-12.82,2.571,3.520,2.043,1.990,2.007,0,0,SEARCHING,1.990,0.800,-0.010,0.101
20:09:15.813,SEARCHING,16.843,-5.601,0.876,0.54,-0.71,-12.07,2.542,3.520,1.939,2.025,2.007,0,0,SEARCHING,1.939,0.800,0.010,0.122
20:09:16.013,SEARCHING,16.937,-5.621,0.879,0.54,-0.71,-11.18,2.460,3.632,1.831,1.973,2.043,0,0,SEARCHING,1.831,0.800,-0.038,0.140
20:09:16.213,SEARCHING,17.031,-5.638,0.868,0.54,-0.71,-10.21,2.384,3.878,1.788,1.990,2.080,0,0,SEARCHING,1.788,0.800,-0.048,0.140
20:09:16.414,SEARCHING,17.126,-5.655,0.860,0.54,-0.71,-9.32,2.311,3.575,1.831,1.973,2.080,0,0,SEARCHING,1.831,0.800,-0.058,0.114
20:09:16.616,SEARCHING,17.221,-5.670,0.934,0.54,-0.71,-8.57,2.266,3.269,1.876,1.802,2.243,0,0,SEARCHING,1.802,0.800,-0.240,0.092
20:09:16.816,SEARCHING,17.316,-5.684,0.878,0.54,-0.71,-7.98,2.200,3.269,1.891,5.581,2.099,0,0,SEARCHING,1.891,0.800,0.654,0.074
20:09:17.016,SEARCHING,17.411,-5.697,0.910,0.54,-0.71,-7.53,2.138,3.365,1.907,5.720,2.159,0,0,SEARCHING,1.907,0.800,0.635,0.057
20:09:17.217,SEARCHING,17.506,-5.709,0.926,0.54,-0.71,-7.34,2.138,3.316,1.923,5.581,2.200,0,0,SEARCHING,1.923,0.800,0.606,0.052
20:09:17.417,SEARCHING,17.601,-5.721,1.051,0.54,-0.71,-6.96,2.099,3.269,1.907,1.496,2.542,0,0,SEARCHING,1.496,0.800,-0.606,0.000
20:09:17.619,SEARCHING,17.697,-5.733,1.043,0.54,-0.71,-6.96,2.138,3.223,1.956,5.321,2.514,0,0,SEARCHING,1.956,0.800,0.462,0.000
20:09:17.820,SEARCHING,17.792,-5.744,1.128,0.54,-0.71,-6.78,2.138,3.051,1.907,1.293,2.692,0,0,SEARCHING,1.293,0.800,-0.885,0.057
20:09:18.022,SEARCHING,17.887,-5.755,1.089,0.54,-0.71,-6.59,2.119,2.972,1.956,5.085,2.600,0,0,SEARCHING,1.956,0.800,0.413,0.000
20:09:18.221,SEARCHING,17.983,-5.766,1.166,0.54,-0.71,-6.59,2.099,2.896,1.923,4.974,2.757,0,0,SEARCHING,1.923,0.800,0.356,0.000
20:09:18.422,SEARCHING,18.078,-5.777,1.232,0.54,-0.71,-6.59,2.080,2.825,1.956,1.022,2.825,0,0,SEARCHING,1.022,0.800,-1.000,0.000
20:09:18.623,SEARCHING,18.173,-5.788,1.171,0.54,-0.71,-6.59,2.099,2.692,1.956,4.974,2.757,0,0,SEARCHING,1.956,0.800,0.356,0.000
20:09:18.823,SEARCHING,18.269,-5.799,1.242,0.54,-0.71,-6.59,2.119,2.571,1.939,4.670,2.692,0,0,SEARCHING,1.939,0.800,0.346,0.000
20:09:19.024,SEARCHING,18.364,-5.810,1.313,0.54,-0.71,-6.40,2.099,2.434,1.939,4.576,2.571,0,0,SEARCHING,1.939,0.779,0.375,0.000
20:09:19.268,SEARCHING,18.458,-5.821,1.390,0.54,-0.71,-6.40,2.061,2.434,1.956,0.685,2.460,0,0,SEARCHING,0.685,0.779,-1.000,0.000
20:09:19.428,SEARCHING,18.518,-5.828,1.332,0.54,-0.71,-6.40,2.061,2.266,1.923,4.487,2.434,0,0,SEARCHING,1.923,0.725,0.413,0.000
20:09:19.626,SEARCHING,18.605,-5.837,1.416,0.54,-0.71,-5.37,2.007,2.384,1.939,4.317,2.359,0,0,SEARCHING,1.939,0.763,0.423,0.000
20:09:19.872,SEARCHING,18.698,-5.846,1.501,0.54,-0.71,-4.38,4.400,6.538,7.627,0.430,2.384,0,0,SEARCHING,0.430,0.800,-1.000,-0.048
20:09:20.028,SEARCHING,18.761,-5.850,1.444,0.54,-0.71,-3.67,4.237,6.538,2.159,4.317,2.335,0,0,SEARCHING,2.159,0.800,0.433,0.227
20:09:20.228,SEARCHING,18.857,-5.856,1.528,0.54,-0.71,-4.42,4.160,6.356,10.000,4.160,2.288,0,0,SEARCHING,2.288,0.800,0.433,-0.140
20:09:20.428,SEARCHING,18.952,-5.864,1.617,0.54,-0.71,-5.40,4.237,6.356,10.000,4.576,2.159,0,0,SEARCHING,2.159,0.800,0.538,-0.136
20:09:20.628,SEARCHING,19.048,-5.874,1.677,0.00,-0.00,-6.33,4.237,6.538,10.000,3.632,2.119,0,0,SEARCHING,2.119,0.800,0.433,-0.136
20:09:20.829,SEARCHING,19.143,-5.885,1.677,0.00,-0.00,-7.26,4.317,6.538,10.000,3.751,1.891,0,0,SEARCHING,1.891,0.800,0.577,-0.132
20:09:21.030,SEARCHING,19.238,-5.898,1.661,0.00,-0.00,-8.17,4.400,6.538,10.000,3.751,1.802,0,0,SEARCHING,1.802,0.800,0.635,-0.127
20:09:21.230,SEARCHING,19.438,-5.915,1.877,-0.00,-0.15,-6.79,4.086,6.184,9.949,2.934,4.670,0,0,SEARCHING,2.934,0.800,-0.279,-0.144
20:09:21.431,SEARCHING,19.533,-5.927,1.820,-0.00,-0.15,-7.77,4.237,6.184,10.000,3.365,4.400,0,0,SEARCHING,3.365,0.800,-0.154,-0.136
20:09:21.630,SEARCHING,19.628,-5.941,1.792,-0.00,-0.15,-8.71,4.160,6.538,9.949,3.415,4.237,0,0,SEARCHING,3.415,0.800,-0.125,-0.140
20:09:21.832,SEARCHING,19.723,-5.956,1.768,-0.00,-0.15,-9.67,4.160,6.538,9.949,3.467,4.237,0,0,SEARCHING,3.467,0.800,-0.115,-0.140
20:09:22.034,SEARCHING,19.818,-5.973,1.747,-0.00,-0.15,-10.61,4.160,6.538,9.534,3.691,4.237,0,0,SEARCHING,3.691,0.800,-0.077,-0.135
20:09:22.234,SEARCHING,19.912,-5.991,1.733,-0.00,-0.15,-11.56,4.160,6.934,9.534,3.751,4.237,0,0,SEARCHING,3.751,0.800,-0.067,-0.135
20:09:22.433,SEARCHING,20.006,-6.011,1.720,-0.00,-0.15,-12.43,4.237,7.151,8.801,3.751,4.237,0,0,SEARCHING,3.751,0.800,-0.067,-0.122
20:09:22.633,SEARCHING,20.099,-6.032,1.707,-0.00,-0.15,-13.29,4.317,7.151,8.172,3.814,4.237,0,0,SEARCHING,3.814,0.800,-0.058,-0.109
20:09:23.638,SEARCHING,20.177,-6.051,1.697,-0.00,-0.15,-13.91,4.237,7.381,7.890,3.878,4.237,0,0,SEARCHING,3.878,0.800,-0.048,-0.109
20:09:23.697,SEARCHING,20.224,-6.063,1.688,-0.00,-0.15,-14.32,4.317,7.627,7.890,4.014,4.237,0,0,SEARCHING,4.014,0.800,-0.029,-0.105
20:09:23.873,SEARCHING,20.317,-6.087,1.681,-0.00,-0.15,-15.04,4.400,7.890,7.627,4.014,4.237,0,0,SEARCHING,4.014,0.800,-0.029,-0.096
20:09:24.070,SEARCHING,20.409,-6.112,1.675,-0.00,-0.15,-15.72,4.400,8.172,7.627,4.014,4.237,0,0,SEARCHING,4.014,0.800,-0.029,-0.096
20:09:24.271,SEARCHING,20.502,-6.139,1.669,-0.00,-0.15,-16.38,4.400,8.475,7.381,4.014,4.237,0,0,SEARCHING,4.014,0.800,-0.029,-0.092
20:09:24.472,SEARCHING,20.594,-6.166,1.664,-0.00,-0.15,-17.01,4.400,8.801,7.151,4.086,4.237,0,0,SEARCHING,4.086,0.800,-0.019,-0.087
20:09:24.672,SEARCHING,20.685,-6.195,1.660,-0.00,-0.15,-17.61,4.400,9.534,6.934,4.014,4.160,0,0,SEARCHING,4.014,0.800,-0.019,-0.083
20:09:24.875,SEARCHING,20.777,-6.224,1.658,-0.00,-0.15,-18.18,4.400,9.534,6.934,4.086,4.160,0,0,SEARCHING,4.086,0.800,-0.010,-0.083
20:09:25.075,SEARCHING,20.868,-6.254,1.657,-0.00,-0.15,-18.75,4.400,9.949,6.934,4.086,4.237,0,0,SEARCHING,4.086,0.800,-0.019,-0.083
20:09:25.275,SEARCHING,20.958,-6.286,1.655,-0.00,-0.15,-19.32,4.400,10.000,6.730,4.160,4.160,0,0,SEARCHING,4.160,0.800,0.000,-0.079
20:09:25.476,SEARCHING,21.049,-6.318,1.655,-0.00,-0.15,-19.86,4.400,10.000,6.538,4.160,4.160,0,0,SEARCHING,4.160,0.800,0.000,-0.074
20:09:25.676,SEARCHING,21.139,-6.351,1.655,-0.00,-0.15,-20.38,4.487,9.949,6.538,4.237,4.160,0,0,SEARCHING,4.160,0.800,0.010,-0.070
20:09:25.877,SEARCHING,21.229,-6.384,1.656,-0.00,-0.15,-20.86,4.487,9.949,6.184,4.237,4.160,0,0,SEARCHING,4.160,0.800,0.010,-0.061
20:09:26.077,SEARCHING,21.319,-6.419,1.658,-0.00,-0.15,-21.26,4.487,9.949,6.184,4.237,4.160,0,0,SEARCHING,4.160,0.800,0.010,-0.061
20:09:26.279,SEARCHING,21.408,-6.454,1.660,-0.00,-0.15,-21.67,4.576,9.949,6.022,4.237,4.160,0,0,SEARCHING,4.160,0.800,0.010,-0.052
20:09:26.479,SEARCHING,21.497,-6.490,1.662,-0.00,-0.15,-22.03,4.576,9.949,6.022,4.160,4.160,0,0,SEARCHING,4.160,0.800,0.000,-0.052
20:09:26.679,SEARCHING,21.586,-6.526,1.662,-0.00,-0.15,-22.39,4.576,9.534,5.867,4.160,4.160,0,0,SEARCHING,4.160,0.800,0.000,0.000
20:09:26.881,SEARCHING,21.675,-6.562,1.663,-0.00,-0.15,-22.39,4.576,9.534,5.867,4.160,4.160,0,0,SEARCHING,4.160,0.800,0.000,0.000
20:09:27.082,SEARCHING,21.763,-6.599,1.663,-0.00,-0.15,-22.39,4.576,9.534,5.867,4.160,4.160,0,0,SEARCHING,4.160,0.800,0.000,0.000
20:09:27.283,SEARCHING,21.852,-6.636,1.663,-0.00,-0.15,-22.57,4.576,9.153,5.867,4.237,4.160,0,0,SEARCHING,4.160,0.800,0.010,0.000
20:09:27.483,SEARCHING,21.941,-6.673,1.665,-0.00,-0.15,-22.75,4.487,9.153,5.867,4.160,4.160,0,0,SEARCHING,4.160,0.800,0.000,-0.052
20:09:27.683,SEARCHING,22.029,-6.710,1.664,-0.00,-0.15,-22.93,4.487,9.153,5.867,4.237,4.160,0,0,SEARCHING,4.160,0.800,0.010,-0.052
20:09:27.884,SEARCHING,22.118,-6.747,1.665,-0.00,-0.15,-23.11,4.576,9.153,5.581,4.237,4.160,0,0,SEARCHING,4.160,0.800,0.010,0.000
20:09:28.085,SEARCHING,22.206,-6.785,1.668,-0.00,-0.15,-23.11,4.576,9.153,5.720,4.160,4.160,0,0,SEARCHING,4.160,0.800,0.000,0.000
20:09:28.286,SEARCHING,22.294,-6.823,1.667,-0.00,-0.15,-23.11,4.767,9.153,5.720,4.160,4.160,0,0,SEARCHING,4.160,0.800,0.000,0.000
20:09:28.483,SEARCHING,22.383,-6.860,1.670,-0.00,-0.15,-23.11,4.974,8.801,5.720,4.160,4.160,0,0,SEARCHING,4.160,0.800,0.000,0.000
20:09:28.683,SEARCHING,22.471,-6.898,1.670,-0.00,-0.15,-23.11,4.974,8.801,5.867,4.160,4.237,0,0,SEARCHING,4.160,0.800,-0.010,0.000
20:09:28.882,SEARCHING,22.559,-6.936,1.669,-0.00,-0.15,-23.11,4.974,8.801,5.867,4.237,4.160,0,0,SEARCHING,4.160,0.800,0.010,0.000
20:09:29.083,SEARCHING,22.647,-6.973,1.671,-0.00,-0.15,-23.11,4.974,8.475,5.720,4.317,4.160,0,0,SEARCHING,4.160,0.800,0.019,0.000
20:09:29.283,SEARCHING,22.736,-7.011,1.675,-0.00,-0.15,-23.11,4.974,8.172,5.720,4.237,4.160,0,0,SEARCHING,4.160,0.800,0.010,0.000
20:09:29.484,SEARCHING,22.824,-7.049,1.677,-0.00,-0.15,-23.11,4.868,8.172,6.022,4.237,4.086,0,0,SEARCHING,4.086,0.800,0.019,0.000
20:09:29.684,SEARCHING,22.912,-7.087,1.680,-0.00,-0.15,-23.11,4.868,8.172,6.022,4.160,4.160,0,0,SEARCHING,4.160,0.800,0.000,0.000
20:09:29.885,SEARCHING,23.001,-7.124,1.679,-0.00,-0.15,-23.11,4.974,8.172,5.867,4.237,4.237,0,0,SEARCHING,4.237,0.800,0.000,0.000
20:09:30.085,SEARCHING,23.089,-7.162,1.678,-0.00,-0.15,-23.11,4.868,7.890,6.022,4.237,4.237,0,0,SEARCHING,4.237,0.800,0.000,0.000
20:09:30.286,SEARCHING,23.177,-7.200,1.678,-0.00,-0.15,-23.11,4.974,7.890,6.022,4.317,4.237,0,0,SEARCHING,4.237,0.800,0.010,0.000
20:09:30.487,SEARCHING,23.266,-7.237,1.679,-0.00,-0.15,-23.11,4.868,7.627,6.022,4.317,4.237,0,0,SEARCHING,4.237,0.800,0.010,0.000
20:09:30.689,SEARCHING,23.354,-7.275,1.680,-0.00,-0.15,-23.11,4.868,7.627,6.022,4.237,4.237,0,0,SEARCHING,4.237,0.800,0.000,0.000
20:09:30.889,SEARCHING,23.442,-7.313,1.681,-0.00,-0.15,-23.11,4.868,7.381,6.022,4.317,4.237,0,0,SEARCHING,4.237,0.800,0.010,0.000
20:09:31.089,SEARCHING,23.530,-7.350,1.683,-0.00,-0.15,-23.11,4.868,7.381,5.867,4.237,4.086,0,0,SEARCHING,4.086,0.800,0.019,0.000
20:09:31.290,SEARCHING,23.619,-7.388,1.686,-0.00,-0.15,-23.11,4.868,7.381,5.867,4.317,4.237,0,0,SEARCHING,4.237,0.800,0.010,0.000
20:09:31.491,SEARCHING,23.707,-7.426,1.687,-0.00,-0.15,-23.11,4.868,7.151,6.022,4.317,4.237,0,0,SEARCHING,4.237,0.800,0.010,0.000
20:09:31.693,SEARCHING,23.795,-7.463,1.688,-0.00,-0.15,-23.11,4.868,7.151,6.022,4.237,4.237,0,0,SEARCHING,4.237,0.800,0.000,0.000
20:09:31.894,SEARCHING,23.884,-7.501,1.689,-0.00,-0.15,-23.11,4.767,7.151,6.022,4.237,4.160,0,0,SEARCHING,4.160,0.800,0.010,0.000
20:09:32.093,SEARCHING,23.972,-7.539,1.689,-0.00,-0.15,-23.11,4.868,6.934,6.022,4.237,4.317,0,0,SEARCHING,4.237,0.800,-0.010,0.000
20:09:32.294,SEARCHING,24.060,-7.576,1.689,-0.00,-0.15,-23.11,4.767,6.730,6.022,4.237,4.160,0,0,SEARCHING,4.160,0.800,0.010,0.000
20:09:32.494,SEARCHING,24.148,-7.614,1.690,-0.00,-0.15,-23.11,4.868,6.730,6.022,4.237,4.237,0,0,SEARCHING,4.237,0.800,0.000,0.000
20:09:32.695,SEARCHING,24.237,-7.652,1.689,-0.00,-0.15,-23.11,4.767,6.730,6.184,4.237,4.237,0,0,SEARCHING,4.237,0.800,0.000,0.000
20:09:32.895,SEARCHING,24.325,-7.689,1.689,-0.00,-0.15,-23.11,4.767,6.538,6.022,4.237,4.237,0,0,SEARCHING,4.237,0.800,0.000,0.000
20:09:33.096,SEARCHING,24.413,-7.727,1.689,-0.00,-0.15,-23.11,4.767,6.356,6.022,4.237,4.237,0,0,SEARCHING,4.237,0.800,0.000,0.000
20:09:33.295,SEARCHING,24.502,-7.765,1.688,-0.00,-0.15,-23.11,4.767,6.356,6.022,4.237,4.237,0,0,SEARCHING,4.237,0.800,0.000,0.000
20:09:33.500,SEARCHING,24.590,-7.802,1.688,-0.00,-0.15,-23.11,4.868,6.184,5.867,4.317,4.237,0,0,SEARCHING,4.237,0.800,0.010,0.000
