timestamp,state,x,y,z,roll_deg,pitch_deg,yaw_deg,dist_left,dist_center,dist_right,dist_top,dist_bottom,dtof_alert,collision_event,best_dir,max_space,cmd_vx,cmd_vz,cmd_yaw
22:23:35.290,SEARCHING,0.000,0.000,0.000,0.00,0.00,0.00,10.000,10.000,10.000,10.000,10.000,0,0,SEARCHING,0.000,0.240,0.000,0.000
22:23:36.611,SEARCHING,0.036,0.000,1.000,0.00,0.00,0.00,10.000,10.000,10.000,10.000,10.000,0,0,SEARCHING,0.000,0.666,0.000,0.000
22:23:36.812,SEARCHING,0.177,-0.000,1.000,0.00,0.00,-0.03,2.495,3.908,3.459,3.319,2.793,0,0,SEARCHING,0.000,0.768,0.020,-0.032
22:23:37.013,SEARCHING,0.271,-0.000,1.011,0.00,0.00,-0.69,1.067,3.158,2.241,3.066,2.376,0,0,SEARCHING,0.000,0.792,0.109,-0.220
22:23:37.214,SEARCHING,0.366,-0.003,1.033,0.00,0.00,-2.97,0.820,2.874,2.017,2.847,2.511,0,0,SEARCHING,0.000,0.798,0.084,-0.448
22:23:37.415,SEARCHING,0.462,-0.010,1.045,0.00,0.00,-6.51,0.793,2.560,1.859,2.542,2.487,0,0,SEARCHING,0.000,0.800,0.026,-0.553
22:23:37.615,SEARCHING,0.557,-0.024,1.049,0.00,0.00,-10.34,1.610,2.276,1.699,2.260,2.244,0,0,SEARCHING,0.000,0.800,0.006,-0.393
22:23:37.815,SEARCHING,0.713,-0.058,1.049,0.00,0.00,-13.35,2.988,1.976,1.550,1.976,1.990,0,0,SEARCHING,0.000,0.774,0.001,0.049
22:23:38.016,SEARCHING,0.859,-0.092,1.049,0.00,0.00,-12.15,2.976,1.827,1.446,1.846,1.847,0,0,SEARCHING,0.000,0.676,0.000,0.219
22:23:38.216,SEARCHING,0.988,-0.117,1.049,0.00,0.00,-9.44,2.924,1.803,1.435,1.805,1.803,0,0,SEARCHING,0.000,0.616,0.000,0.270
22:23:38.417,SEARCHING,1.109,-0.134,1.049,0.00,0.00,-6.30,2.924,1.831,1.357,1.829,1.825,0,0,SEARCHING,0.000,0.601,0.000,0.292
22:23:38.617,SEARCHING,1.229,-0.144,1.049,0.00,0.00,-2.81,3.081,1.889,1.255,1.889,1.894,0,0,SEARCHING,0.000,0.609,0.000,0.341
22:23:38.817,SEARCHING,1.352,-0.146,1.049,0.00,0.00,1.23,3.421,2.025,1.262,2.036,2.025,0,0,SEARCHING,0.000,0.653,0.000,0.380
22:23:39.018,SEARCHING,1.487,-0.138,1.049,0.00,0.00,5.65,3.734,2.271,1.316,2.241,2.243,0,0,SEARCHING,0.000,0.743,0.000,0.394
22:23:39.218,SEARCHING,1.637,-0.118,1.049,0.00,0.00,10.15,4.188,2.319,1.395,2.331,2.331,0,0,SEARCHING,0.000,0.786,0.000,0.388
22:23:39.419,SEARCHING,1.791,-0.085,1.049,0.00,0.00,14.58,4.841,2.437,1.508,2.436,2.429,0,0,SEARCHING,0.000,0.797,0.000,0.378
22:23:39.620,SEARCHING,1.944,-0.039,1.049,0.00,0.00,18.83,5.180,2.747,1.715,2.739,2.546,0,0,SEARCHING,0.000,0.799,0.000,0.344
22:23:39.821,SEARCHING,2.064,0.005,1.050,0.00,0.00,21.91,5.805,3.048,1.737,3.043,2.546,0,0,SEARCHING,0.000,0.800,0.044,0.322
22:23:40.021,SEARCHING,2.153,0.042,1.062,0.00,0.00,24.14,5.571,3.185,1.701,3.187,2.587,0,0,SEARCHING,0.000,0.800,0.074,0.328
22:23:40.221,SEARCHING,2.240,0.083,1.078,0.00,0.00,26.35,4.456,3.270,1.782,3.299,2.634,0,0,SEARCHING,0.000,0.800,0.087,0.300
22:23:40.422,SEARCHING,2.325,0.126,1.096,0.00,0.00,28.27,3.898,3.529,1.876,3.530,2.662,0,0,SEARCHING,0.000,0.800,0.101,0.254
22:23:40.623,SEARCHING,2.409,0.173,1.117,0.00,0.00,29.88,3.667,3.866,1.965,3.808,2.695,0,0,SEARCHING,0.000,0.800,0.116,0.214
22:23:40.823,SEARCHING,2.492,0.222,1.142,0.00,0.00,31.23,3.441,4.167,2.062,4.116,2.757,0,0,SEARCHING,0.000,0.800,0.136,0.178
22:23:41.024,SEARCHING,2.573,0.272,1.169,0.00,0.00,32.35,3.253,4.294,2.136,4.276,2.881,0,0,SEARCHING,0.000,0.800,0.139,0.146
22:23:41.225,SEARCHING,2.654,0.324,1.197,0.00,0.00,33.27,3.136,4.298,2.213,4.286,2.963,0,0,SEARCHING,0.000,0.800,0.132,0.121
22:23:41.425,SEARCHING,2.734,0.377,1.223,0.00,0.00,34.02,3.011,4.263,2.285,4.315,3.025,0,0,SEARCHING,0.000,0.800,0.124,0.098
22:23:41.626,SEARCHING,2.813,0.431,1.247,0.00,0.00,34.64,2.944,4.257,2.261,4.227,3.069,0,0,SEARCHING,0.000,0.800,0.114,0.086
22:23:41.825,SEARCHING,2.892,0.486,1.269,0.00,0.00,35.22,2.874,4.189,2.189,4.236,3.109,0,0,SEARCHING,0.000,0.800,0.107,0.085
22:23:42.026,SEARCHING,2.970,0.542,1.290,0.00,0.00,35.83,2.829,4.191,2.135,4.229,3.159,0,0,SEARCHING,0.000,0.800,0.101,0.090
22:23:42.227,SEARCHING,3.048,0.598,1.310,0.00,0.00,36.44,2.778,4.193,2.176,4.236,3.181,0,0,SEARCHING,0.000,0.800,0.096,0.084
22:23:42.428,SEARCHING,3.125,0.656,1.329,0.00,0.00,36.99,2.707,4.222,2.239,4.244,3.229,0,0,SEARCHING,0.000,0.800,0.092,0.072
22:23:42.627,SEARCHING,3.201,0.714,1.347,0.00,0.00,37.44,2.643,4.228,2.258,4.230,3.278,0,0,SEARCHING,0.000,0.800,0.085,0.060
22:23:42.827,SEARCHING,3.277,0.772,1.363,0.00,0.00,37.82,2.609,4.225,2.293,4.237,3.365,0,0,SEARCHING,0.000,0.800,0.079,0.050
22:23:43.028,SEARCHING,3.353,0.831,1.378,0.00,0.00,38.13,2.594,4.228,2.342,4.190,3.386,0,0,SEARCHING,0.000,0.800,0.073,0.040
22:23:43.229,SEARCHING,3.429,0.891,1.392,0.00,0.00,38.37,2.553,4.180,2.398,4.162,3.455,0,0,SEARCHING,0.000,0.800,0.064,0.028
22:23:43.430,SEARCHING,3.504,0.950,1.405,0.00,0.00,38.54,2.561,4.119,2.419,4.106,3.504,0,0,SEARCHING,0.000,0.800,0.057,0.022
22:23:43.630,SEARCHING,3.579,1.010,1.414,0.00,0.00,38.68,2.557,4.049,2.417,4.048,3.522,0,0,SEARCHING,0.000,0.800,0.019,0.019
22:23:43.830,SEARCHING,3.679,1.090,1.416,0.00,0.00,38.85,2.534,4.031,2.404,4.038,3.566,0,0,SEARCHING,0.000,0.800,0.004,0.018
22:23:44.031,SEARCHING,3.803,1.191,1.416,0.00,0.00,39.04,2.491,3.961,2.441,3.964,3.524,0,0,SEARCHING,0.000,0.800,0.001,0.011
22:23:44.232,SEARCHING,3.927,1.292,1.416,0.00,0.00,39.14,2.448,3.858,2.474,3.859,3.487,0,0,SEARCHING,0.000,0.800,0.000,0.003
22:23:44.432,SEARCHING,4.051,1.393,1.416,0.00,0.00,39.15,2.431,3.741,2.435,3.778,3.472,0,0,SEARCHING,0.000,0.800,0.000,-0.001
22:23:46.698,SEARCHING,4.175,1.494,1.416,0.00,0.00,39.13,2.339,3.669,2.414,3.721,3.370,0,0,SEARCHING,0.000,0.800,0.000,-0.007
22:23:46.707,SEARCHING,4.300,1.595,1.416,0.00,0.00,39.04,2.339,3.669,2.414,3.721,3.370,0,0,SEARCHING,0.000,0.800,0.000,-0.010
22:23:46.808,SEARCHING,4.424,1.695,1.416,0.00,0.00,38.92,4.441,3.510,2.180,3.562,3.407,0,0,SEARCHING,0.000,0.800,0.000,0.049
22:23:46.993,SEARCHING,4.548,1.797,1.416,0.00,0.00,39.99,5.304,3.404,1.996,3.437,3.385,0,0,SEARCHING,0.000,0.800,0.000,0.193
22:23:47.194,SEARCHING,4.669,1.902,1.416,0.00,0.00,42.38,5.245,3.468,2.012,3.472,3.371,0,0,SEARCHING,0.000,0.800,0.000,0.235
22:23:47.393,SEARCHING,4.785,2.012,1.416,0.00,0.00,45.09,4.941,4.996,2.058,4.455,3.441,0,0,SEARCHING,0.000,0.800,0.024,0.236
22:23:47.594,SEARCHING,4.852,2.081,1.424,0.00,0.00,46.67,4.644,5.282,2.146,4.790,3.524,0,0,SEARCHING,0.000,0.800,0.070,0.219
22:23:47.794,SEARCHING,4.917,2.151,1.439,0.00,0.00,48.10,4.367,5.287,2.199,4.834,3.553,0,0,SEARCHING,0.000,0.800,0.085,0.195
22:23:47.994,SEARCHING,4.980,2.223,1.457,0.00,0.00,49.38,4.184,5.376,2.240,4.819,3.590,0,0,SEARCHING,0.000,0.800,0.087,0.177
22:23:48.196,SEARCHING,5.042,2.297,1.474,0.00,0.00,50.54,3.983,5.539,2.300,4.791,3.667,0,0,SEARCHING,0.000,0.800,0.082,0.159
22:23:48.397,SEARCHING,5.102,2.371,1.490,0.00,0.00,51.56,3.561,5.844,2.355,4.771,3.687,0,0,SEARCHING,0.000,0.800,0.077,0.134
22:23:48.596,SEARCHING,5.162,2.447,1.505,0.00,0.00,52.40,3.393,5.625,2.432,4.757,3.555,0,0,SEARCHING,0.000,0.800,0.079,0.109
22:23:48.797,SEARCHING,5.220,2.523,1.522,0.00,0.00,53.11,3.067,5.538,2.396,4.738,3.415,0,0,SEARCHING,0.000,0.800,0.091,0.094
22:23:48.998,SEARCHING,5.277,2.600,1.541,0.00,0.00,53.71,3.322,5.399,2.328,4.643,3.239,0,0,SEARCHING,0.000,0.800,0.106,0.092
22:23:49.198,SEARCHING,5.334,2.678,1.562,0.00,0.00,54.26,3.398,5.277,3.921,4.531,3.098,0,0,SEARCHING,0.000,0.800,0.112,0.036
22:23:49.398,SEARCHING,5.390,2.756,1.585,0.00,0.00,54.27,3.522,5.287,4.136,4.496,3.032,0,0,SEARCHING,0.000,0.800,0.123,-0.020
22:23:49.599,SEARCHING,5.446,2.834,1.611,0.00,0.00,54.09,3.529,5.391,4.237,4.435,2.883,0,0,SEARCHING,0.000,0.800,0.135,-0.032
22:23:49.800,SEARCHING,5.502,2.911,1.639,0.00,0.00,53.85,3.484,5.438,4.209,4.409,2.806,0,0,SEARCHING,0.000,0.800,0.148,-0.037
22:23:50.001,SEARCHING,5.559,2.989,1.669,0.00,0.00,53.58,3.497,5.437,4.131,4.339,2.787,0,0,SEARCHING,0.000,0.800,0.153,-0.037
22:23:50.201,SEARCHING,5.616,3.066,1.699,0.00,0.00,53.35,3.502,5.387,4.034,4.322,2.771,0,0,SEARCHING,0.000,0.800,0.154,-0.032
22:23:50.401,SEARCHING,5.674,3.143,1.731,0.00,0.00,53.13,3.504,5.620,3.964,4.251,2.694,0,0,SEARCHING,0.000,0.800,0.159,-0.029
22:23:50.602,SEARCHING,5.731,3.220,1.763,0.00,0.00,52.95,3.490,5.679,3.871,4.189,2.665,0,0,SEARCHING,0.000,0.800,0.162,-0.025
22:23:50.802,SEARCHING,5.789,3.296,1.795,0.00,0.00,52.80,3.465,5.742,3.607,4.048,2.627,0,0,SEARCHING,0.000,0.800,0.161,-0.015
22:23:51.003,SEARCHING,5.847,3.372,1.827,0.00,0.00,52.71,3.440,5.724,3.681,3.970,2.639,0,0,SEARCHING,0.000,0.800,0.157,-0.013
22:23:51.203,SEARCHING,5.905,3.449,1.858,0.00,0.00,52.63,3.438,5.673,3.512,3.870,2.655,0,0,SEARCHING,0.000,0.800,0.148,-0.008
22:23:51.403,SEARCHING,5.964,3.525,1.887,0.00,0.00,52.59,3.429,5.696,3.400,3.790,2.785,0,0,SEARCHING,0.000,0.800,0.130,-0.003
22:23:51.604,SEARCHING,6.022,3.601,1.911,0.00,0.00,52.59,3.419,5.716,3.358,3.726,2.856,0,0,SEARCHING,0.000,0.800,0.111,0.001
22:23:51.806,SEARCHING,6.080,3.678,1.932,0.00,0.00,52.62,3.428,5.602,3.251,3.655,2.904,0,0,SEARCHING,0.000,0.800,0.095,0.008
22:23:52.007,SEARCHING,6.139,3.754,1.950,0.00,0.00,52.69,3.384,5.797,3.208,3.603,2.965,0,0,SEARCHING,0.000,0.800,0.081,0.012
22:23:52.207,SEARCHING,6.197,3.830,1.966,0.00,0.00,52.80,3.383,5.544,2.975,3.522,2.995,0,0,SEARCHING,0.000,0.800,0.068,0.023
22:23:52.408,SEARCHING,6.255,3.907,1.978,0.00,0.00,52.99,3.317,5.375,2.818,3.447,3.057,0,0,SEARCHING,0.000,0.800,0.040,0.035
22:23:52.608,SEARCHING,6.312,3.984,1.984,0.00,0.00,53.27,3.300,5.418,2.725,3.428,3.052,0,0,SEARCHING,0.000,0.800,0.010,0.046
22:23:52.810,SEARCHING,6.408,4.112,1.984,0.00,0.00,53.81,3.179,5.213,2.681,3.333,3.051,0,0,SEARCHING,0.000,0.800,0.002,0.049
22:23:53.010,SEARCHING,6.501,4.242,1.984,0.00,0.00,54.36,3.098,4.971,2.679,3.146,3.072,0,0,SEARCHING,0.000,0.800,0.001,0.044
22:23:53.210,SEARCHING,6.594,4.372,1.984,0.00,0.00,54.86,3.008,4.779,2.546,3.103,3.089,0,0,SEARCHING,0.000,0.800,0.000,0.046
22:23:53.410,SEARCHING,6.686,4.503,1.984,0.00,0.00,55.43,2.880,4.516,2.290,3.539,3.133,0,0,SEARCHING,0.000,0.800,0.000,0.061
22:23:53.611,SEARCHING,6.776,4.636,1.984,0.00,0.00,56.16,2.781,4.362,2.201,3.606,3.472,0,0,SEARCHING,0.000,0.800,0.000,0.069
22:23:53.811,SEARCHING,6.864,4.769,1.984,0.00,0.00,57.01,2.625,2.908,1.946,3.513,3.917,0,0,SEARCHING,0.000,0.800,0.000,0.091
22:23:54.012,SEARCHING,6.950,4.904,1.984,0.00,0.00,58.08,2.417,2.158,1.883,3.372,3.839,0,0,SEARCHING,0.000,0.800,0.000,0.096
22:23:54.213,SEARCHING,7.033,5.041,1.984,0.00,0.00,59.19,2.167,1.967,1.754,3.319,3.677,0,0,SEARCHING,0.000,0.782,0.000,0.095
22:23:54.413,SEARCHING,7.110,5.172,1.984,0.00,0.00,60.24,2.021,1.775,1.646,3.106,3.437,0,0,SEARCHING,0.000,0.682,0.000,0.089
22:23:54.614,SEARCHING,7.175,5.286,1.984,0.00,0.00,61.28,1.898,1.638,1.503,2.914,3.208,0,0,SEARCHING,0.000,0.589,0.000,0.100
22:23:54.816,SEARCHING,7.217,5.366,1.978,0.00,0.00,62.24,1.803,1.575,1.409,1.903,3.060,0,0,SEARCHING,0.000,0.507,-0.127,0.116
22:23:55.015,SEARCHING,7.244,5.418,1.941,0.00,0.00,63.06,1.736,1.535,1.380,1.584,2.911,0,0,SEARCHING,0.000,0.472,-0.273,0.119
22:23:55.216,SEARCHING,7.269,5.467,1.881,0.00,0.00,63.89,1.699,1.499,1.329,1.488,2.824,0,0,SEARCHING,0.000,0.444,-0.348,0.125
22:23:55.417,SEARCHING,7.291,5.514,1.809,0.00,0.00,64.79,1.735,1.471,1.376,1.436,2.713,0,0,SEARCHING,0.000,0.424,-0.377,0.131
22:23:55.617,SEARCHING,7.314,5.561,1.732,0.00,0.00,65.63,1.831,1.744,1.743,1.398,2.594,0,0,SEARCHING,0.000,0.500,-0.390,0.087
22:23:55.818,SEARCHING,7.343,5.627,1.654,0.00,0.00,65.67,1.809,2.344,4.737,1.356,2.513,0,0,SEARCHING,0.000,0.705,-0.399,-0.121
22:23:56.018,SEARCHING,7.381,5.709,1.572,0.00,0.00,64.25,1.716,2.488,5.723,1.275,2.484,0,0,SEARCHING,0.000,0.777,-0.429,-0.266
22:23:56.218,SEARCHING,7.423,5.793,1.485,0.00,0.00,62.19,1.642,2.589,6.342,1.328,2.581,0,0,SEARCHING,0.000,0.795,-0.443,-0.330
22:23:56.419,SEARCHING,7.469,5.877,1.400,0.00,0.00,59.81,1.646,2.713,6.860,1.503,1.957,0,0,SEARCHING,0.000,0.799,-0.331,-0.358
22:23:56.619,SEARCHING,7.519,5.959,1.350,0.00,0.00,57.30,1.683,2.903,7.794,1.653,1.440,0,0,SEARCHING,0.000,0.800,-0.066,-0.369
22:23:56.821,SEARCHING,7.572,6.039,1.351,0.00,0.00,54.75,1.745,3.723,9.302,1.674,2.008,0,0,SEARCHING,0.000,0.800,0.015,-0.373
22:23:57.021,SEARCHING,7.629,6.116,1.344,0.00,0.00,52.20,1.819,4.162,9.507,1.725,2.295,0,0,SEARCHING,0.000,0.800,-0.121,-0.365
22:23:57.222,SEARCHING,7.689,6.191,1.316,0.00,0.00,49.73,1.881,4.346,9.617,1.758,2.273,0,0,SEARCHING,0.000,0.800,-0.153,-0.351
22:23:57.421,SEARCHING,7.753,6.263,1.286,0.00,0.00,47.38,1.997,4.645,8.747,1.856,2.203,0,0,SEARCHING,0.000,0.800,-0.127,-0.327
22:23:57.622,SEARCHING,7.819,6.333,1.263,0.00,0.00,45.22,2.141,4.948,7.779,1.907,2.151,0,0,SEARCHING,0.000,0.800,-0.093,-0.296
22:23:57.823,SEARCHING,7.887,6.400,1.246,0.00,0.00,43.29,2.249,5.525,6.782,1.925,2.105,0,0,SEARCHING,0.000,0.800,-0.067,-0.263
22:23:58.024,SEARCHING,7.958,6.465,1.236,0.00,0.00,41.67,3.046,5.946,6.315,1.959,2.080,0,0,SEARCHING,0.000,0.800,-0.022,-0.191
22:23:58.223,SEARCHING,8.030,6.528,1.233,0.00,0.00,40.59,3.378,6.463,6.071,1.965,2.079,0,0,SEARCHING,0.000,0.800,-0.005,-0.130
22:23:58.425,SEARCHING,8.153,6.631,1.233,0.00,0.00,39.17,3.253,7.143,5.816,2.649,2.238,0,0,SEARCHING,0.000,0.800,0.024,-0.112
22:23:58.625,SEARCHING,8.228,6.691,1.245,0.00,0.00,38.41,3.211,7.515,5.579,4.086,2.533,0,0,SEARCHING,0.000,0.800,0.127,-0.109
22:23:58.826,SEARCHING,8.303,6.750,1.274,0.00,0.00,37.68,3.269,8.201,5.405,4.338,2.615,0,0,SEARCHING,0.000,0.800,0.169,-0.102
22:23:59.025,SEARCHING,8.380,6.808,1.309,0.00,0.00,36.99,3.299,8.888,5.295,4.396,2.698,0,0,SEARCHING,0.000,0.800,0.175,-0.096
22:23:59.227,SEARCHING,8.457,6.866,1.343,0.00,0.00,36.36,3.361,9.056,5.192,4.373,2.806,0,0,SEARCHING,0.000,0.800,0.163,-0.089
22:23:59.427,SEARCHING,8.534,6.922,1.375,0.00,0.00,35.77,3.381,9.736,5.049,4.364,2.970,0,0,SEARCHING,0.000,0.800,0.143,-0.082
22:23:59.628,SEARCHING,8.612,6.978,1.402,0.00,0.00,35.23,3.449,9.913,4.949,4.317,3.051,0,0,SEARCHING,0.000,0.800,0.125,-0.075
22:23:59.828,SEARCHING,8.691,7.033,1.426,0.00,0.00,34.74,3.492,9.807,4.794,4.239,3.107,0,0,SEARCHING,0.000,0.800,0.111,-0.067
22:24:00.028,SEARCHING,8.770,7.088,1.447,0.00,0.00,34.30,3.552,9.609,4.770,4.132,3.144,0,0,SEARCHING,0.000,0.800,0.099,-0.061
22:24:00.228,SEARCHING,8.849,7.142,1.466,0.00,0.00,33.90,3.603,9.670,4.767,4.133,3.338,0,0,SEARCHING,0.000,0.800,0.081,-0.057
22:24:00.429,SEARCHING,8.929,7.195,1.482,0.00,0.00,33.52,3.620,9.725,4.681,4.080,3.404,0,0,SEARCHING,0.000,0.800,0.068,-0.053
22:24:00.630,SEARCHING,9.009,7.248,1.494,0.00,0.00,33.16,3.642,9.539,4.672,4.025,3.429,0,0,SEARCHING,0.000,0.800,0.057,-0.050
22:24:00.830,SEARCHING,9.090,7.300,1.505,0.00,0.00,32.83,3.736,9.682,4.632,4.015,3.445,0,0,SEARCHING,0.000,0.800,0.038,-0.046
22:24:01.031,SEARCHING,9.171,7.352,1.512,0.00,0.00,32.54,3.848,9.492,4.586,4.053,3.490,0,0,SEARCHING,0.000,0.800,0.027,-0.038
22:24:01.232,SEARCHING,9.252,7.403,1.516,0.00,0.00,32.30,3.931,9.578,4.499,4.144,3.533,0,0,SEARCHING,0.000,0.800,0.022,-0.030
22:24:01.432,SEARCHING,9.333,7.455,1.520,0.00,0.00,32.11,4.000,9.520,4.488,4.193,3.591,0,0,SEARCHING,0.000,0.800,0.010,-0.025
22:24:01.634,SEARCHING,9.414,7.506,1.523,0.00,0.00,31.95,3.988,9.235,4.474,4.286,3.627,0,0,SEARCHING,0.000,0.800,0.036,-0.022
22:24:01.834,SEARCHING,9.496,7.556,1.530,0.00,0.00,31.80,4.095,9.242,4.396,4.224,3.631,0,0,SEARCHING,0.000,0.800,0.014,-0.018
22:24:02.035,SEARCHING,9.605,7.624,1.531,0.00,0.00,31.66,4.075,9.219,4.366,4.281,3.662,0,0,SEARCHING,0.000,0.800,0.003,-0.015
22:24:02.235,SEARCHING,9.741,7.707,1.531,0.00,0.00,31.49,4.037,9.144,4.262,4.281,3.658,0,0,SEARCHING,0.000,0.800,0.001,-0.013
22:24:02.435,SEARCHING,9.850,7.774,1.533,0.00,0.00,31.38,4.107,8.884,4.206,4.285,3.635,0,0,SEARCHING,0.000,0.800,0.033,-0.008
22:24:02.636,SEARCHING,9.932,7.824,1.539,0.00,0.00,31.34,4.122,8.810,4.166,4.334,3.684,0,0,SEARCHING,0.000,0.800,0.013,-0.005
22:24:02.836,SEARCHING,10.041,7.891,1.540,0.00,0.00,31.31,4.185,8.839,4.115,4.326,3.702,0,0,SEARCHING,0.000,0.800,0.003,-0.000
22:24:03.037,SEARCHING,10.178,7.974,1.540,0.00,0.00,31.33,4.225,8.474,4.013,4.346,3.696,0,0,SEARCHING,0.000,0.800,0.001,0.006
22:24:03.238,SEARCHING,10.315,8.057,1.540,0.00,0.00,31.41,4.270,8.365,4.007,4.425,3.700,0,0,SEARCHING,0.000,0.800,0.016,0.010
22:24:03.438,SEARCHING,10.397,8.107,1.545,0.00,0.00,31.49,4.298,8.151,3.976,4.411,3.743,0,0,SEARCHING,0.000,0.800,0.027,0.013
22:24:03.638,SEARCHING,10.479,8.157,1.549,0.00,0.00,31.59,4.310,8.086,3.967,4.381,3.779,0,0,SEARCHING,0.000,0.800,0.007,0.015
22:24:03.839,SEARCHING,10.615,8.241,1.549,0.00,0.00,31.76,4.270,7.963,3.948,4.381,3.791,0,0,SEARCHING,0.000,0.800,0.002,0.016
22:24:04.040,SEARCHING,10.751,8.326,1.549,0.00,0.00,31.94,4.317,7.880,3.931,4.398,3.811,0,0,SEARCHING,0.000,0.800,0.000,0.016
22:24:04.240,SEARCHING,10.886,8.411,1.549,0.00,0.00,32.13,4.342,7.744,3.929,4.358,3.795,0,0,SEARCHING,0.000,0.800,0.000,0.018
22:24:04.440,SEARCHING,11.022,8.496,1.549,0.00,0.00,32.34,4.409,7.498,3.950,4.358,3.769,0,0,SEARCHING,0.000,0.800,0.000,0.019
22:24:04.641,SEARCHING,11.157,8.582,1.549,0.00,0.00,32.57,4.422,7.395,3.922,4.332,3.808,0,0,SEARCHING,0.000,0.800,0.000,0.022
22:24:04.841,SEARCHING,11.291,8.668,1.549,0.00,0.00,32.83,4.833,7.203,3.908,4.375,3.788,0,0,SEARCHING,0.000,0.800,0.000,0.029
22:24:05.042,SEARCHING,11.426,8.755,1.549,0.00,0.00,33.21,5.112,7.076,3.936,4.450,3.773,0,0,SEARCHING,0.000,0.800,0.000,0.042
22:24:05.243,SEARCHING,11.559,8.843,1.549,0.00,0.00,33.71,5.350,6.897,3.922,4.507,3.784,0,0,SEARCHING,0.000,0.800,0.015,0.049
22:24:05.442,SEARCHING,11.639,8.897,1.554,0.00,0.00,34.05,5.476,6.880,4.099,4.498,3.758,0,0,SEARCHING,0.000,0.800,0.043,0.049
22:24:05.643,SEARCHING,11.718,8.951,1.564,0.00,0.00,34.34,5.203,6.918,5.729,4.444,3.793,0,0,SEARCHING,0.000,0.800,0.035,0.019
22:24:05.843,SEARCHING,11.797,9.005,1.568,0.00,0.00,34.33,5.094,6.828,6.612,4.418,3.834,0,0,SEARCHING,0.000,0.800,0.008,-0.018
22:24:06.045,SEARCHING,11.930,9.095,1.568,0.00,0.00,34.07,4.953,6.684,6.546,4.441,3.856,0,0,SEARCHING,0.000,0.800,0.002,-0.032
22:24:06.245,SEARCHING,12.063,9.184,1.568,0.00,0.00,33.68,5.138,6.633,6.401,4.545,3.852,0,0,SEARCHING,0.000,0.800,0.000,-0.035
22:24:06.445,SEARCHING,12.196,9.273,1.568,0.00,0.00,33.26,5.069,6.498,6.248,4.519,3.875,0,0,SEARCHING,0.000,0.800,0.000,-0.039
22:24:06.646,SEARCHING,12.330,9.360,1.568,0.00,0.00,32.86,4.987,6.268,6.073,4.519,3.816,0,0,SEARCHING,0.000,0.800,0.000,-0.029
22:24:06.847,SEARCHING,12.465,9.446,1.568,0.00,0.00,32.53,4.951,6.194,5.981,4.565,3.871,0,0,SEARCHING,0.000,0.800,0.000,-0.027
22:24:07.048,SEARCHING,12.600,9.532,1.568,0.00,0.00,32.22,4.965,5.973,5.878,4.536,3.901,0,0,SEARCHING,0.000,0.800,0.000,-0.027
22:24:07.247,SEARCHING,12.735,9.617,1.568,0.00,0.00,31.91,4.880,5.914,5.712,4.502,3.925,0,0,SEARCHING,0.000,0.800,0.000,-0.025
22:24:07.447,SEARCHING,12.871,9.701,1.568,0.00,0.00,31.62,4.720,5.690,5.486,4.488,3.943,0,0,SEARCHING,0.000,0.800,0.000,-0.024
22:24:07.648,SEARCHING,13.008,9.785,1.568,0.00,0.00,31.35,4.633,5.449,5.285,4.487,3.945,0,0,SEARCHING,0.000,0.800,0.000,-0.022
22:24:07.847,SEARCHING,13.145,9.868,1.568,0.00,0.00,31.09,4.583,5.329,5.101,4.455,3.931,0,0,SEARCHING,0.000,0.800,0.000,-0.020
22:24:08.050,SEARCHING,13.282,9.950,1.568,0.00,0.00,30.87,4.577,5.205,5.015,4.536,3.892,0,0,SEARCHING,0.000,0.800,0.000,-0.017
22:24:08.250,SEARCHING,13.419,10.032,1.568,0.00,0.00,30.68,4.455,5.158,4.915,4.554,3.910,0,0,SEARCHING,0.000,0.800,0.000,-0.016
22:24:08.450,SEARCHING,13.557,10.114,1.568,0.00,0.00,30.50,4.382,5.046,4.760,4.547,3.882,0,0,SEARCHING,0.000,0.800,0.000,-0.016
22:24:08.651,SEARCHING,13.695,10.195,1.568,0.00,0.00,30.32,4.308,4.967,4.580,4.557,3.903,0,0,SEARCHING,0.000,0.800,0.000,-0.013
22:24:08.851,SEARCHING,13.833,10.275,1.568,0.00,0.00,30.18,4.184,4.908,4.435,4.543,3.901,0,0,SEARCHING,0.000,0.800,0.000,-0.011
22:24:09.053,SEARCHING,13.972,10.355,1.568,0.00,0.00,30.05,4.094,4.682,4.290,4.498,3.902,0,0,SEARCHING,0.000,0.800,0.000,-0.010
22:24:09.253,SEARCHING,14.110,10.435,1.568,0.00,0.00,29.96,4.072,4.764,4.048,4.488,3.903,0,0,SEARCHING,0.000,0.800,0.000,-0.004
22:24:09.454,SEARCHING,14.249,10.515,1.568,0.00,0.00,29.93,4.068,4.612,3.954,4.516,3.825,0,0,SEARCHING,0.000,0.800,0.000,0.003
22:24:09.654,SEARCHING,14.360,10.579,1.570,0.00,0.00,29.97,4.003,4.888,3.788,4.554,3.541,0,0,SEARCHING,0.000,0.800,0.044,0.008
22:24:09.854,SEARCHING,14.443,10.627,1.581,0.00,0.00,30.03,3.939,5.154,3.776,4.555,3.490,0,0,SEARCHING,0.000,0.800,0.066,0.009
22:24:10.055,SEARCHING,14.526,10.675,1.595,0.00,0.00,30.09,3.899,5.614,3.816,4.499,3.478,0,0,SEARCHING,0.000,0.800,0.075,0.007
22:24:10.256,SEARCHING,14.609,10.723,1.611,0.00,0.00,30.12,3.814,5.741,3.874,4.475,3.362,0,0,SEARCHING,0.000,0.800,0.086,0.001
22:24:10.455,SEARCHING,14.692,10.772,1.628,0.00,0.00,29.98,3.834,5.716,6.754,4.467,3.293,0,0,SEARCHING,0.000,0.800,0.093,-0.055
22:24:10.657,SEARCHING,14.775,10.819,1.647,0.00,0.00,29.48,3.786,5.741,6.939,4.413,3.253,0,0,SEARCHING,0.000,0.800,0.097,-0.085
22:24:10.857,SEARCHING,14.859,10.866,1.667,0.00,0.00,28.86,3.757,5.885,6.914,4.384,3.229,0,0,SEARCHING,0.000,0.800,0.098,-0.094
22:24:11.057,SEARCHING,14.943,10.912,1.686,0.00,0.00,28.20,3.717,6.054,6.773,4.325,3.225,0,0,SEARCHING,0.000,0.800,0.095,-0.096
22:24:11.259,SEARCHING,15.028,10.957,1.705,0.00,0.00,27.55,3.838,6.282,6.735,4.277,3.202,0,0,SEARCHING,0.000,0.800,0.095,-0.093
22:24:11.459,SEARCHING,15.114,11.001,1.725,0.00,0.00,26.93,3.892,6.868,6.584,4.231,2.993,0,0,SEARCHING,0.000,0.800,0.109,-0.087
22:24:11.658,SEARCHING,15.199,11.044,1.747,0.00,0.00,26.34,3.964,7.461,6.543,4.206,2.907,0,0,SEARCHING,0.000,0.800,0.118,-0.083
22:24:11.860,SEARCHING,15.285,11.086,1.772,0.00,0.00,25.79,3.937,8.378,6.378,4.154,2.861,0,0,SEARCHING,0.000,0.800,0.127,-0.079
22:24:12.060,SEARCHING,15.372,11.128,1.798,0.00,0.00,25.24,3.787,9.109,6.297,4.068,2.760,0,0,SEARCHING,0.000,0.800,0.139,-0.081
22:24:12.261,SEARCHING,15.459,11.168,1.826,0.00,0.00,24.67,3.673,9.802,6.112,3.990,2.725,0,0,SEARCHING,0.000,0.800,0.139,-0.084
22:24:12.461,SEARCHING,15.547,11.208,1.853,0.00,0.00,24.08,3.590,9.977,5.986,3.864,2.685,0,0,SEARCHING,0.000,0.800,0.136,-0.088
22:24:12.661,SEARCHING,15.634,11.247,1.881,0.00,0.00,23.47,3.516,9.997,5.900,3.795,2.616,0,0,SEARCHING,0.000,0.800,0.140,-0.090
22:24:12.862,SEARCHING,15.723,11.285,1.909,0.00,0.00,22.84,3.516,10.000,5.820,3.737,2.520,0,0,SEARCHING,0.000,0.800,0.147,-0.091
22:24:13.062,SEARCHING,15.811,11.322,1.939,0.00,0.00,22.22,3.500,10.000,5.623,3.683,2.443,0,0,SEARCHING,0.000,0.800,0.158,-0.089
22:24:13.262,SEARCHING,15.900,11.357,1.971,0.00,0.00,21.62,3.548,10.000,5.495,3.606,2.434,0,0,SEARCHING,0.000,0.800,0.162,-0.084
22:24:13.462,SEARCHING,15.990,11.392,2.003,0.00,0.00,21.06,3.572,10.000,5.441,3.523,2.512,0,0,SEARCHING,0.000,0.800,0.150,-0.079
22:24:13.664,SEARCHING,16.079,11.427,2.031,0.00,0.00,20.53,3.601,9.974,5.335,3.453,3.015,0,0,SEARCHING,0.000,0.800,0.097,-0.075
22:24:13.865,SEARCHING,16.169,11.460,2.045,0.00,0.00,20.03,3.641,9.952,5.231,3.381,3.190,0,0,SEARCHING,0.000,0.800,0.028,-0.070
22:24:14.065,SEARCHING,16.260,11.493,2.048,0.00,0.00,19.56,3.645,9.717,5.128,3.354,3.219,0,0,SEARCHING,0.000,0.800,0.007,-0.067
22:24:14.265,SEARCHING,16.411,11.545,2.048,0.00,0.00,18.82,3.682,9.086,4.992,3.382,3.222,0,0,SEARCHING,0.000,0.800,0.002,-0.061
22:24:14.466,SEARCHING,16.562,11.596,2.048,0.00,0.00,18.14,3.756,8.731,4.896,3.350,3.218,0,0,SEARCHING,0.000,0.800,0.000,-0.055
22:24:14.666,SEARCHING,16.715,11.645,2.048,0.00,0.00,17.53,3.830,8.370,4.782,3.302,3.201,0,0,SEARCHING,0.000,0.800,0.000,-0.047
22:24:14.867,SEARCHING,16.868,11.693,2.048,0.00,0.00,17.02,4.046,8.195,4.705,3.325,3.218,0,0,SEARCHING,0.000,0.800,0.000,-0.037
22:24:15.067,SEARCHING,17.021,11.739,2.048,0.00,0.00,16.64,4.475,7.899,4.605,3.355,3.188,0,0,SEARCHING,0.000,0.800,0.000,-0.018
22:24:15.267,SEARCHING,17.174,11.785,2.048,0.00,0.00,16.49,4.810,7.659,4.553,3.366,3.200,0,0,SEARCHING,0.000,0.800,0.000,-0.001
22:24:15.468,SEARCHING,17.327,11.830,2.048,0.00,0.00,16.52,4.869,7.557,4.550,3.355,3.268,0,0,SEARCHING,0.000,0.800,0.000,0.008
22:24:15.670,SEARCHING,17.481,11.876,2.048,0.00,0.00,16.62,4.895,7.484,4.456,3.361,3.619,0,0,SEARCHING,0.000,0.800,0.000,0.013
22:24:15.871,SEARCHING,17.603,11.912,2.046,0.00,0.00,16.75,4.952,7.499,4.397,3.374,4.027,0,0,SEARCHING,0.000,0.800,-0.036,0.017
22:24:16.070,SEARCHING,17.695,11.940,2.037,0.00,0.00,16.88,4.936,7.447,4.416,3.405,4.128,0,0,SEARCHING,0.000,0.800,-0.054,0.019
22:24:16.270,SEARCHING,17.787,11.968,2.026,0.00,0.00,17.01,4.968,7.392,4.403,3.436,4.155,0,0,SEARCHING,0.000,0.800,-0.060,0.020
22:24:16.471,SEARCHING,17.879,11.996,2.014,0.00,0.00,17.15,4.974,7.434,4.401,3.457,4.160,0,0,SEARCHING,0.000,0.800,-0.059,0.021
22:24:16.672,SEARCHING,17.971,12.025,2.002,0.00,0.00,17.29,5.014,7.396,4.358,3.466,4.160,0,0,SEARCHING,0.000,0.800,-0.058,0.022
22:24:16.872,SEARCHING,18.062,12.053,1.991,0.00,0.00,17.45,5.040,7.306,4.340,3.514,4.139,0,0,SEARCHING,0.000,0.800,-0.054,0.024
22:24:17.072,SEARCHING,18.154,12.082,1.982,0.00,0.00,17.63,5.080,7.290,4.320,3.512,4.146,0,0,SEARCHING,0.000,0.800,-0.034,0.027
22:24:17.273,SEARCHING,18.245,12.111,1.974,0.00,0.00,17.81,5.084,7.370,4.353,3.559,4.182,0,0,SEARCHING,0.000,0.800,-0.047,0.027
22:24:17.473,SEARCHING,18.337,12.141,1.964,0.00,0.00,17.99,5.119,7.380,4.338,3.568,4.198,0,0,SEARCHING,0.000,0.800,-0.050,0.027
22:24:17.674,SEARCHING,18.428,12.171,1.954,0.00,0.00,18.19,5.179,7.369,4.339,3.602,4.229,0,0,SEARCHING,0.000,0.800,-0.036,0.029
22:24:17.874,SEARCHING,18.519,12.201,1.949,0.00,0.00,18.38,5.234,7.311,4.432,3.606,4.236,0,0,SEARCHING,0.000,0.800,-0.009,0.028
22:24:18.074,SEARCHING,18.640,12.241,1.947,0.00,0.00,18.65,5.380,7.427,4.439,3.629,4.341,0,0,SEARCHING,0.000,0.800,-0.036,0.029
22:24:18.275,SEARCHING,18.731,12.272,1.939,0.00,0.00,18.86,5.527,7.552,4.437,3.632,4.393,0,0,SEARCHING,0.000,0.800,-0.052,0.032
22:24:18.475,SEARCHING,18.822,12.303,1.928,0.00,0.00,19.09,5.753,7.749,4.476,3.657,4.375,0,0,SEARCHING,0.000,0.800,-0.055,0.037
22:24:18.676,SEARCHING,18.913,12.335,1.917,0.00,0.00,19.36,5.801,7.776,4.460,3.684,4.324,0,0,SEARCHING,0.000,0.800,-0.037,0.040
22:24:18.876,SEARCHING,19.003,12.367,1.912,0.00,0.00,19.64,5.865,7.818,4.483,3.686,4.294,0,0,SEARCHING,0.000,0.800,-0.009,0.042
22:24:21.226,SEARCHING,19.154,12.421,1.912,0.00,0.00,20.11,5.958,7.961,4.486,3.640,4.315,0,0,SEARCHING,0.000,0.800,-0.018,0.042
22:24:21.426,SEARCHING,19.244,12.454,1.907,0.00,0.00,20.41,5.886,8.283,4.450,3.659,4.317,0,0,SEARCHING,0.000,0.800,-0.028,0.044
22:24:21.628,SEARCHING,19.334,12.488,1.901,0.00,0.00,20.71,5.976,8.288,4.409,3.685,4.374,0,0,SEARCHING,0.000,0.800,-0.040,0.046
22:24:21.828,SEARCHING,19.424,12.522,1.892,0.00,0.00,21.03,5.785,8.662,4.414,3.768,4.398,0,0,SEARCHING,0.000,0.800,-0.033,0.045
22:24:22.028,SEARCHING,19.513,12.557,1.888,0.00,0.00,21.34,5.813,8.751,4.402,3.780,4.450,0,0,SEARCHING,0.000,0.800,-0.008,0.044
22:24:22.228,SEARCHING,19.662,12.616,1.888,0.00,0.00,21.85,5.557,8.462,4.363,3.803,4.481,0,0,SEARCHING,0.000,0.800,-0.002,0.042
22:24:22.428,SEARCHING,19.810,12.676,1.888,0.00,0.00,22.32,5.565,8.332,4.312,3.802,4.486,0,0,SEARCHING,0.000,0.800,-0.000,0.041
22:24:22.630,SEARCHING,19.928,12.725,1.886,0.00,0.00,22.69,5.440,8.218,4.317,3.751,4.487,0,0,SEARCHING,0.000,0.800,-0.034,0.040
22:24:22.830,SEARCHING,20.017,12.762,1.878,0.00,0.00,22.97,5.447,8.114,4.277,3.776,4.487,0,0,SEARCHING,0.000,0.800,-0.048,0.040
22:24:23.030,SEARCHING,20.105,12.800,1.870,0.00,0.00,23.24,5.410,8.031,4.307,3.816,4.461,0,0,SEARCHING,0.000,0.800,-0.017,0.039
22:24:23.231,SEARCHING,20.223,12.850,1.869,0.00,0.00,23.59,5.323,8.085,4.280,3.831,4.442,0,0,SEARCHING,0.000,0.800,-0.004,0.037
22:24:23.432,SEARCHING,20.369,12.915,1.869,0.00,0.00,24.01,5.264,7.863,4.313,3.819,4.431,0,0,SEARCHING,0.000,0.800,-0.001,0.035
22:24:23.633,SEARCHING,20.515,12.980,1.869,0.00,0.00,24.40,5.179,7.766,4.264,3.819,4.408,0,0,SEARCHING,0.000,0.800,-0.000,0.033
22:24:23.833,SEARCHING,20.661,13.047,1.869,0.00,0.00,24.78,5.151,7.552,4.249,3.848,4.469,0,0,SEARCHING,0.000,0.800,-0.000,0.033
22:24:24.033,SEARCHING,20.806,13.115,1.869,0.00,0.00,25.16,5.059,7.367,4.239,3.827,4.543,0,0,SEARCHING,0.000,0.800,-0.000,0.032
22:24:24.235,SEARCHING,20.950,13.183,1.869,0.00,0.00,25.52,4.998,7.188,4.183,3.847,4.500,0,0,SEARCHING,0.000,0.800,-0.000,0.031
22:24:24.435,SEARCHING,21.094,13.252,1.869,0.00,0.00,25.87,4.978,7.046,4.213,3.810,4.541,0,0,SEARCHING,0.000,0.800,-0.015,0.030
22:24:24.635,SEARCHING,21.181,13.294,1.865,0.00,0.00,26.07,4.883,6.943,4.259,3.828,4.554,0,0,SEARCHING,0.000,0.800,-0.009,0.027
22:24:24.836,SEARCHING,21.324,13.365,1.865,0.00,0.00,26.36,4.819,6.935,4.267,3.821,4.531,0,0,SEARCHING,0.000,0.800,-0.002,0.023
22:24:25.037,SEARCHING,21.439,13.422,1.864,0.00,0.00,26.56,4.771,6.747,4.336,3.813,4.550,0,0,SEARCHING,0.000,0.800,-0.034,0.019
22:24:25.237,SEARCHING,21.525,13.465,1.858,0.00,0.00,26.68,4.687,6.636,4.320,3.864,4.525,0,0,SEARCHING,0.000,0.800,-0.013,0.016
22:24:25.438,SEARCHING,21.639,13.523,1.857,0.00,0.00,26.82,4.604,6.495,4.282,3.856,4.491,0,0,SEARCHING,0.000,0.800,-0.003,0.014
22:24:25.640,SEARCHING,21.782,13.595,1.857,0.00,0.00,26.98,4.534,6.321,4.260,3.825,4.487,0,0,SEARCHING,0.000,0.800,-0.001,0.013
22:24:25.840,SEARCHING,21.924,13.668,1.857,0.00,0.00,27.13,4.503,6.239,4.231,3.835,4.458,0,0,SEARCHING,0.000,0.800,-0.000,0.012
22:24:26.041,SEARCHING,22.067,13.741,1.857,0.00,0.00,27.26,4.441,6.009,4.281,3.847,4.483,0,0,SEARCHING,0.000,0.800,-0.000,0.009
22:24:26.240,SEARCHING,22.209,13.814,1.857,0.00,0.00,27.37,4.451,5.872,4.222,3.846,4.505,0,0,SEARCHING,0.000,0.800,-0.000,0.009
22:24:26.443,SEARCHING,22.351,13.888,1.857,0.00,0.00,27.47,4.386,5.707,4.346,3.813,4.493,0,0,SEARCHING,0.000,0.800,-0.000,0.007
22:24:26.642,SEARCHING,22.493,13.962,1.857,0.00,0.00,27.52,4.368,5.470,4.833,3.795,4.487,0,0,SEARCHING,0.000,0.800,-0.000,-0.006
22:24:26.844,SEARCHING,22.635,14.036,1.857,0.00,0.00,27.40,4.313,5.339,5.042,3.818,4.487,0,0,SEARCHING,0.000,0.800,-0.000,-0.020
22:24:27.043,SEARCHING,22.777,14.109,1.857,0.00,0.00,27.15,4.311,5.170,5.080,3.843,4.523,0,0,SEARCHING,0.000,0.800,-0.000,-0.026
22:24:27.244,SEARCHING,22.919,14.182,1.857,0.00,0.00,26.84,4.260,5.011,5.048,3.844,4.504,0,0,SEARCHING,0.000,0.800,-0.000,-0.028
22:24:27.445,SEARCHING,23.062,14.254,1.857,0.00,0.00,26.52,4.317,4.855,4.991,3.839,4.502,0,0,SEARCHING,0.000,0.800,-0.000,-0.027
22:24:27.645,SEARCHING,23.206,14.325,1.857,0.00,0.00,26.21,4.297,4.675,4.961,3.801,4.508,0,0,SEARCHING,0.000,0.800,-0.000,-0.026
22:24:27.846,SEARCHING,23.349,14.395,1.857,0.00,0.00,25.93,4.332,4.547,4.949,3.811,4.524,0,0,SEARCHING,0.000,0.800,-0.000,-0.023
22:24:28.046,SEARCHING,23.493,14.465,1.857,0.00,0.00,25.67,4.332,4.395,4.900,3.820,4.555,0,0,SEARCHING,0.000,0.800,-0.015,-0.022
22:24:28.247,SEARCHING,23.580,14.506,1.853,0.00,0.00,25.52,4.380,4.262,4.842,3.861,4.531,0,0,SEARCHING,0.000,0.800,-0.009,-0.019
22:24:28.447,SEARCHING,23.724,14.575,1.853,0.00,0.00,25.31,4.411,4.085,4.776,3.868,4.492,0,0,SEARCHING,0.000,0.800,-0.002,-0.016
22:24:28.647,SEARCHING,23.869,14.643,1.853,0.00,0.00,25.13,4.383,3.965,4.720,3.869,4.500,0,0,SEARCHING,0.000,0.800,-0.001,-0.014
22:24:28.848,SEARCHING,24.014,14.711,1.853,0.00,0.00,24.97,4.346,3.786,4.601,3.796,4.547,0,0,SEARCHING,0.000,0.800,-0.016,-0.013
22:24:29.049,SEARCHING,24.101,14.751,1.848,0.00,0.00,24.90,4.379,3.696,4.511,3.684,4.573,0,0,SEARCHING,0.000,0.800,-0.049,-0.009
22:24:29.249,SEARCHING,24.188,14.792,1.836,0.00,0.00,24.84,4.325,3.511,4.538,3.508,4.536,0,0,SEARCHING,0.000,0.800,-0.066,-0.008
22:24:29.449,SEARCHING,24.275,14.832,1.822,0.00,0.00,24.79,4.344,3.491,4.530,3.481,4.510,0,0,SEARCHING,0.000,0.800,-0.075,-0.008
22:24:29.650,SEARCHING,24.363,14.872,1.807,0.00,0.00,24.73,4.320,3.316,4.507,3.339,4.489,0,0,SEARCHING,0.000,0.800,-0.084,-0.008
22:24:29.850,SEARCHING,24.450,14.912,1.789,0.00,0.00,24.68,4.301,3.270,4.490,3.288,4.469,0,0,SEARCHING,0.000,0.800,-0.092,-0.008
22:24:30.051,SEARCHING,24.537,14.952,1.771,0.00,0.00,24.62,4.333,3.201,4.487,3.214,4.415,0,0,SEARCHING,0.000,0.800,-0.097,-0.007
22:24:30.252,SEARCHING,24.624,14.992,1.751,0.00,0.00,24.58,4.348,2.999,4.439,3.035,4.356,0,0,SEARCHING,0.000,0.800,-0.109,-0.006
22:24:30.451,SEARCHING,24.712,15.032,1.728,0.00,0.00,24.55,4.361,2.897,4.407,3.014,4.330,0,0,SEARCHING,0.000,0.800,-0.118,-0.003
22:24:30.652,SEARCHING,24.799,15.072,1.704,0.00,0.00,24.53,4.391,2.725,4.395,2.763,4.264,0,0,SEARCHING,0.000,0.800,-0.133,-0.002
22:24:30.853,SEARCHING,24.886,15.112,1.676,0.00,0.00,24.52,4.421,2.664,4.406,2.684,4.201,0,0,SEARCHING,0.000,0.800,-0.153,-0.000
22:24:31.053,SEARCHING,24.974,15.152,1.644,0.00,0.00,24.52,4.398,2.641,4.401,2.630,4.116,0,0,SEARCHING,0.000,0.800,-0.161,0.000
22:24:31.254,SEARCHING,25.061,15.192,1.612,0.00,0.00,24.53,4.426,2.597,4.382,2.613,4.034,0,0,SEARCHING,0.000,0.800,-0.163,0.001
22:24:31.455,SEARCHING,25.148,15.231,1.579,0.00,0.00,24.54,4.423,2.461,4.363,2.489,3.946,0,0,SEARCHING,0.000,0.800,-0.169,0.003
22:24:31.655,SEARCHING,25.236,15.271,1.544,0.00,0.00,24.56,4.412,6.913,4.396,2.312,3.849,0,0,SEARCHING,0.000,0.800,-0.191,0.002
22:24:31.855,SEARCHING,25.323,15.311,1.505,0.00,0.00,24.57,4.421,7.796,4.400,2.264,3.759,0,0,SEARCHING,0.000,0.800,-0.206,0.002
22:24:32.056,SEARCHING,25.410,15.351,1.463,0.00,0.00,24.58,4.464,7.879,4.390,2.236,3.660,0,0,SEARCHING,0.000,0.800,-0.209,0.002
22:24:32.258,SEARCHING,25.498,15.391,1.421,0.00,0.00,24.60,4.461,7.889,4.378,2.154,3.552,0,0,SEARCHING,0.000,0.800,-0.213,0.004
22:24:32.458,SEARCHING,25.585,15.431,1.378,0.00,0.00,24.63,4.643,7.863,4.383,2.087,3.453,0,0,SEARCHING,0.000,0.800,-0.221,0.006
22:24:32.659,SEARCHING,25.672,15.471,1.333,0.00,0.00,24.70,4.949,7.753,4.325,2.003,3.318,0,0,SEARCHING,0.000,0.800,-0.230,0.016
22:24:32.859,SEARCHING,25.759,15.511,1.286,0.00,0.00,24.84,4.819,7.642,4.318,1.902,3.206,0,0,SEARCHING,0.000,0.800,-0.245,0.021
22:24:33.061,SEARCHING,25.846,15.552,1.236,0.00,0.00,24.97,4.772,7.630,4.338,1.827,3.125,0,0,SEARCHING,0.000,0.800,-0.263,0.018
22:24:33.262,SEARCHING,25.933,15.592,1.183,0.00,0.00,25.09,4.766,7.440,4.322,1.819,2.973,0,0,SEARCHING,0.000,0.800,-0.266,0.017
22:24:33.461,SEARCHING,26.020,15.633,1.131,0.00,0.00,25.21,4.922,7.261,4.234,1.845,2.810,0,0,SEARCHING,0.000,0.800,-0.242,0.021
22:24:33.661,SEARCHING,26.107,15.674,1.096,0.00,0.00,25.38,4.834,7.209,4.245,5.155,2.700,0,0,SEARCHING,0.000,0.800,0.028,0.024
22:24:33.862,SEARCHING,26.194,15.715,1.116,0.00,0.00,25.55,4.939,7.157,4.180,5.672,2.691,0,0,SEARCHING,0.000,0.800,0.182,0.027
22:24:34.062,SEARCHING,26.280,15.757,1.156,0.00,0.00,25.74,4.982,7.151,4.106,5.573,2.771,0,0,SEARCHING,0.000,0.800,0.215,0.031
22:24:34.262,SEARCHING,26.367,15.799,1.199,0.00,0.00,25.97,4.851,7.151,4.029,5.597,2.880,0,0,SEARCHING,0.000,0.800,0.210,0.033
22:24:34.463,SEARCHING,26.453,15.841,1.240,0.00,0.00,26.19,4.755,6.986,3.985,5.462,3.030,0,0,SEARCHING,0.000,0.800,0.192,0.033
22:24:34.663,SEARCHING,26.539,15.883,1.277,0.00,0.00,26.42,4.766,6.940,3.955,5.344,3.106,0,0,SEARCHING,0.000,0.800,0.173,0.034
22:24:34.865,SEARCHING,26.625,15.926,1.311,0.00,0.00,26.66,4.725,6.935,3.916,5.250,3.186,0,0,SEARCHING,0.000,0.800,0.158,0.035
22:24:35.065,SEARCHING,26.711,15.970,1.341,0.00,0.00,26.90,4.676,6.754,3.927,5.129,3.281,0,0,SEARCHING,0.000,0.800,0.141,0.034
22:24:35.265,SEARCHING,26.796,16.013,1.368,0.00,0.00,27.12,4.579,6.733,3.916,5.084,3.371,0,0,SEARCHING,0.000,0.800,0.129,0.031
22:24:35.465,SEARCHING,26.882,16.057,1.393,0.00,0.00,27.33,4.530,6.561,3.888,4.963,3.445,0,0,SEARCHING,0.000,0.800,0.116,0.029
22:24:35.667,SEARCHING,26.967,16.101,1.416,0.00,0.00,27.53,4.498,6.540,3.874,4.944,3.509,0,0,SEARCHING,0.000,0.800,0.104,0.029
22:24:35.866,SEARCHING,27.052,16.146,1.436,0.00,0.00,27.73,4.471,6.419,3.845,4.930,3.582,0,0,SEARCHING,0.000,0.800,0.096,0.029
22:24:36.067,SEARCHING,27.137,16.190,1.455,0.00,0.00,27.92,4.366,6.363,3.827,4.883,3.618,0,0,SEARCHING,0.000,0.800,0.090,0.027
22:24:36.267,SEARCHING,27.222,16.236,1.472,0.00,0.00,28.10,4.291,6.244,3.815,4.788,3.673,0,0,SEARCHING,0.000,0.800,0.082,0.025
22:24:36.468,SEARCHING,27.306,16.281,1.488,0.00,0.00,28.27,4.253,6.191,3.830,4.784,3.719,0,0,SEARCHING,0.000,0.800,0.076,0.022
22:24:36.668,SEARCHING,27.391,16.326,1.503,0.00,0.00,28.41,4.183,6.112,3.803,4.719,3.735,0,0,SEARCHING,0.000,0.800,0.070,0.021
22:24:36.869,SEARCHING,27.475,16.372,1.517,0.00,0.00,28.55,4.081,6.032,3.787,4.761,3.781,0,0,SEARCHING,0.000,0.800,0.068,0.018
22:24:37.069,SEARCHING,27.559,16.418,1.530,0.00,0.00,28.66,4.084,5.894,3.752,4.681,3.810,0,0,SEARCHING,0.000,0.800,0.062,0.017
22:24:37.270,SEARCHING,27.644,16.464,1.542,0.00,0.00,28.78,4.052,5.870,3.751,4.651,3.827,0,0,SEARCHING,0.000,0.800,0.058,0.016
22:24:37.471,SEARCHING,27.728,16.511,1.553,0.00,0.00,28.89,4.045,5.738,3.703,4.610,3.833,0,0,SEARCHING,0.000,0.800,0.054,0.016
22:24:37.670,SEARCHING,27.812,16.557,1.564,0.00,0.00,29.00,3.995,5.599,3.718,4.614,3.841,0,0,SEARCHING,0.000,0.800,0.053,0.016
22:24:37.871,SEARCHING,27.896,16.604,1.573,0.00,0.00,29.11,3.931,5.527,3.694,4.581,3.874,0,0,SEARCHING,0.000,0.800,0.018,0.014
22:24:38.071,SEARCHING,28.007,16.666,1.574,0.00,0.00,29.24,3.905,5.386,3.721,4.573,3.878,0,0,SEARCHING,0.000,0.800,0.004,0.013
22:24:38.272,SEARCHING,28.147,16.744,1.574,0.00,0.00,29.37,3.860,5.228,3.751,4.567,3.927,0,0,SEARCHING,0.000,0.800,0.001,0.009
22:24:38.472,SEARCHING,28.286,16.823,1.574,0.00,0.00,29.45,3.816,5.054,3.883,4.557,3.919,0,0,SEARCHING,0.000,0.800,0.000,0.002
22:24:38.673,SEARCHING,28.426,16.902,1.574,0.00,0.00,29.44,3.772,4.903,4.232,4.581,3.903,0,0,SEARCHING,0.000,0.800,0.000,-0.012
22:24:38.874,SEARCHING,28.565,16.980,1.574,0.00,0.00,29.26,3.754,4.724,4.368,4.537,3.909,0,0,SEARCHING,0.000,0.800,0.000,-0.024
22:24:39.075,SEARCHING,28.705,17.058,1.574,0.00,0.00,28.96,3.732,4.615,4.354,4.540,3.907,0,0,SEARCHING,0.000,0.800,0.000,-0.030
22:24:39.275,SEARCHING,28.845,17.135,1.574,0.00,0.00,28.61,3.703,4.522,4.328,4.509,3.916,0,0,SEARCHING,0.000,0.800,0.000,-0.031
22:24:39.476,SEARCHING,28.986,17.211,1.574,0.00,0.00,28.27,3.748,4.402,4.270,4.382,3.926,0,0,SEARCHING,0.000,0.800,0.000,-0.028
22:24:39.677,SEARCHING,29.127,17.287,1.574,0.00,0.00,27.95,3.759,4.240,4.184,4.217,3.924,0,0,SEARCHING,0.000,0.800,0.000,-0.025
22:24:39.877,SEARCHING,29.268,17.361,1.574,0.00,0.00,27.69,3.784,4.092,4.043,4.074,3.919,0,0,SEARCHING,0.000,0.800,0.000,-0.019
22:24:40.077,SEARCHING,29.410,17.435,1.574,0.00,0.00,27.49,3.785,3.932,3.931,3.915,3.837,0,0,SEARCHING,0.000,0.800,0.000,-0.012
22:24:40.277,SEARCHING,29.552,17.509,1.574,0.00,0.00,27.37,3.732,3.756,3.767,3.754,3.734,0,0,SEARCHING,0.000,0.800,0.000,-0.005
22:24:40.478,SEARCHING,29.694,17.583,1.574,0.00,0.00,27.32,3.578,3.616,3.614,3.612,3.597,0,0,SEARCHING,0.000,0.800,0.000,-0.003
22:24:40.678,SEARCHING,29.836,17.656,1.574,0.00,0.00,27.29,3.456,3.476,3.499,3.480,3.473,0,0,SEARCHING,0.000,0.800,0.000,-0.003
22:24:40.879,SEARCHING,29.979,17.729,1.574,0.00,0.00,27.26,3.324,3.332,3.362,3.335,3.334,0,0,SEARCHING,0.000,0.800,0.000,-0.003
22:24:41.079,SEARCHING,30.121,17.803,1.574,0.00,0.00,27.23,3.166,3.182,3.202,3.196,3.174,0,0,SEARCHING,0.000,0.800,0.000,-0.003
22:24:41.280,SEARCHING,30.263,17.876,1.574,0.00,0.00,27.19,3.005,3.006,3.038,3.027,3.010,0,0,SEARCHING,0.000,0.800,0.000,-0.003
22:24:41.481,SEARCHING,30.405,17.949,1.574,0.00,0.00,27.16,2.845,2.854,2.872,2.868,2.870,0,0,SEARCHING,0.000,0.800,0.000,-0.003
22:24:41.680,SEARCHING,30.548,18.022,1.574,0.00,0.00,27.13,2.707,2.719,2.737,2.721,2.725,0,0,SEARCHING,0.000,0.800,0.000,-0.003
22:24:41.881,SEARCHING,30.690,18.095,1.574,0.00,0.00,27.09,2.549,2.566,2.579,2.567,2.578,0,0,SEARCHING,0.000,0.800,0.000,-0.004
22:24:42.081,SEARCHING,30.833,18.168,1.574,0.00,0.00,27.05,2.393,2.403,2.417,2.398,2.411,0,0,SEARCHING,0.000,0.800,0.000,-0.003
22:24:42.282,SEARCHING,30.975,18.240,1.574,0.00,0.00,27.01,2.246,2.257,2.275,2.259,2.260,0,0,SEARCHING,0.000,0.800,0.000,-0.004
22:24:42.483,SEARCHING,31.118,18.313,1.574,0.00,0.00,26.97,2.083,2.094,2.105,2.093,2.101,0,0,SEARCHING,0.000,0.800,0.000,-0.004
22:24:42.682,SEARCHING,31.260,18.385,1.574,0.00,0.00,26.92,1.934,1.950,1.961,1.951,1.952,0,0,SEARCHING,0.000,0.787,0.000,-0.005
22:24:42.883,SEARCHING,31.398,18.455,1.574,0.00,0.00,26.87,1.779,1.793,1.804,1.793,1.791,0,0,SEARCHING,0.000,0.707,0.000,-0.006
22:24:43.083,SEARCHING,31.519,18.517,1.574,0.00,0.00,26.80,1.636,1.644,1.664,1.649,1.652,0,0,SEARCHING,0.000,0.608,0.000,-0.007
22:24:43.284,SEARCHING,31.624,18.569,1.574,0.00,0.00,26.71,1.513,1.523,1.544,1.528,1.531,0,0,SEARCHING,0.000,0.519,0.000,-0.009
22:24:43.484,SEARCHING,31.713,18.614,1.574,0.00,0.00,26.60,1.411,1.423,1.437,1.425,1.425,0,0,SEARCHING,0.000,0.447,0.000,-0.010
22:24:43.685,SEARCHING,31.790,18.653,1.574,0.00,0.00,26.48,1.318,1.329,1.344,1.331,1.331,0,0,SEARCHING,0.000,0.389,0.000,-0.012
22:24:43.886,SEARCHING,31.858,18.686,1.574,0.00,0.00,26.35,1.240,1.254,1.267,1.254,1.254,0,0,SEARCHING,0.000,0.342,0.000,-0.013
22:24:44.086,SEARCHING,31.917,18.716,1.574,0.00,0.00,26.20,1.171,1.186,1.198,1.184,1.184,0,0,SEARCHING,0.000,0.304,0.000,-0.014
22:24:44.287,SEARCHING,31.970,18.742,1.574,0.00,0.00,26.03,1.107,1.122,1.134,1.121,1.122,0,0,SEARCHING,0.000,0.271,0.000,-0.016
22:24:44.488,SEARCHING,32.018,18.765,1.574,0.00,0.00,25.84,1.053,1.067,1.081,1.067,1.067,0,0,SEARCHING,0.000,0.255,0.000,-0.018
22:24:44.688,SEARCHING,32.064,18.787,1.574,0.00,0.00,25.63,1.002,1.015,1.028,1.015,1.015,0,0,SEARCHING,0.000,0.251,0.000,-0.019
22:24:44.888,SEARCHING,32.109,18.808,1.574,0.00,0.00,25.40,0.950,0.965,0.979,0.965,0.964,0,0,SEARCHING,0.000,0.250,0.000,-0.023
22:24:45.088,SEARCHING,32.154,18.830,1.574,0.00,0.00,25.12,0.898,0.914,0.931,0.914,0.914,0,0,SEARCHING,0.000,0.250,0.000,-0.028
22:24:45.290,SEARCHING,32.199,18.851,1.574,0.00,0.00,24.79,0.857,0.872,0.889,0.872,0.873,0,0,SEARCHING,0.000,0.250,0.000,-0.032
22:24:45.491,SEARCHING,32.245,18.872,1.574,0.00,0.00,24.42,0.798,0.814,0.832,0.814,0.814,0,0,SEARCHING,0.000,0.250,0.000,-0.037
22:24:45.690,INSPECTING,32.289,18.892,1.574,0.00,0.00,23.82,0.747,0.764,0.782,0.765,0.765,0,0,INSPECT_RIGHT,0.000,0.167,0.000,-0.275
22:24:45.890,INSPECTING,32.319,18.904,1.574,0.00,0.00,20.00,0.699,0.725,0.752,0.724,0.725,0,0,INSPECT_RIGHT,0.000,0.156,0.000,-0.446
22:24:46.091,INSPECTING,32.349,18.914,1.574,0.00,0.00,14.73,0.650,0.692,0.738,0.691,0.691,0,0,INSPECT_RIGHT,0.000,0.150,0.000,-0.487
22:24:46.293,INSPECTING,32.378,18.920,1.574,0.00,0.00,9.11,0.609,0.667,0.737,0.667,0.666,0,0,INSPECT_RIGHT,0.000,0.148,0.000,-0.497
22:24:46.493,INSPECTING,32.407,18.923,1.574,0.00,0.00,3.40,0.577,0.650,0.746,0.651,0.650,0,0,INSPECT_RIGHT,0.000,0.148,0.000,-0.499
22:24:46.694,INSPECTING,32.437,18.924,1.574,0.00,0.00,-2.32,0.552,0.642,0.768,0.641,0.642,0,0,INSPECT_RIGHT,0.000,0.151,0.000,-0.500
22:24:46.894,INSPECTING,32.467,18.921,1.574,0.00,0.00,-8.05,0.535,0.643,0.803,0.642,0.642,0,0,INSPECT_RIGHT,0.000,0.156,0.000,-0.500
22:24:47.094,INSPECTING,32.498,18.915,1.574,0.00,0.00,-13.78,0.524,0.652,0.859,0.653,0.653,0,0,INSPECT_RIGHT,0.000,0.165,0.000,-0.500
22:24:47.295,INSPECTING,32.530,18.906,1.574,0.00,0.00,-19.51,0.520,0.671,0.944,0.670,0.673,0,0,INSPECT_RIGHT,0.000,0.178,0.000,-0.500
22:24:47.495,INSPECTING,32.564,18.892,1.574,0.00,0.00,-25.23,0.521,0.702,1.062,0.701,0.703,0,0,INSPECT_RIGHT,0.000,0.197,0.000,-0.500
22:24:47.697,INSPECTING,32.600,18.873,1.574,0.00,0.00,-30.96,0.533,0.748,1.267,0.748,0.751,0,0,INSPECT_RIGHT,0.000,0.228,0.000,-0.500
22:24:47.897,INSPECTING,32.640,18.846,1.574,0.00,0.00,-36.69,0.552,0.819,1.516,0.818,0.819,0,0,INSPECT_RIGHT,0.000,0.272,0.000,-0.500
22:24:48.098,INSPECTING,32.683,18.811,1.574,0.00,0.00,-42.42,0.581,0.916,1.534,0.917,0.919,0,0,INSPECT_RIGHT,0.000,0.298,0.000,-0.500
22:24:48.297,INSPECTING,32.726,18.768,1.574,0.00,0.00,-48.15,0.624,1.083,1.501,1.082,1.083,0,0,INSPECT_RIGHT,0.000,0.302,0.000,-0.500
22:24:48.498,INSPECTING,32.764,18.722,1.574,0.00,0.00,-53.88,0.680,1.304,1.483,1.297,1.288,0,0,INSPECT_RIGHT,0.000,0.299,0.000,-0.500
22:24:48.698,SEARCHING,32.797,18.671,1.574,0.00,0.00,-59.64,0.813,1.491,1.475,1.488,1.491,0,0,SEARCHING,0.000,0.330,0.000,-0.489
22:24:48.898,SEARCHING,32.829,18.611,1.574,0.00,0.00,-64.94,0.981,1.443,1.453,1.444,1.446,0,0,SEARCHING,0.000,0.358,0.000,-0.367
22:24:49.099,SEARCHING,32.857,18.545,1.574,0.00,0.00,-68.69,1.195,1.373,1.418,1.376,1.376,0,0,SEARCHING,0.000,0.360,0.000,-0.210
22:24:49.300,SEARCHING,32.882,18.478,1.574,0.00,0.00,-70.74,1.227,1.301,1.363,1.302,1.303,0,0,SEARCHING,0.000,0.348,0.000,-0.109
22:24:49.500,SEARCHING,32.904,18.413,1.574,0.00,0.00,-71.85,1.169,1.231,1.305,1.231,1.233,0,0,SEARCHING,0.000,0.319,0.000,-0.077
22:24:49.700,SEARCHING,32.923,18.354,1.574,0.00,0.00,-72.73,1.105,1.172,1.245,1.172,1.172,0,0,SEARCHING,0.000,0.288,0.000,-0.078
22:24:49.901,SEARCHING,32.939,18.300,1.574,0.00,0.00,-73.64,1.046,1.114,1.191,1.115,1.113,0,0,SEARCHING,0.000,0.263,0.000,-0.085
22:24:50.102,SEARCHING,32.954,18.250,1.574,0.00,0.00,-74.65,0.994,1.065,1.143,1.064,1.065,0,0,SEARCHING,0.000,0.253,0.000,-0.097
22:24:50.301,SEARCHING,32.967,18.202,1.574,0.00,0.00,-75.80,0.945,1.017,1.099,1.016,1.015,0,0,SEARCHING,0.000,0.251,0.000,-0.110
22:24:50.503,SEARCHING,32.978,18.153,1.574,0.00,0.00,-77.11,0.902,0.977,1.064,0.976,0.974,0,0,SEARCHING,0.000,0.250,0.000,-0.126
22:24:50.703,SEARCHING,32.989,18.104,1.574,0.00,0.00,-78.60,0.846,0.923,1.031,0.923,0.922,0,0,SEARCHING,0.000,0.250,0.000,-0.149
22:24:50.902,SEARCHING,32.998,18.055,1.574,0.00,0.00,-80.43,0.799,0.881,1.057,0.881,0.880,0,0,SEARCHING,0.000,0.250,0.000,-0.199
22:24:51.104,SEARCHING,33.006,18.005,1.574,0.00,0.00,-82.90,0.753,0.840,1.055,0.840,0.840,0,0,SEARCHING,0.000,0.250,0.000,-0.263
22:24:51.305,SEARCHING,33.011,17.956,1.574,0.00,0.00,-86.07,0.708,0.801,1.020,0.800,0.801,0,0,SEARCHING,0.000,0.250,0.000,-0.313
22:24:51.504,INSPECTING,33.013,17.908,1.574,0.00,0.00,-89.86,0.667,0.768,0.966,0.768,0.770,0,0,INSPECT_RIGHT,0.000,0.185,0.000,-0.418
22:24:51.705,INSPECTING,33.011,17.871,1.574,0.00,0.00,-94.90,0.639,0.755,0.904,0.755,0.755,0,0,INSPECT_RIGHT,0.000,0.185,0.000,-0.480
22:24:51.906,INSPECTING,33.007,17.835,1.574,0.00,0.00,-100.46,0.620,0.842,0.844,0.829,0.830,0,0,INSPECT_RIGHT,0.000,0.176,0.000,-0.495
22:24:52.106,INSPECTING,32.999,17.801,1.574,0.00,0.00,-106.15,0.610,0.874,0.804,0.873,0.873,0,0,INSPECT_RIGHT,0.000,0.166,0.000,-0.499
22:24:52.306,INSPECTING,32.988,17.770,1.574,0.00,0.00,-111.87,0.665,0.875,0.788,0.874,0.874,0,0,INSPECT_RIGHT,0.000,0.160,0.000,-0.500
22:24:52.507,INSPECTING,32.975,17.741,1.574,0.00,0.00,-117.60,0.716,0.822,0.781,0.821,0.821,0,0,INSPECT_RIGHT,0.000,0.158,0.000,-0.500
22:24:52.708,INSPECTING,32.959,17.714,1.574,0.00,0.00,-123.33,0.735,0.773,0.763,0.763,0.771,0,0,INSPECT_RIGHT,0.000,0.155,0.000,-0.500
22:24:52.909,INSPECTING,32.939,17.685,1.574,0.00,0.00,-129.06,0.757,0.738,2.301,0.720,0.735,0,0,INSPECT_RIGHT,0.000,0.275,0.000,-0.500
22:24:53.109,INSPECTING,32.898,17.640,1.574,0.00,0.00,-134.79,0.711,0.695,4.484,0.684,0.691,0,0,INSPECT_RIGHT,0.000,0.370,0.000,-0.500
22:24:53.310,INSPECTING,32.842,17.588,1.574,0.00,0.00,-140.52,0.608,0.680,4.729,0.686,0.682,0,0,INSPECT_RIGHT,0.000,0.393,0.000,-0.500
22:24:55.511,INSPECTING,32.779,17.541,1.574,0.00,0.00,-146.25,0.592,0.721,4.630,0.725,0.724,0,0,INSPECT_RIGHT,0.000,0.398,0.000,-0.500
22:24:55.539,INSPECTING,32.711,17.500,1.574,0.00,0.00,-151.98,0.592,0.721,4.630,0.725,0.724,0,0,INSPECT_RIGHT,0.000,0.400,0.000,-0.500
22:24:55.696,SEARCHING,32.647,17.469,1.574,0.00,0.00,-157.27,0.831,4.427,4.511,3.771,3.335,0,0,SEARCHING,0.000,0.604,0.014,-0.730
22:24:55.890,SEARCHING,32.543,17.432,1.576,0.00,0.00,-163.84,2.089,4.517,5.010,4.353,3.828,0,0,SEARCHING,0.000,0.753,0.003,-0.534
22:24:56.088,SEARCHING,32.394,17.396,1.576,0.00,0.00,-168.85,4.207,4.425,4.667,4.323,3.883,0,0,SEARCHING,0.000,0.789,0.001,-0.200
22:24:56.289,SEARCHING,32.238,17.368,1.576,0.00,0.00,-170.56,4.987,4.277,4.430,4.231,3.893,0,0,SEARCHING,0.000,0.797,0.000,-0.041
22:24:56.490,SEARCHING,32.081,17.343,1.576,0.00,0.00,-170.83,5.052,4.129,4.247,4.063,3.880,0,0,SEARCHING,0.000,0.799,0.000,0.012
22:24:56.690,SEARCHING,31.923,17.317,1.576,0.00,0.00,-170.62,5.190,3.973,4.183,3.862,3.885,0,0,SEARCHING,0.000,0.800,0.000,0.031
22:24:56.891,SEARCHING,31.765,17.290,1.576,0.00,0.00,-170.26,5.008,3.722,4.183,3.753,3.909,0,0,SEARCHING,0.000,0.800,0.000,0.033
22:24:57.091,SEARCHING,31.608,17.263,1.576,0.00,0.00,-169.88,5.266,3.565,4.196,3.593,3.902,0,0,SEARCHING,0.000,0.800,0.000,0.035
22:24:57.292,SEARCHING,31.450,17.234,1.576,0.00,0.00,-169.46,5.402,3.454,4.230,3.481,3.881,0,0,SEARCHING,0.000,0.800,0.000,0.039
22:24:57.492,SEARCHING,31.293,17.204,1.576,0.00,0.00,-169.02,5.060,3.348,4.200,3.345,3.869,0,0,SEARCHING,0.000,0.800,0.000,0.036
22:24:57.693,SEARCHING,31.167,17.180,1.573,0.00,0.00,-168.70,4.925,3.164,4.164,3.181,3.878,0,0,SEARCHING,0.000,0.800,-0.042,0.032
22:24:57.894,SEARCHING,31.073,17.161,1.563,0.00,0.00,-168.47,4.974,3.054,4.148,3.076,3.859,0,0,SEARCHING,0.000,0.800,-0.068,0.034
22:24:58.094,SEARCHING,30.979,17.141,1.548,0.00,0.00,-168.24,5.256,2.926,4.194,2.961,3.832,0,0,SEARCHING,0.000,0.800,-0.083,0.036
22:24:58.294,SEARCHING,30.885,17.122,1.531,0.00,0.00,-167.99,5.330,2.871,4.183,2.880,3.779,0,0,SEARCHING,0.000,0.800,-0.093,0.037
22:24:58.495,SEARCHING,30.791,17.102,1.512,0.00,0.00,-167.73,5.121,2.808,4.182,2.790,3.730,0,0,SEARCHING,0.000,0.800,-0.102,0.036
22:24:58.695,SEARCHING,30.698,17.081,1.491,0.00,0.00,-167.48,5.020,4.227,4.233,2.698,3.694,0,0,SEARCHING,0.000,0.800,-0.112,0.035
22:24:58.897,SEARCHING,30.604,17.060,1.467,0.00,0.00,-167.25,5.088,7.035,4.237,2.605,3.622,0,0,SEARCHING,0.000,0.800,-0.122,0.033
22:24:59.096,SEARCHING,30.510,17.039,1.442,0.00,0.00,-167.02,5.385,7.341,4.290,2.500,3.564,0,0,SEARCHING,0.000,0.800,-0.134,0.036
22:24:59.297,SEARCHING,30.417,17.017,1.415,0.00,0.00,-166.75,5.457,7.307,4.256,2.406,3.455,0,0,SEARCHING,0.000,0.800,-0.145,0.040
22:24:59.497,SEARCHING,30.323,16.995,1.385,0.00,0.00,-166.48,5.383,7.361,4.239,2.318,3.394,0,0,SEARCHING,0.000,0.800,-0.156,0.041
22:24:59.699,SEARCHING,30.230,16.972,1.353,0.00,0.00,-166.20,5.405,7.203,4.304,2.249,3.319,0,0,SEARCHING,0.000,0.800,-0.166,0.039
22:24:59.899,SEARCHING,30.137,16.949,1.319,0.00,0.00,-165.95,5.241,7.241,4.292,2.126,3.233,0,0,SEARCHING,0.000,0.800,-0.182,0.035
22:25:00.100,SEARCHING,30.044,16.926,1.281,0.00,0.00,-165.71,5.225,7.178,4.314,2.033,3.152,0,0,SEARCHING,0.000,0.800,-0.198,0.033
22:25:00.300,SEARCHING,29.951,16.902,1.241,0.00,0.00,-165.48,5.387,7.131,4.300,1.946,3.055,0,0,SEARCHING,0.000,0.800,-0.213,0.035
22:25:00.501,SEARCHING,29.858,16.877,1.197,0.00,0.00,-165.24,5.438,7.147,4.314,1.873,2.977,0,0,SEARCHING,0.000,0.800,-0.229,0.037
22:25:00.703,SEARCHING,29.765,16.853,1.151,0.00,0.00,-164.98,5.508,7.024,4.380,1.863,2.829,0,0,SEARCHING,0.000,0.800,-0.230,0.037
22:25:00.903,SEARCHING,29.673,16.828,1.106,0.00,0.00,-164.72,5.532,6.872,4.442,3.062,2.722,0,0,SEARCHING,0.000,0.800,-0.151,0.037
22:25:01.104,SEARCHING,29.580,16.802,1.093,0.00,0.00,-164.48,5.587,6.713,4.477,5.515,2.642,0,0,SEARCHING,0.000,0.800,0.107,0.035
22:25:01.304,SEARCHING,29.488,16.776,1.124,0.00,0.00,-164.23,5.863,6.769,4.565,5.718,2.641,0,0,SEARCHING,0.000,0.800,0.210,0.037
22:25:01.504,SEARCHING,29.395,16.750,1.169,0.00,0.00,-163.97,6.033,6.985,4.582,5.656,2.762,0,0,SEARCHING,0.000,0.800,0.228,0.040
22:25:01.705,SEARCHING,29.303,16.724,1.214,0.00,0.00,-163.69,6.166,7.208,4.577,5.590,2.905,0,0,SEARCHING,0.000,0.800,0.212,0.043
22:25:01.905,SEARCHING,29.211,16.696,1.255,0.00,0.00,-163.38,6.174,7.511,4.576,5.481,3.017,0,0,SEARCHING,0.000,0.800,0.192,0.045
22:25:02.105,SEARCHING,29.119,16.669,1.292,0.00,0.00,-163.07,6.183,7.514,4.563,5.331,3.094,0,0,SEARCHING,0.000,0.800,0.174,0.046
22:25:02.307,SEARCHING,29.027,16.641,1.326,0.00,0.00,-162.76,6.193,7.589,4.562,5.252,3.186,0,0,SEARCHING,0.000,0.800,0.159,0.046
22:25:02.507,SEARCHING,28.936,16.612,1.357,0.00,0.00,-162.44,6.185,7.702,4.502,5.188,3.266,0,0,SEARCHING,0.000,0.800,0.146,0.047
22:25:02.708,SEARCHING,28.844,16.583,1.385,0.00,0.00,-162.11,6.184,7.715,4.527,5.095,3.345,0,0,SEARCHING,0.000,0.800,0.132,0.047
22:25:02.907,SEARCHING,28.753,16.553,1.410,0.00,0.00,-161.79,6.184,7.716,4.555,5.025,3.388,0,0,SEARCHING,0.000,0.800,0.121,0.047
22:25:03.108,SEARCHING,28.662,16.523,1.434,0.00,0.00,-161.47,6.176,7.651,4.574,4.921,3.450,0,0,SEARCHING,0.000,0.800,0.112,0.046
22:25:03.308,SEARCHING,28.571,16.492,1.456,0.00,0.00,-161.16,6.040,7.709,4.572,4.950,3.500,0,0,SEARCHING,0.000,0.800,0.104,0.044
22:25:03.510,SEARCHING,28.480,16.461,1.476,0.00,0.00,-160.86,6.024,7.921,4.497,4.858,3.576,0,0,SEARCHING,0.000,0.800,0.096,0.044
22:25:03.712,SEARCHING,28.389,16.429,1.494,0.00,0.00,-160.54,6.058,7.842,4.534,4.778,3.617,0,0,SEARCHING,0.000,0.800,0.086,0.046
22:25:03.911,SEARCHING,28.299,16.397,1.511,0.00,0.00,-160.24,5.955,7.806,4.495,4.768,3.613,0,0,SEARCHING,0.000,0.800,0.082,0.044
22:25:04.112,SEARCHING,28.209,16.364,1.527,0.00,0.00,-159.93,5.967,7.806,4.520,4.707,3.652,0,0,SEARCHING,0.000,0.800,0.076,0.044
22:25:04.312,SEARCHING,28.119,16.331,1.542,0.00,0.00,-159.63,5.782,7.697,4.549,4.653,3.686,0,0,SEARCHING,0.000,0.800,0.072,0.041
22:25:04.512,SEARCHING,28.029,16.298,1.556,0.00,0.00,-159.37,5.420,7.841,4.517,4.592,3.714,0,0,SEARCHING,0.000,0.800,0.066,0.035
22:25:04.713,SEARCHING,27.939,16.264,1.569,0.00,0.00,-159.14,5.648,7.898,4.509,4.578,3.700,0,0,SEARCHING,0.000,0.800,0.063,0.034
22:25:04.914,SEARCHING,27.849,16.229,1.581,0.00,0.00,-158.90,5.413,7.874,4.489,4.518,3.745,0,0,SEARCHING,0.000,0.800,0.059,0.032
22:25:05.113,SEARCHING,27.760,16.195,1.593,0.00,0.00,-158.68,5.436,7.941,4.519,4.490,3.750,0,0,SEARCHING,0.000,0.800,0.055,0.032
22:25:05.315,SEARCHING,27.670,16.160,1.604,0.00,0.00,-158.47,5.477,8.329,4.517,4.461,3.770,0,0,SEARCHING,0.000,0.800,0.037,0.031
22:25:05.516,SEARCHING,27.581,16.124,1.609,0.00,0.00,-158.27,5.450,8.429,4.474,4.448,3.770,0,0,SEARCHING,0.000,0.800,0.009,0.030
22:25:05.716,SEARCHING,27.462,16.077,1.611,0.00,0.00,-157.98,5.391,8.654,4.343,4.427,3.771,0,0,SEARCHING,0.000,0.800,0.021,0.034
22:25:05.915,SEARCHING,27.373,16.040,1.614,0.00,0.00,-157.75,5.326,8.577,4.292,4.435,3.809,0,0,SEARCHING,0.000,0.800,0.005,0.033
22:25:06.116,SEARCHING,27.225,15.979,1.614,0.00,0.00,-157.36,5.193,8.504,4.232,4.459,3.776,0,0,SEARCHING,0.000,0.800,0.001,0.035
22:25:06.317,SEARCHING,27.078,15.917,1.614,0.00,0.00,-156.96,5.119,8.633,4.131,4.464,3.727,0,0,SEARCHING,0.000,0.800,0.016,0.036
22:25:06.518,SEARCHING,26.990,15.880,1.619,0.00,0.00,-156.71,5.021,8.631,4.076,4.412,3.708,0,0,SEARCHING,0.000,0.800,0.044,0.037
22:25:06.719,SEARCHING,26.902,15.841,1.629,0.00,0.00,-156.46,5.002,8.631,4.107,4.377,3.693,0,0,SEARCHING,0.000,0.800,0.050,0.037
22:25:06.919,SEARCHING,26.814,15.803,1.639,0.00,0.00,-156.21,4.969,8.648,4.121,4.416,3.691,0,0,SEARCHING,0.000,0.800,0.052,0.034
22:25:07.118,SEARCHING,26.726,15.764,1.649,0.00,0.00,-155.98,4.954,8.559,4.158,4.402,3.691,0,0,SEARCHING,0.000,0.800,0.053,0.033
22:25:07.320,SEARCHING,26.638,15.725,1.658,0.00,0.00,-155.76,4.889,8.553,4.211,4.373,3.731,0,0,SEARCHING,0.000,0.800,0.018,0.030
22:25:07.521,SEARCHING,26.522,15.672,1.659,0.00,0.00,-155.51,4.819,8.393,4.234,4.368,3.711,0,0,SEARCHING,0.000,0.800,0.004,0.026
22:25:07.720,SEARCHING,26.376,15.605,1.659,0.00,0.00,-155.23,4.681,8.359,4.328,4.370,3.668,0,0,SEARCHING,0.000,0.800,0.017,0.020
22:25:07.921,SEARCHING,26.289,15.565,1.665,0.00,0.00,-155.12,4.735,8.061,4.392,4.367,3.654,0,0,SEARCHING,0.000,0.800,0.046,0.014
22:25:08.121,SEARCHING,26.202,15.525,1.674,0.00,0.00,-155.02,4.746,8.524,4.412,4.329,3.664,0,0,SEARCHING,0.000,0.800,0.050,0.013
22:25:08.323,SEARCHING,26.115,15.484,1.684,0.00,0.00,-154.93,4.765,7.924,4.380,4.286,3.666,0,0,SEARCHING,0.000,0.800,0.035,0.014
22:25:08.522,SEARCHING,26.028,15.443,1.689,0.00,0.00,-154.84,4.762,7.920,4.428,4.314,3.697,0,0,SEARCHING,0.000,0.800,0.008,0.013
22:25:08.722,SEARCHING,25.883,15.375,1.689,0.00,0.00,-154.69,4.766,7.922,4.430,4.276,3.670,0,0,SEARCHING,0.000,0.800,0.002,0.013
22:25:08.923,SEARCHING,25.739,15.307,1.689,0.00,0.00,-154.55,4.767,7.546,4.555,4.287,3.665,0,0,SEARCHING,0.000,0.800,0.000,0.010
22:25:09.123,SEARCHING,25.594,15.238,1.689,0.00,0.00,-154.44,4.767,7.629,4.603,4.308,3.607,0,0,SEARCHING,0.000,0.800,0.016,0.008
22:25:09.324,SEARCHING,25.508,15.196,1.695,0.00,0.00,-154.40,4.767,7.466,4.634,4.299,3.534,0,0,SEARCHING,0.000,0.800,0.049,0.005
22:25:09.525,SEARCHING,25.421,15.155,1.705,0.00,0.00,-154.36,4.797,7.443,4.590,4.277,3.522,0,0,SEARCHING,0.000,0.800,0.057,0.006
22:25:09.725,SEARCHING,25.335,15.113,1.717,0.00,0.00,-154.31,4.781,7.308,4.538,4.246,3.566,0,0,SEARCHING,0.000,0.800,0.056,0.008
22:25:09.925,SEARCHING,25.248,15.072,1.728,0.00,0.00,-154.25,4.858,7.193,4.449,4.238,3.537,0,0,SEARCHING,0.000,0.800,0.056,0.012
22:25:10.126,SEARCHING,25.162,15.030,1.739,0.00,0.00,-154.15,4.867,7.405,4.404,4.214,3.546,0,0,SEARCHING,0.000,0.800,0.054,0.016
22:25:10.326,SEARCHING,25.075,14.988,1.750,0.00,0.00,-154.03,4.884,7.245,4.302,4.176,3.488,0,0,SEARCHING,0.000,0.800,0.055,0.019
22:25:10.528,SEARCHING,24.989,14.946,1.761,0.00,0.00,-153.89,4.870,7.271,4.266,4.140,3.444,0,0,SEARCHING,0.000,0.800,0.057,0.023
22:25:10.729,SEARCHING,24.903,14.903,1.773,0.00,0.00,-153.73,4.869,7.311,4.216,4.082,3.442,0,0,SEARCHING,0.000,0.800,0.057,0.025
22:25:10.929,SEARCHING,24.817,14.861,1.784,0.00,0.00,-153.55,4.868,7.287,4.231,4.038,3.448,0,0,SEARCHING,0.000,0.800,0.054,0.025
22:25:11.130,SEARCHING,24.731,14.818,1.793,0.00,0.00,-153.38,4.847,7.256,4.260,4.024,3.464,0,0,SEARCHING,0.000,0.800,0.018,0.024
22:25:11.331,SEARCHING,24.617,14.760,1.795,0.00,0.00,-153.16,4.815,7.301,4.292,4.012,3.467,0,0,SEARCHING,0.000,0.800,0.004,0.023
22:25:11.530,SEARCHING,24.474,14.688,1.795,0.00,0.00,-152.91,4.790,7.090,4.463,4.021,3.526,0,0,SEARCHING,0.000,0.800,0.001,0.018
22:25:11.731,SEARCHING,24.332,14.615,1.795,0.00,0.00,-152.74,4.726,7.003,4.757,4.012,3.534,0,0,SEARCHING,0.000,0.800,0.000,0.007
22:25:11.932,SEARCHING,24.189,14.541,1.795,0.00,0.00,-152.69,4.732,6.677,5.192,4.002,3.522,0,0,SEARCHING,0.000,0.800,0.000,-0.006
22:25:12.133,SEARCHING,24.047,14.468,1.795,0.00,0.00,-152.80,4.680,6.802,5.364,4.020,3.505,0,0,SEARCHING,0.000,0.800,0.000,-0.016
22:25:12.333,SEARCHING,23.905,14.395,1.795,0.00,0.00,-153.01,4.671,6.823,5.466,4.002,3.459,0,0,SEARCHING,0.000,0.800,0.000,-0.022
22:25:12.533,SEARCHING,23.791,14.337,1.796,0.00,0.00,-153.22,4.663,6.484,5.596,4.002,3.357,0,0,SEARCHING,0.000,0.800,0.035,-0.026
22:25:12.733,SEARCHING,23.705,14.294,1.805,0.00,0.00,-153.42,4.587,7.078,5.888,4.023,3.254,0,0,SEARCHING,0.000,0.800,0.059,-0.033
22:25:12.933,SEARCHING,23.619,14.251,1.818,0.00,0.00,-153.67,4.653,7.836,6.228,3.963,3.143,0,0,SEARCHING,0.000,0.800,0.071,-0.040
22:25:13.133,SEARCHING,23.533,14.209,1.833,0.00,0.00,-153.96,4.633,8.537,6.241,3.922,3.031,0,0,SEARCHING,0.000,0.800,0.082,-0.043
22:25:13.334,SEARCHING,23.447,14.167,1.850,0.00,0.00,-154.26,4.637,8.429,6.462,3.884,2.923,0,0,SEARCHING,0.000,0.800,0.094,-0.046
22:25:13.535,SEARCHING,23.360,14.125,1.869,0.00,0.00,-154.59,4.645,8.511,6.481,3.835,2.899,0,0,SEARCHING,0.000,0.800,0.100,-0.049
22:25:13.735,SEARCHING,23.273,14.084,1.889,0.00,0.00,-154.93,4.653,8.432,6.518,3.778,2.889,0,0,SEARCHING,0.000,0.800,0.099,-0.049
22:25:13.937,SEARCHING,23.186,14.044,1.909,0.00,0.00,-155.26,4.668,8.138,6.535,3.717,2.903,0,0,SEARCHING,0.000,0.800,0.094,-0.049
22:25:14.136,SEARCHING,23.099,14.004,1.927,0.00,0.00,-155.60,4.713,8.033,6.585,3.635,2.923,0,0,SEARCHING,0.000,0.800,0.086,-0.049
22:25:14.337,SEARCHING,23.011,13.965,1.944,0.00,0.00,-155.93,4.885,7.907,6.543,3.603,2.925,0,0,SEARCHING,0.000,0.800,0.081,-0.045
22:25:14.537,SEARCHING,22.924,13.926,1.960,0.00,0.00,-156.22,5.185,7.971,6.410,3.587,2.986,0,0,SEARCHING,0.000,0.800,0.074,-0.038
22:25:14.737,SEARCHING,22.836,13.887,1.974,0.00,0.00,-156.44,5.531,7.821,6.305,3.507,2.991,0,0,SEARCHING,0.000,0.800,0.066,-0.026
22:25:14.939,SEARCHING,22.748,13.849,1.986,0.00,0.00,-156.59,5.761,7.882,6.299,3.454,3.042,0,0,SEARCHING,0.000,0.800,0.040,-0.017
22:25:15.139,SEARCHING,22.659,13.811,1.992,0.00,0.00,-156.69,6.009,7.876,6.628,3.435,3.040,0,0,SEARCHING,0.000,0.800,0.010,-0.013
22:25:15.338,SEARCHING,22.512,13.748,1.992,0.00,0.00,-156.83,6.118,7.918,6.735,3.429,3.075,0,0,SEARCHING,0.000,0.800,0.002,-0.012
22:25:15.539,SEARCHING,22.365,13.685,1.992,0.00,0.00,-156.97,6.116,7.994,6.479,3.441,3.066,0,0,SEARCHING,0.000,0.800,0.001,-0.011
