timestamp,state,x,y,z,roll_deg,pitch_deg,yaw_deg,dist_left,dist_center,dist_right,dist_top,dist_bottom,dtof_alert,collision_event,best_dir,max_space,cmd_vx,cmd_vz,cmd_yaw
19:26:04.204,SEARCHING,0.000,0.000,0.000,0.00,0.00,0.00,10.000,10.000,10.000,10.000,10.000,0,0,SEARCHING,10.000,0.000,0.000,0.000
19:26:05.259,SEARCHING,0.064,0.000,1.000,0.00,0.00,0.00,10.000,10.000,10.000,10.000,10.000,0,0,SEARCHING,10.000,0.000,0.000,0.000
19:26:05.462,SEARCHING,0.224,0.000,1.000,0.00,0.00,0.00,10.000,10.000,10.000,10.000,10.000,0,0,SEARCHING,10.000,0.000,0.000,0.000
19:26:05.663,SEARCHING,0.384,0.000,1.000,0.00,0.00,0.00,1.670,0.758,0.758,0.755,0.765,0,0,SEARCHING,0.755,0.000,0.000,0.000
19:26:05.896,INSPECTING,0.434,0.001,1.000,0.00,0.00,7.56,1.515,1.105,0.663,1.105,1.054,0,0,LEFT,1.515,0.120,0.000,0.000
19:26:06.100,INSPECTING,0.463,0.008,1.000,0.00,0.00,16.39,1.278,1.760,0.717,1.760,1.760,0,0,BOTTOM,1.760,0.120,0.000,0.000
19:26:06.305,INSPECTING,0.492,0.016,1.000,0.00,0.00,16.39,1.264,1.733,0.726,1.733,1.733,0,0,BOTTOM,1.733,0.120,0.000,0.000
19:26:06.503,INSPECTING,0.521,0.025,1.000,0.00,0.00,16.39,1.244,1.720,0.729,1.720,1.708,0,0,TOP,1.720,0.120,0.000,0.000
19:26:06.666,SEARCHING,0.557,0.035,1.000,0.00,0.00,16.93,1.224,1.708,0.814,1.720,1.670,0,0,SEARCHING,0.814,0.000,0.000,0.000
19:26:06.866,SEARCHING,0.659,0.069,1.000,0.00,0.00,18.07,1.133,1.557,2.061,1.557,1.546,0,0,SEARCHING,1.133,0.000,0.000,0.000
19:26:07.067,SEARCHING,0.755,0.097,1.000,0.00,0.00,13.53,1.133,1.589,2.119,1.589,1.600,0,0,SEARCHING,1.133,0.000,0.000,0.000
19:26:07.268,SEARCHING,0.856,0.117,1.000,0.00,0.00,8.87,1.138,1.670,2.222,1.670,1.682,0,0,SEARCHING,1.138,0.000,0.000,0.000
19:26:07.469,SEARCHING,0.963,0.130,1.000,0.00,0.00,4.02,1.173,1.747,0.547,1.747,1.733,0,0,SEARCHING,0.547,0.000,0.000,0.000
19:26:07.669,SEARCHING,1.073,0.143,1.000,0.00,0.00,7.09,1.069,1.578,2.080,1.600,1.611,0,0,SEARCHING,1.069,0.000,0.000,0.000
19:26:07.871,SEARCHING,1.174,0.151,1.000,0.00,0.00,1.90,1.105,1.515,2.222,1.525,1.525,0,0,SEARCHING,1.105,0.000,0.000,0.000
19:26:08.071,SEARCHING,1.271,0.150,1.000,0.00,0.00,-3.35,1.179,1.546,2.600,1.525,1.536,0,0,SEARCHING,1.179,0.000,0.000,0.000
19:26:08.271,SEARCHING,1.371,0.140,1.000,0.00,0.00,-8.64,1.244,1.658,3.051,1.658,1.646,0,0,SEARCHING,1.244,0.000,0.000,0.000
19:26:08.472,SEARCHING,1.476,0.119,1.000,0.00,0.00,-15.14,1.186,1.876,5.720,1.876,1.876,0,0,SEARCHING,1.186,0.000,0.000,0.000
19:26:08.673,SEARCHING,1.592,0.080,1.000,0.00,0.00,-22.63,1.300,2.288,4.576,2.311,2.266,0,0,SEARCHING,1.300,0.000,0.000,0.000
19:26:08.873,SEARCHING,1.727,0.015,1.000,0.00,0.00,-28.80,1.486,6.730,4.014,6.022,2.460,0,0,SEARCHING,1.486,0.000,0.000,0.000
19:26:09.074,SEARCHING,1.864,-0.067,1.000,0.00,0.00,-33.50,1.708,5.867,3.691,5.720,2.460,0,0,SEARCHING,1.708,0.000,0.000,0.000
19:26:09.274,SEARCHING,1.995,-0.159,1.000,0.00,0.00,-36.95,1.939,4.974,3.415,4.974,2.434,0,0,SEARCHING,1.939,0.000,0.000,0.000
19:26:09.474,SEARCHING,2.121,-0.258,1.000,0.00,0.00,-39.54,6.934,4.670,3.178,4.670,2.434,0,0,SEARCHING,2.434,0.000,0.000,0.000
19:26:09.675,SEARCHING,2.245,-0.359,1.000,0.00,0.00,-37.99,6.934,4.487,3.178,4.487,2.460,0,0,SEARCHING,2.460,0.000,0.000,0.000
19:26:09.876,SEARCHING,2.373,-0.455,1.000,0.00,0.00,-36.03,6.356,4.670,3.269,4.670,2.434,0,0,SEARCHING,2.434,0.000,0.000,0.000
19:26:10.077,SEARCHING,2.503,-0.548,1.000,0.00,0.00,-34.34,5.200,4.868,3.092,4.868,2.460,0,0,SEARCHING,2.460,0.000,0.000,0.000
19:26:10.277,SEARCHING,2.636,-0.636,1.000,0.00,0.00,-32.81,4.767,5.200,3.092,5.085,2.460,0,0,SEARCHING,2.460,0.000,0.000,0.000
19:26:10.478,SEARCHING,2.772,-0.722,1.000,0.00,0.00,-32.40,4.868,5.321,3.011,5.321,2.460,0,0,SEARCHING,2.460,0.000,0.000,0.000
19:26:10.679,SEARCHING,2.907,-0.807,1.000,0.00,0.00,-31.19,4.576,5.321,2.972,5.321,2.434,0,0,SEARCHING,2.434,0.000,0.000,0.000
19:26:10.879,SEARCHING,3.045,-0.888,1.000,0.00,0.00,-29.89,4.317,5.321,2.972,5.321,2.460,0,0,SEARCHING,2.460,0.000,0.000,0.000
19:26:11.080,SEARCHING,3.184,-0.966,1.000,0.00,0.00,-28.73,4.160,5.321,3.051,5.321,2.460,0,0,SEARCHING,2.460,0.000,0.000,0.000
19:26:11.280,SEARCHING,3.325,-1.042,1.000,0.00,0.00,-27.72,3.945,5.321,3.011,5.321,2.434,0,0,SEARCHING,2.434,0.000,0.000,0.000
19:26:11.481,SEARCHING,3.468,-1.116,1.000,0.00,0.00,-26.81,3.878,5.321,2.972,5.321,2.434,0,0,SEARCHING,2.434,0.000,0.000,0.000
19:26:11.681,SEARCHING,3.611,-1.187,1.000,0.00,0.00,-25.93,3.751,5.321,2.972,5.321,2.434,0,0,SEARCHING,2.434,0.000,0.000,0.000
19:26:11.881,SEARCHING,3.755,-1.256,1.000,0.00,0.00,-25.14,3.691,5.321,3.011,5.321,2.460,0,0,SEARCHING,2.460,0.000,0.000,0.000
19:26:12.082,SEARCHING,3.900,-1.323,1.000,0.00,0.00,-24.41,3.632,5.321,3.011,5.448,2.460,0,0,SEARCHING,2.460,0.000,0.000,0.000
19:26:12.282,SEARCHING,4.046,-1.388,1.000,0.00,0.00,-24.01,3.520,5.321,3.223,5.321,2.460,0,0,SEARCHING,2.460,0.000,0.000,0.000
19:26:12.483,SEARCHING,4.193,-1.453,1.000,0.00,0.00,-24.01,3.575,5.200,3.269,5.085,2.460,0,0,SEARCHING,2.460,0.000,0.000,0.000
19:26:12.684,SEARCHING,4.339,-1.519,1.000,0.00,0.00,-24.01,3.575,5.085,3.269,5.085,2.460,0,0,SEARCHING,2.460,0.000,0.000,0.000
19:26:12.884,SEARCHING,4.485,-1.584,1.000,0.00,0.00,-24.01,3.575,4.576,3.178,4.576,2.460,0,0,SEARCHING,2.460,0.000,0.000,0.000
19:26:13.084,SEARCHING,4.631,-1.649,1.000,0.00,0.00,-24.01,3.520,4.767,3.178,4.767,2.434,0,0,SEARCHING,2.434,0.000,0.000,0.000
19:26:13.285,SEARCHING,4.777,-1.714,1.000,0.00,0.00,-24.01,3.467,4.670,3.134,4.670,2.460,0,0,SEARCHING,2.460,0.000,0.000,0.000
19:26:13.486,SEARCHING,4.923,-1.779,1.000,0.00,0.00,-24.01,5.720,4.487,3.051,4.487,2.460,0,0,SEARCHING,2.460,0.000,0.000,0.000
19:26:13.686,SEARCHING,5.070,-1.843,1.000,0.00,0.00,-22.44,5.581,4.317,3.011,4.317,2.460,0,0,SEARCHING,2.460,0.000,0.000,0.000
19:26:13.886,SEARCHING,5.219,-1.902,1.000,0.00,0.00,-20.66,3.011,4.160,3.051,4.160,2.434,0,0,SEARCHING,2.434,0.000,0.000,0.000
19:26:14.087,SEARCHING,5.369,-1.958,1.000,0.00,0.00,-20.48,5.448,4.014,2.934,4.014,2.460,0,0,SEARCHING,2.460,0.000,0.000,0.000
19:26:14.288,SEARCHING,5.519,-2.012,1.000,0.00,0.00,-18.88,5.321,3.878,2.972,3.878,2.434,0,0,SEARCHING,2.434,0.000,0.000,0.000
19:26:14.488,SEARCHING,5.671,-2.062,1.000,0.00,0.00,-17.85,2.825,3.575,2.972,3.632,2.460,0,0,SEARCHING,2.460,0.000,0.000,0.000
19:26:14.688,SEARCHING,5.824,-2.111,1.000,0.00,0.00,-17.19,5.200,3.520,2.934,3.520,2.434,0,0,SEARCHING,2.434,0.000,0.000,0.000
19:26:14.889,SEARCHING,5.977,-2.156,1.000,0.00,0.00,-15.49,5.200,3.415,2.972,3.415,2.434,0,0,SEARCHING,2.434,0.000,0.000,0.000
19:26:15.089,SEARCHING,6.132,-2.197,1.000,0.00,0.00,-13.86,4.400,3.365,3.011,3.365,2.434,0,0,SEARCHING,2.434,0.000,0.000,0.000
19:26:15.291,SEARCHING,6.288,-2.233,1.000,0.00,0.00,-13.44,2.692,3.316,2.972,3.316,2.460,0,0,SEARCHING,2.460,0.000,0.000,0.000
19:26:15.491,SEARCHING,6.443,-2.271,1.000,0.00,0.00,-12.83,4.974,3.223,2.860,3.134,2.487,0,0,SEARCHING,2.487,0.000,0.000,0.000
19:26:15.691,SEARCHING,6.600,-2.304,1.000,0.00,0.00,-10.96,2.724,3.223,2.600,3.269,2.460,0,0,SEARCHING,2.460,0.000,0.000,0.000
19:26:15.891,SEARCHING,6.757,-2.334,1.000,0.00,0.00,-10.05,4.974,3.223,2.487,3.223,2.487,0,0,SEARCHING,2.487,0.000,0.000,0.000
19:26:16.092,SEARCHING,6.915,-2.359,1.000,0.00,0.00,-8.71,2.514,3.316,2.311,3.365,2.487,0,0,SEARCHING,2.311,0.000,0.000,0.000
19:26:16.293,SEARCHING,7.073,-2.383,1.000,0.00,0.00,-8.33,3.878,3.178,2.138,3.223,2.487,0,0,SEARCHING,2.138,0.000,0.000,0.000
19:26:16.493,SEARCHING,7.232,-2.404,1.000,0.00,0.00,-6.47,2.661,3.269,1.973,3.316,2.460,0,0,SEARCHING,1.973,0.000,0.000,0.000
19:26:16.694,SEARCHING,7.391,-2.420,1.000,0.00,0.00,-5.00,2.571,3.316,1.956,3.316,2.434,0,0,SEARCHING,1.956,0.000,0.000,0.000
19:26:16.895,SEARCHING,7.550,-2.432,1.000,0.00,0.00,-3.58,2.514,3.223,1.956,3.269,2.460,0,0,SEARCHING,1.956,0.000,0.000,0.000
19:26:17.094,SEARCHING,7.710,-2.441,1.000,0.00,0.00,-2.30,2.434,3.051,1.956,3.134,2.487,0,0,SEARCHING,1.956,0.000,0.000,0.000
19:26:17.296,SEARCHING,7.870,-2.446,1.000,0.00,0.00,-1.12,2.288,3.011,1.939,2.972,2.460,0,0,SEARCHING,1.939,0.000,0.000,0.000
19:26:17.496,SEARCHING,8.030,-2.448,1.000,0.00,0.00,-0.21,2.222,2.934,1.956,2.825,2.460,0,0,SEARCHING,1.956,0.000,0.000,0.000
19:26:17.696,SEARCHING,8.190,-2.447,1.000,0.00,0.00,0.51,2.159,2.896,1.939,2.692,2.460,0,0,SEARCHING,1.939,0.000,0.000,0.000
19:26:17.897,SEARCHING,8.350,-2.445,1.000,0.00,0.00,0.88,2.007,2.790,1.907,2.514,2.460,0,0,SEARCHING,1.907,0.000,0.000,0.000
19:26:18.098,SEARCHING,8.510,-2.442,1.000,0.00,0.00,2.18,4.014,2.692,1.876,2.384,2.487,0,0,SEARCHING,1.876,0.000,0.000,0.000
19:26:18.299,SEARCHING,8.670,-2.432,1.000,0.00,0.00,4.13,1.939,2.790,2.007,2.243,2.460,0,0,SEARCHING,1.939,0.000,0.000,0.000
19:26:18.499,SEARCHING,8.829,-2.420,1.000,0.00,0.00,5.33,4.014,2.757,1.907,2.080,2.460,0,0,SEARCHING,1.907,0.000,0.000,0.000
19:26:18.700,SEARCHING,8.988,-2.402,1.000,0.00,0.00,8.69,1.708,2.825,1.760,1.939,2.434,0,0,SEARCHING,1.708,0.000,0.000,0.000
19:26:18.901,SEARCHING,9.146,-2.376,1.000,0.00,0.00,9.06,4.160,2.860,1.747,1.760,2.460,0,0,SEARCHING,1.747,0.000,0.000,0.000
19:26:19.101,SEARCHING,9.303,-2.348,1.000,0.00,0.00,12.47,1.546,2.934,1.747,1.623,2.460,0,0,SEARCHING,1.546,0.000,0.000,0.000
19:26:19.302,SEARCHING,9.460,-2.313,1.000,0.00,0.00,11.82,4.086,2.790,1.733,1.525,2.460,0,0,SEARCHING,1.525,0.000,0.000,0.000
19:26:19.502,SEARCHING,9.615,-2.277,1.000,0.00,0.00,15.13,3.945,2.661,1.720,1.486,2.487,0,0,SEARCHING,1.486,0.000,0.000,0.000
19:26:19.702,SEARCHING,9.769,-2.231,1.000,0.00,0.00,18.87,4.086,2.630,1.845,2.661,2.460,0,0,SEARCHING,1.845,0.000,0.000,0.000
19:26:19.904,SEARCHING,9.919,-2.175,1.000,0.00,0.00,22.26,2.099,2.724,1.990,2.724,2.460,0,0,SEARCHING,1.990,0.000,0.000,0.000
19:26:21.459,SEARCHING,10.066,-2.113,1.000,0.00,0.00,22.59,2.025,2.724,2.025,2.724,2.460,0,0,SEARCHING,2.025,0.000,0.000,0.000
19:26:21.467,SEARCHING,10.214,-2.052,1.000,0.00,0.00,22.59,4.160,2.692,1.990,2.630,2.460,0,0,SEARCHING,1.990,0.000,0.000,0.000
19:26:21.542,SEARCHING,10.361,-1.988,1.000,0.00,0.00,24.99,4.014,2.571,1.747,2.600,2.434,0,0,SEARCHING,1.747,0.000,0.000,0.000
19:26:21.724,SEARCHING,10.504,-1.917,1.000,0.00,0.00,28.75,4.400,2.757,1.708,2.790,2.460,0,0,SEARCHING,1.708,0.000,0.000,0.000
19:26:21.921,SEARCHING,10.642,-1.835,1.000,0.00,0.00,32.78,1.467,2.896,1.774,2.860,2.460,0,0,SEARCHING,1.467,0.000,0.000,0.000
19:26:22.121,SEARCHING,10.776,-1.749,1.000,0.00,0.00,31.84,5.200,2.757,1.733,2.790,2.460,0,0,SEARCHING,1.733,0.000,0.000,0.000
19:26:22.322,SEARCHING,10.910,-1.661,1.000,0.00,0.00,35.54,4.576,2.630,1.720,2.661,2.460,0,0,SEARCHING,1.720,0.000,0.000,0.000
19:26:22.523,SEARCHING,11.037,-1.564,1.000,0.00,0.00,39.38,3.575,2.825,1.860,2.825,2.460,0,0,SEARCHING,1.860,0.000,0.000,0.000
19:26:22.723,SEARCHING,11.158,-1.460,1.000,0.00,0.00,42.23,3.223,3.011,2.025,2.972,2.487,0,0,SEARCHING,2.025,0.000,0.000,0.000
19:26:22.924,SEARCHING,11.275,-1.350,1.000,0.00,0.00,43.54,2.080,3.051,1.990,3.051,2.460,0,0,SEARCHING,1.990,0.000,0.000,0.000
19:26:23.125,SEARCHING,11.391,-1.240,1.000,0.00,0.00,44.35,2.896,2.934,1.845,2.972,2.460,0,0,SEARCHING,1.845,0.000,0.000,0.000
19:26:23.325,SEARCHING,11.503,-1.126,1.000,0.00,0.00,46.59,2.757,3.051,1.802,2.434,2.460,0,0,SEARCHING,1.802,0.000,0.000,0.000
19:26:23.525,SEARCHING,11.611,-1.008,1.000,0.00,0.00,48.69,2.542,3.178,1.816,2.600,2.460,0,0,SEARCHING,1.816,0.000,0.000,0.000
19:26:23.726,SEARCHING,11.715,-0.886,1.000,0.00,0.00,50.46,2.434,5.867,1.845,2.600,2.460,0,0,SEARCHING,1.845,0.000,0.000,0.000
19:26:23.927,SEARCHING,11.816,-0.762,1.000,0.00,0.00,51.90,2.359,6.934,1.845,5.448,2.434,0,0,SEARCHING,1.845,0.000,0.000,0.000
19:26:24.127,SEARCHING,11.913,-0.635,1.000,0.00,0.00,53.13,2.200,6.022,1.860,4.237,2.434,0,0,SEARCHING,1.860,0.000,0.000,0.000
19:26:24.328,SEARCHING,12.008,-0.506,1.000,0.00,0.00,53.99,2.099,5.085,1.876,4.086,2.460,0,0,SEARCHING,1.876,0.000,0.000,0.000
19:26:24.528,SEARCHING,12.102,-0.376,1.000,0.00,0.00,54.39,1.973,4.487,1.860,3.751,2.460,0,0,SEARCHING,1.860,0.000,0.000,0.000
19:26:24.729,SEARCHING,12.195,-0.246,1.000,0.00,0.00,54.39,1.891,5.085,1.845,3.575,2.460,0,0,SEARCHING,1.845,0.000,0.000,0.000
19:26:24.929,SEARCHING,12.288,-0.116,1.000,0.00,0.00,54.39,1.876,6.356,1.831,3.878,2.434,0,0,SEARCHING,1.831,0.000,0.000,0.000
19:26:25.129,SEARCHING,12.381,0.014,1.000,0.00,0.00,54.39,1.845,6.184,1.774,3.751,2.460,0,0,SEARCHING,1.774,0.000,0.000,0.000
19:26:25.331,SEARCHING,12.474,0.144,1.000,0.00,0.00,54.39,1.816,6.022,1.708,4.317,2.487,0,0,SEARCHING,1.708,0.000,0.000,0.000
19:26:25.531,SEARCHING,12.567,0.274,1.000,0.00,0.00,54.39,1.802,5.867,2.692,4.014,2.460,0,0,SEARCHING,1.802,0.000,0.000,0.000
19:26:25.732,SEARCHING,12.662,0.403,1.000,0.00,0.00,52.61,1.845,5.581,2.487,3.945,2.409,0,0,SEARCHING,1.845,0.000,0.000,0.000
19:26:25.932,SEARCHING,12.761,0.529,1.000,0.00,0.00,51.09,1.891,5.581,2.288,3.691,2.409,0,0,SEARCHING,1.891,0.000,0.000,0.000
19:26:26.133,SEARCHING,12.863,0.652,1.000,0.00,0.00,50.09,1.907,5.200,2.243,3.575,2.384,0,0,SEARCHING,1.907,0.000,0.000,0.000
19:26:26.333,SEARCHING,12.966,0.775,1.000,0.00,0.00,49.55,1.956,5.085,2.099,3.316,2.384,0,0,SEARCHING,1.956,0.000,0.000,0.000
19:26:26.533,SEARCHING,13.070,0.896,1.000,0.00,0.00,49.55,1.907,4.974,1.990,3.223,2.460,0,0,SEARCHING,1.907,0.000,0.000,0.000
19:26:26.734,SEARCHING,13.174,1.018,1.000,0.00,0.00,49.55,1.891,4.868,3.945,3.011,2.409,0,0,SEARCHING,1.891,0.000,0.000,0.000
19:26:26.936,SEARCHING,13.280,1.138,1.000,0.00,0.00,46.69,4.160,4.868,3.415,2.860,2.434,0,0,SEARCHING,2.434,0.000,0.000,0.000
19:26:27.136,SEARCHING,13.390,1.254,1.000,0.00,0.00,46.67,4.237,4.974,3.632,2.790,2.460,0,0,SEARCHING,2.460,0.000,0.000,0.000
19:26:27.336,SEARCHING,13.500,1.370,1.000,0.00,0.00,46.67,4.160,4.974,3.520,2.692,2.434,0,0,SEARCHING,2.434,0.000,0.000,0.000
19:26:27.536,SEARCHING,13.609,1.487,1.000,0.00,0.00,46.67,4.160,4.868,3.520,2.630,2.409,0,0,SEARCHING,2.409,0.000,0.000,0.000
19:26:27.736,SEARCHING,13.719,1.603,1.000,0.00,0.00,46.67,4.014,4.767,3.415,2.600,2.384,0,0,SEARCHING,2.384,0.000,0.000,0.000
19:26:27.936,SEARCHING,13.829,1.720,1.000,0.00,0.00,46.92,3.751,4.670,3.269,2.600,2.409,0,0,SEARCHING,2.409,0.000,0.000,0.000
19:26:28.135,SEARCHING,13.938,1.837,1.000,0.00,0.00,46.98,3.575,4.576,3.178,2.630,2.460,0,0,SEARCHING,2.460,0.000,0.000,0.000
19:26:28.335,SEARCHING,14.047,1.954,1.000,0.00,0.00,46.98,3.467,4.487,3.178,2.630,2.460,0,0,SEARCHING,2.460,0.000,0.000,0.000
19:26:28.535,SEARCHING,14.156,2.070,1.000,0.00,0.00,46.98,3.365,4.400,3.415,2.600,2.434,0,0,SEARCHING,2.434,0.000,0.000,0.000
19:26:28.737,SEARCHING,14.265,2.187,1.000,0.00,0.00,46.98,3.223,4.317,3.575,2.630,2.409,0,0,SEARCHING,2.409,0.000,0.000,0.000
19:26:28.937,SEARCHING,14.375,2.304,1.000,0.00,0.00,46.98,3.051,4.237,3.691,2.571,2.460,0,0,SEARCHING,2.460,0.000,0.000,0.000
19:26:29.138,SEARCHING,14.484,2.421,1.000,0.00,0.00,46.31,2.860,4.237,3.691,2.600,2.460,0,0,SEARCHING,2.460,0.000,0.000,0.000
19:26:29.339,SEARCHING,14.596,2.536,1.000,0.00,0.00,45.37,2.724,4.160,3.632,2.630,2.434,0,0,SEARCHING,2.434,0.000,0.000,0.000
19:26:29.539,SEARCHING,14.709,2.649,1.000,0.00,0.00,44.33,2.514,4.237,3.520,2.630,2.487,0,0,SEARCHING,2.487,0.000,0.000,0.000
19:26:29.739,SEARCHING,14.825,2.759,1.000,0.00,0.00,43.03,2.384,4.160,3.365,2.630,2.460,0,0,SEARCHING,2.384,0.000,0.000,0.000
19:26:29.938,SEARCHING,14.943,2.867,1.000,0.00,0.00,41.65,2.335,3.945,3.134,4.086,2.460,0,0,SEARCHING,2.335,0.000,0.000,0.000
19:26:30.140,SEARCHING,15.063,2.972,1.000,0.00,0.00,40.43,2.409,3.814,2.972,3.945,2.460,0,0,SEARCHING,2.409,0.000,0.000,0.000
19:26:30.341,SEARCHING,15.186,3.075,1.000,0.00,0.00,39.54,2.460,3.520,2.896,3.575,2.460,0,0,SEARCHING,2.460,0.000,0.000,0.000
19:26:30.541,SEARCHING,15.310,3.176,1.000,0.00,0.00,38.81,2.487,3.316,2.860,3.415,2.409,0,0,SEARCHING,2.409,0.000,0.000,0.000
19:26:30.741,SEARCHING,15.435,3.276,1.000,0.00,0.00,38.20,2.460,3.269,2.825,3.316,2.434,0,0,SEARCHING,2.434,0.000,0.000,0.000
19:26:30.942,SEARCHING,15.561,3.375,1.000,0.00,0.00,37.84,2.514,3.269,2.757,3.269,2.487,0,0,SEARCHING,2.487,0.000,0.000,0.000
19:26:31.142,SEARCHING,15.687,3.473,1.000,0.00,0.00,37.84,2.487,3.134,2.692,3.178,2.460,0,0,SEARCHING,2.460,0.000,0.000,0.000
19:26:31.342,SEARCHING,15.814,3.571,1.000,0.00,0.00,37.84,2.460,2.860,2.630,2.896,2.460,0,0,SEARCHING,2.460,0.000,0.000,0.000
19:26:31.543,SEARCHING,15.940,3.669,1.000,0.00,0.00,37.84,2.434,2.724,2.487,2.757,2.460,0,0,SEARCHING,2.434,0.000,0.000,0.000
19:26:31.744,SEARCHING,16.067,3.767,1.000,0.00,0.00,37.84,2.434,2.692,2.460,2.661,2.434,0,0,SEARCHING,2.434,0.000,0.000,0.000
19:26:31.944,SEARCHING,16.193,3.865,1.000,0.00,0.00,37.84,2.311,2.571,2.384,2.571,2.434,0,0,SEARCHING,2.311,0.000,0.000,0.000
19:26:32.145,SEARCHING,16.318,3.963,1.000,0.00,0.00,37.84,2.384,2.384,2.359,2.384,2.359,0,0,SEARCHING,2.359,0.000,0.000,0.000
19:26:32.345,SEARCHING,16.439,4.056,1.000,0.00,0.00,37.84,2.359,2.243,2.311,2.243,2.266,0,0,SEARCHING,2.243,0.000,0.000,0.000
19:26:32.545,SEARCHING,16.551,4.144,1.000,0.00,0.00,37.84,2.222,2.119,2.288,2.119,2.119,0,0,SEARCHING,2.119,0.000,0.000,0.000
19:26:32.746,SEARCHING,16.657,4.226,1.000,0.00,0.00,37.84,2.043,1.973,2.222,1.973,1.973,0,0,SEARCHING,1.973,0.000,0.000,0.000
19:26:32.946,SEARCHING,16.755,4.302,1.000,0.00,0.00,37.56,1.891,1.816,2.200,1.831,1.831,0,0,SEARCHING,1.816,0.000,0.000,0.000
19:26:33.182,INSPECTING,16.823,4.353,1.000,0.00,0.00,35.71,1.733,1.733,2.119,1.733,1.733,0,0,RIGHT,2.119,0.120,0.000,0.000
19:26:33.387,INSPECTING,16.849,4.368,1.000,0.00,0.00,23.11,1.600,2.571,1.695,2.571,2.434,0,0,TOP,2.571,0.120,0.000,0.000
19:26:33.584,INSPECTING,16.877,4.379,1.000,0.00,0.00,19.33,1.515,2.266,1.600,2.243,2.266,0,0,TOP,2.243,0.120,0.000,0.000
19:26:33.796,INSPECTING,16.905,4.389,1.000,0.00,0.00,19.33,1.496,2.222,1.567,2.222,2.222,0,0,TOP,2.222,0.120,0.000,0.000
19:26:33.988,INSPECTING,16.934,4.399,1.000,0.00,0.00,19.33,1.457,2.179,1.536,2.179,2.179,0,0,BOTTOM,2.179,0.120,0.000,0.000
19:26:34.151,SEARCHING,17.013,4.427,1.000,0.00,0.00,19.33,1.439,2.138,1.496,2.159,2.159,0,0,SEARCHING,1.439,0.000,0.000,0.000
19:26:34.352,SEARCHING,17.141,4.471,1.000,0.00,0.00,19.33,1.378,2.061,1.421,2.007,2.061,0,0,SEARCHING,1.378,0.000,0.000,0.000
19:26:34.552,SEARCHING,17.264,4.514,1.000,0.00,0.00,19.33,1.346,1.956,1.362,1.956,1.973,0,0,SEARCHING,1.346,0.000,0.000,0.000
19:26:34.753,SEARCHING,17.382,4.556,1.000,0.00,0.00,19.33,1.271,1.891,1.285,1.891,1.891,0,0,SEARCHING,1.271,0.000,0.000,0.000
19:26:34.954,SEARCHING,17.495,4.595,1.000,0.00,0.00,19.33,1.198,1.774,1.224,1.802,1.802,0,0,SEARCHING,1.198,0.000,0.000,0.000
19:26:35.155,SEARCHING,17.601,4.633,1.000,0.00,0.00,22.37,1.100,1.747,1.192,1.747,1.747,0,0,SEARCHING,1.100,0.000,0.000,0.000
19:26:35.354,SEARCHING,17.705,4.677,1.000,0.00,0.00,22.29,6.022,1.720,1.162,1.720,1.695,0,0,SEARCHING,1.162,0.000,0.000,0.000
19:26:35.555,SEARCHING,17.807,4.725,1.000,0.00,0.00,29.43,0.946,1.860,1.192,1.860,1.876,0,0,SEARCHING,0.946,0.000,0.000,0.000
19:26:35.755,SEARCHING,17.914,4.785,1.000,0.00,0.00,27.61,0.844,1.831,1.162,1.831,1.816,0,0,SEARCHING,0.844,0.000,0.000,0.000
19:26:35.956,SEARCHING,18.018,4.837,1.000,0.00,0.00,28.86,7.381,1.708,1.105,1.708,1.708,0,0,SEARCHING,1.105,0.000,0.000,0.000
19:26:36.156,SEARCHING,18.113,4.899,1.000,0.00,0.00,37.57,0.677,4.487,1.224,4.487,2.384,0,0,SEARCHING,0.677,0.000,0.000,0.000
19:26:36.356,SEARCHING,18.239,4.991,1.000,0.00,0.00,37.74,7.627,4.670,1.204,4.670,2.460,0,0,SEARCHING,1.204,0.000,0.000,0.000
19:26:36.556,SEARCHING,18.359,5.097,1.000,0.00,0.00,45.34,7.627,6.184,1.387,6.022,2.434,0,0,SEARCHING,1.387,0.000,0.000,0.000
19:26:36.758,SEARCHING,18.466,5.216,1.000,0.00,0.00,50.19,6.730,7.627,3.691,6.022,2.460,0,0,SEARCHING,2.460,0.000,0.000,0.000
19:26:36.958,SEARCHING,18.567,5.340,1.000,0.00,0.00,51.70,7.627,7.890,3.814,6.022,2.434,0,0,SEARCHING,2.434,0.000,0.000,0.000
19:26:37.158,SEARCHING,18.664,5.467,1.000,0.00,0.00,53.15,6.934,7.627,3.878,6.022,2.460,0,0,SEARCHING,2.460,0.000,0.000,0.000
19:26:37.359,SEARCHING,18.759,5.596,1.000,0.00,0.00,54.47,6.730,7.627,4.160,6.022,2.487,0,0,SEARCHING,2.487,0.000,0.000,0.000
19:26:37.559,SEARCHING,18.851,5.727,1.000,0.00,0.00,55.50,6.538,7.627,4.400,5.867,2.460,0,0,SEARCHING,2.460,0.000,0.000,0.000
19:26:37.760,SEARCHING,18.940,5.859,1.000,0.00,0.00,56.27,6.184,7.381,4.767,6.022,2.434,0,0,SEARCHING,2.434,0.000,0.000,0.000
19:26:37.961,SEARCHING,19.029,5.992,1.000,0.00,0.00,56.34,6.356,7.890,4.767,5.867,2.434,0,0,SEARCHING,2.434,0.000,0.000,0.000
19:26:38.161,SEARCHING,19.117,6.126,1.000,0.00,0.00,56.64,6.356,7.381,4.767,6.184,2.434,0,0,SEARCHING,2.434,0.000,0.000,0.000
19:26:38.362,SEARCHING,19.205,6.260,1.000,0.00,0.00,56.94,6.184,7.890,4.974,6.022,2.335,0,0,SEARCHING,2.335,0.000,0.000,0.000
19:26:38.563,SEARCHING,19.292,6.394,1.000,0.00,0.00,56.94,6.022,7.381,4.974,5.867,2.460,0,0,SEARCHING,2.460,0.000,0.000,0.000
19:26:38.763,SEARCHING,19.380,6.528,1.000,0.00,0.00,56.94,5.867,7.890,4.974,6.022,2.434,0,0,SEARCHING,2.434,0.000,0.000,0.000
19:26:38.962,SEARCHING,19.467,6.662,1.000,0.00,0.00,56.94,6.022,8.172,4.974,5.867,2.434,0,0,SEARCHING,2.434,0.000,0.000,0.000
19:26:39.163,SEARCHING,19.554,6.796,1.000,0.00,0.00,56.94,6.356,8.172,4.974,6.022,2.460,0,0,SEARCHING,2.460,0.000,0.000,0.000
19:26:39.363,SEARCHING,19.641,6.930,1.000,0.00,0.00,56.94,6.022,8.172,4.868,6.022,2.460,0,0,SEARCHING,2.460,0.000,0.000,0.000
19:26:39.564,SEARCHING,19.729,7.064,1.000,0.00,0.00,57.18,6.022,8.475,4.868,6.022,2.409,0,0,SEARCHING,2.409,0.000,0.000,0.000
19:26:39.764,SEARCHING,19.815,7.199,1.000,0.00,0.00,57.24,6.356,8.172,4.767,6.022,2.359,0,0,SEARCHING,2.359,0.000,0.000,0.000
19:26:39.965,SEARCHING,19.901,7.334,1.000,0.00,0.00,57.78,6.184,8.172,4.767,6.184,2.409,0,0,SEARCHING,2.409,0.000,0.000,0.000
19:26:40.166,SEARCHING,19.987,7.469,1.000,0.00,0.00,57.84,6.184,8.172,4.767,6.022,2.434,0,0,SEARCHING,2.434,0.000,0.000,0.000
19:26:40.367,SEARCHING,20.072,7.605,1.000,0.00,0.00,57.84,6.022,8.172,4.767,6.022,2.409,0,0,SEARCHING,2.409,0.000,0.000,0.000
19:26:40.566,SEARCHING,20.157,7.740,1.000,0.00,0.00,57.84,6.184,8.172,4.767,6.022,2.409,0,0,SEARCHING,2.409,0.000,0.000,0.000
19:26:40.767,SEARCHING,20.242,7.876,1.000,0.00,0.00,58.08,6.184,8.172,4.767,6.184,2.434,0,0,SEARCHING,2.434,0.000,0.000,0.000
19:26:40.968,SEARCHING,20.326,8.011,1.000,0.00,0.00,58.14,6.184,8.172,4.767,6.022,2.434,0,0,SEARCHING,2.434,0.000,0.000,0.000
19:26:41.168,SEARCHING,20.411,8.147,1.000,0.00,0.00,58.14,6.184,8.172,4.767,6.022,2.460,0,0,SEARCHING,2.460,0.000,0.000,0.000
19:26:41.369,SEARCHING,20.495,8.283,1.000,0.00,0.00,58.38,6.184,8.172,4.670,6.022,2.434,0,0,SEARCHING,2.434,0.000,0.000,0.000
19:26:41.569,SEARCHING,20.579,8.420,1.000,0.00,0.00,58.74,6.022,7.890,4.670,5.867,2.409,0,0,SEARCHING,2.409,0.000,0.000,0.000
19:26:41.770,SEARCHING,20.662,8.557,1.000,0.00,0.00,59.00,5.867,8.475,4.670,5.867,2.434,0,0,SEARCHING,2.434,0.000,0.000,0.000
19:26:41.970,SEARCHING,20.744,8.694,1.000,0.00,0.00,59.07,6.022,8.475,4.576,5.867,2.460,0,0,SEARCHING,2.460,0.000,0.000,0.000
19:26:42.170,SEARCHING,20.826,8.831,1.000,0.00,0.00,59.37,5.720,8.475,4.670,5.720,2.434,0,0,SEARCHING,2.434,0.000,0.000,0.000
19:26:42.371,SEARCHING,20.907,8.969,1.000,0.00,0.00,59.37,5.581,8.801,4.670,5.581,2.460,0,0,SEARCHING,2.460,0.000,0.000,0.000
19:26:42.571,SEARCHING,20.989,9.107,1.000,0.00,0.00,59.37,5.867,8.475,4.576,5.321,2.460,0,0,SEARCHING,2.460,0.000,0.000,0.000
19:26:42.772,SEARCHING,21.070,9.244,1.000,0.00,0.00,59.37,5.581,8.801,4.576,5.321,2.434,0,0,SEARCHING,2.434,0.000,0.000,0.000
19:26:42.972,SEARCHING,21.152,9.382,1.000,0.00,0.00,59.37,5.581,8.475,4.576,5.085,2.460,0,0,SEARCHING,2.460,0.000,0.000,0.000
19:26:43.173,SEARCHING,21.233,9.520,1.000,0.00,0.00,59.37,5.581,8.475,4.576,4.974,2.460,0,0,SEARCHING,2.460,0.000,0.000,0.000
19:26:43.373,SEARCHING,21.315,9.657,1.000,0.00,0.00,59.37,5.581,8.475,4.576,4.767,2.434,0,0,SEARCHING,2.434,0.000,0.000,0.000
19:26:43.574,SEARCHING,21.396,9.795,1.000,0.00,0.00,59.37,5.448,8.475,4.576,4.670,2.434,0,0,SEARCHING,2.434,0.000,0.000,0.000
19:26:43.775,SEARCHING,21.478,9.933,1.000,0.00,0.00,59.37,5.448,8.475,4.487,4.576,2.434,0,0,SEARCHING,2.434,0.000,0.000,0.000
19:26:43.976,SEARCHING,21.559,10.071,1.000,0.00,0.00,59.37,5.321,8.172,4.487,4.400,2.460,0,0,SEARCHING,2.460,0.000,0.000,0.000
19:26:44.177,SEARCHING,21.641,10.208,1.000,0.00,0.00,59.37,5.321,8.475,4.487,4.237,2.460,0,0,SEARCHING,2.460,0.000,0.000,0.000
19:26:44.377,SEARCHING,21.722,10.346,1.000,0.00,0.00,59.37,5.085,7.890,4.576,4.014,2.434,0,0,SEARCHING,2.434,0.000,0.000,0.000
19:26:44.577,SEARCHING,21.804,10.484,1.000,0.00,0.00,59.37,5.200,8.172,5.085,3.878,2.434,0,0,SEARCHING,2.434,0.000,0.000,0.000
19:26:44.779,SEARCHING,21.885,10.621,1.000,0.00,0.00,59.37,5.085,8.172,5.720,3.691,2.487,0,0,SEARCHING,2.487,0.000,0.000,0.000
19:26:44.979,SEARCHING,21.967,10.759,1.000,0.00,0.00,59.37,5.085,7.890,5.867,3.520,2.487,0,0,SEARCHING,2.487,0.000,0.000,0.000
19:26:45.179,SEARCHING,22.049,10.897,1.000,0.00,0.00,59.37,4.974,7.890,6.022,3.365,2.460,0,0,SEARCHING,2.460,0.000,0.000,0.000
19:26:45.379,SEARCHING,22.130,11.034,1.000,0.00,0.00,59.37,5.085,7.627,6.022,3.269,2.434,0,0,SEARCHING,2.434,0.000,0.000,0.000
19:26:45.581,SEARCHING,22.212,11.172,1.000,0.00,0.00,59.37,4.974,7.890,6.184,3.092,2.460,0,0,SEARCHING,2.460,0.000,0.000,0.000
19:26:45.781,SEARCHING,22.293,11.310,1.000,0.00,0.00,59.37,4.974,7.890,6.730,2.934,2.434,0,0,SEARCHING,2.434,0.000,0.000,0.000
19:26:45.981,SEARCHING,22.375,11.447,1.000,0.00,0.00,58.83,4.868,7.627,6.934,2.757,2.434,0,0,SEARCHING,2.434,0.000,0.000,0.000
19:26:46.182,SEARCHING,22.459,11.583,1.000,0.00,0.00,58.17,4.974,7.627,6.730,2.661,2.311,0,0,SEARCHING,2.311,0.000,0.000,0.000
19:26:46.382,SEARCHING,22.544,11.719,1.000,0.00,0.00,57.81,4.974,7.627,6.730,2.460,2.434,0,0,SEARCHING,2.434,0.000,0.000,0.000
19:26:46.583,SEARCHING,22.629,11.854,1.000,0.00,0.00,57.25,4.974,7.381,6.934,2.311,2.460,0,0,SEARCHING,2.311,0.000,0.000,0.000
19:26:46.784,SEARCHING,22.717,11.988,1.000,0.00,0.00,56.86,5.085,7.627,6.730,2.138,2.487,0,0,SEARCHING,2.138,0.000,0.000,0.000
19:26:46.984,SEARCHING,22.804,12.122,1.000,0.00,0.00,56.62,4.974,7.381,6.730,2.007,2.409,0,0,SEARCHING,2.007,0.000,0.000,0.000
19:26:47.184,SEARCHING,22.893,12.255,1.000,0.00,0.00,56.00,5.085,7.381,6.730,1.876,2.434,0,0,SEARCHING,1.876,0.000,0.000,0.000
19:26:47.385,SEARCHING,22.982,12.388,1.000,0.00,0.00,55.94,5.085,7.381,6.730,1.845,2.460,0,0,SEARCHING,1.845,0.000,0.000,0.000
19:26:47.586,SEARCHING,23.072,12.520,1.000,0.00,0.00,55.70,4.868,7.381,6.730,1.733,2.434,0,0,SEARCHING,1.733,0.000,0.000,0.000
19:26:47.788,SEARCHING,23.163,12.652,1.000,0.00,0.00,55.31,4.868,7.151,6.538,6.022,2.434,0,0,SEARCHING,2.434,0.000,0.000,0.000
19:26:47.988,SEARCHING,23.254,12.783,1.000,0.00,0.00,54.77,4.767,6.934,6.538,6.022,2.434,0,0,SEARCHING,2.434,0.000,0.000,0.000
19:26:48.187,SEARCHING,23.347,12.914,1.000,0.00,0.00,54.14,4.767,7.151,6.356,6.022,2.434,0,0,SEARCHING,2.434,0.000,0.000,0.000
19:26:48.388,SEARCHING,23.442,13.043,1.000,0.00,0.00,53.78,4.767,6.934,6.184,6.022,2.460,0,0,SEARCHING,2.460,0.000,0.000,0.000
19:26:48.589,SEARCHING,23.536,13.172,1.000,0.00,0.00,53.78,4.767,6.934,6.184,6.022,2.487,0,0,SEARCHING,2.487,0.000,0.000,0.000
19:26:48.789,SEARCHING,23.631,13.301,1.000,0.00,0.00,53.78,4.670,6.934,6.022,6.022,2.434,0,0,SEARCHING,2.434,0.000,0.000,0.000
19:26:48.990,SEARCHING,23.725,13.430,1.000,0.00,0.00,53.78,4.576,6.730,5.867,6.022,2.434,0,0,SEARCHING,2.434,0.000,0.000,0.000
19:26:49.190,SEARCHING,23.820,13.559,1.000,0.00,0.00,53.78,4.576,6.730,5.720,6.022,2.460,0,0,SEARCHING,2.460,0.000,0.000,0.000
19:26:49.391,SEARCHING,23.914,13.688,1.000,0.00,0.00,53.78,4.400,6.538,5.581,6.184,2.434,0,0,SEARCHING,2.434,0.000,0.000,0.000
19:26:49.591,SEARCHING,24.009,13.817,1.000,0.00,0.00,53.78,4.400,6.538,5.448,6.022,2.409,0,0,SEARCHING,2.409,0.000,0.000,0.000
19:26:49.791,SEARCHING,24.103,13.946,1.000,0.00,0.00,53.78,4.400,6.356,5.200,6.022,2.460,0,0,SEARCHING,2.460,0.000,0.000,0.000
19:26:49.992,SEARCHING,24.198,14.076,1.000,0.00,0.00,53.78,4.400,6.184,5.200,6.022,2.434,0,0,SEARCHING,2.434,0.000,0.000,0.000
19:26:50.192,SEARCHING,24.292,14.205,1.000,0.00,0.00,53.78,4.160,6.022,5.085,6.022,2.487,0,0,SEARCHING,2.487,0.000,0.000,0.000
19:26:50.393,SEARCHING,24.387,14.334,1.000,0.00,0.00,53.78,4.160,5.867,4.974,5.867,2.460,0,0,SEARCHING,2.460,0.000,0.000,0.000
19:26:50.593,SEARCHING,24.481,14.463,1.000,0.00,0.00,53.78,4.086,5.867,4.868,5.720,2.434,0,0,SEARCHING,2.434,0.000,0.000,0.000
19:26:50.794,SEARCHING,24.576,14.592,1.000,0.00,0.00,53.78,3.945,5.581,4.767,5.581,2.409,0,0,SEARCHING,2.409,0.000,0.000,0.000
19:26:50.994,SEARCHING,24.671,14.721,1.000,0.00,0.00,53.78,3.945,5.448,4.576,5.448,2.434,0,0,SEARCHING,2.434,0.000,0.000,0.000
19:26:51.195,SEARCHING,24.765,14.850,1.000,0.00,0.00,53.78,3.814,5.321,4.487,5.321,2.409,0,0,SEARCHING,2.409,0.000,0.000,0.000
19:26:51.395,SEARCHING,24.860,14.979,1.000,0.00,0.00,53.78,3.751,5.200,4.400,5.200,2.434,0,0,SEARCHING,2.434,0.000,0.000,0.000
19:26:51.596,SEARCHING,24.954,15.108,1.000,0.00,0.00,53.78,3.632,4.974,4.317,5.085,2.434,0,0,SEARCHING,2.434,0.000,0.000,0.000
19:26:51.797,SEARCHING,25.049,15.237,1.000,0.00,0.00,53.78,3.575,4.868,4.237,4.868,2.409,0,0,SEARCHING,2.409,0.000,0.000,0.000
19:26:51.997,SEARCHING,25.143,15.366,1.000,0.00,0.00,53.78,3.467,4.767,4.086,4.767,2.460,0,0,SEARCHING,2.460,0.000,0.000,0.000
19:26:52.198,SEARCHING,25.238,15.495,1.000,0.00,0.00,53.78,3.415,4.576,3.945,4.576,2.434,0,0,SEARCHING,2.434,0.000,0.000,0.000
19:26:52.399,SEARCHING,25.332,15.625,1.000,0.00,0.00,53.78,3.365,4.487,3.814,4.576,2.460,0,0,SEARCHING,2.460,0.000,0.000,0.000
19:26:52.601,SEARCHING,25.427,15.754,1.000,0.00,0.00,53.78,3.269,4.317,3.691,4.400,2.434,0,0,SEARCHING,2.434,0.000,0.000,0.000
19:26:52.800,SEARCHING,25.521,15.883,1.000,0.00,0.00,53.78,3.178,4.237,3.575,4.237,2.409,0,0,SEARCHING,2.409,0.000,0.000,0.000
19:26:53.001,SEARCHING,25.616,16.012,1.000,0.00,0.00,53.78,3.092,4.014,3.467,4.086,2.434,0,0,SEARCHING,2.434,0.000,0.000,0.000
19:26:53.202,SEARCHING,25.710,16.141,1.000,0.00,0.00,53.78,2.972,3.945,3.365,3.878,2.460,0,0,SEARCHING,2.460,0.000,0.000,0.000
19:26:53.401,SEARCHING,25.805,16.270,1.000,0.00,0.00,53.78,2.934,3.751,3.223,3.691,2.460,0,0,SEARCHING,2.460,0.000,0.000,0.000
19:26:53.602,SEARCHING,25.900,16.399,1.000,0.00,0.00,53.78,2.896,3.632,3.092,3.632,2.460,0,0,SEARCHING,2.460,0.000,0.000,0.000
19:26:55.065,SEARCHING,25.994,16.528,1.000,0.00,0.00,53.78,2.790,3.575,3.011,3.520,2.434,0,0,SEARCHING,2.434,0.000,0.000,0.000
19:26:55.083,SEARCHING,26.089,16.657,1.000,0.00,0.00,53.78,2.790,3.575,3.011,3.520,2.434,0,0,SEARCHING,2.434,0.000,0.000,0.000
19:26:55.231,SEARCHING,26.183,16.786,1.000,0.00,0.00,53.78,2.630,3.223,2.757,3.223,2.434,0,0,SEARCHING,2.434,0.000,0.000,0.000
19:26:55.425,SEARCHING,26.278,16.915,1.000,0.00,0.00,53.78,2.514,3.011,2.630,3.051,2.434,0,0,SEARCHING,2.434,0.000,0.000,0.000
19:26:55.625,SEARCHING,26.372,17.044,1.000,0.00,0.00,53.78,2.460,2.896,2.487,2.934,2.434,0,0,SEARCHING,2.434,0.000,0.000,0.000
19:26:55.825,SEARCHING,26.467,17.174,1.000,0.00,0.00,53.78,2.384,2.790,2.359,2.790,2.434,0,0,SEARCHING,2.359,0.000,0.000,0.000
19:26:56.026,SEARCHING,26.561,17.303,1.000,0.00,0.00,53.78,2.288,2.630,2.266,2.630,2.460,0,0,SEARCHING,2.266,0.000,0.000,0.000
19:26:56.226,SEARCHING,26.656,17.432,1.000,0.00,0.00,53.78,2.179,2.460,2.119,2.487,2.434,0,0,SEARCHING,2.119,0.000,0.000,0.000
19:26:56.426,SEARCHING,26.748,17.558,1.000,0.00,0.00,53.78,2.080,2.335,2.007,2.335,2.335,0,0,SEARCHING,2.007,0.000,0.000,0.000
19:26:56.627,SEARCHING,26.836,17.678,1.000,0.00,0.00,53.78,1.990,2.222,1.891,2.222,2.200,0,0,SEARCHING,1.891,0.000,0.000,0.000
19:26:56.827,SEARCHING,26.919,17.791,1.000,0.00,0.00,53.78,1.939,2.080,1.788,2.080,2.080,0,0,SEARCHING,1.788,0.000,0.000,0.000
19:26:57.028,SEARCHING,26.997,17.898,1.000,0.00,0.00,53.78,1.845,1.973,1.670,1.973,1.973,0,0,SEARCHING,1.670,0.000,0.000,0.000
19:26:57.229,SEARCHING,27.071,17.999,1.000,0.00,0.00,54.39,1.774,1.845,1.578,1.845,1.860,0,0,SEARCHING,1.578,0.000,0.000,0.000
19:26:57.429,SEARCHING,27.138,18.095,1.000,0.00,0.00,55.20,1.708,1.760,1.486,1.760,1.760,0,0,SEARCHING,1.486,0.000,0.000,0.000
19:26:57.631,SEARCHING,27.201,18.187,1.000,0.00,0.00,56.19,1.623,1.670,1.412,1.670,1.670,0,0,SEARCHING,1.412,0.000,0.000,0.000
19:26:57.830,SEARCHING,27.259,18.275,1.000,0.00,0.00,57.27,1.546,1.589,1.330,1.589,1.589,0,0,SEARCHING,1.330,0.000,0.000,0.000
19:26:58.030,SEARCHING,27.313,18.360,1.000,0.00,0.00,58.49,1.467,1.515,1.250,1.515,1.515,0,0,SEARCHING,1.250,0.000,0.000,0.000
19:26:58.232,SEARCHING,27.363,18.443,1.000,0.00,0.00,59.83,1.395,1.439,1.192,1.448,1.448,0,0,SEARCHING,1.192,0.000,0.000,0.000
19:26:58.433,SEARCHING,27.408,18.523,1.000,0.00,0.00,61.23,1.315,1.387,1.133,1.387,1.387,0,0,SEARCHING,1.133,0.000,0.000,0.000
19:26:58.633,SEARCHING,27.449,18.600,1.000,0.00,0.00,62.65,1.250,1.323,1.074,1.323,1.323,0,0,SEARCHING,1.074,0.000,0.000,0.000
19:26:58.833,SEARCHING,27.487,18.676,1.000,0.00,0.00,64.15,1.179,1.271,1.022,1.278,1.271,0,0,SEARCHING,1.022,0.000,0.000,0.000
19:26:59.034,SEARCHING,27.522,18.749,1.000,0.00,0.00,65.65,1.116,1.224,0.974,1.224,1.224,0,0,SEARCHING,0.974,0.000,0.000,0.000
19:26:59.234,SEARCHING,27.553,18.820,1.000,0.00,0.00,67.17,1.054,1.173,0.930,1.179,1.173,0,0,SEARCHING,0.930,0.000,0.000,0.000
19:26:59.434,SEARCHING,27.581,18.889,1.000,0.00,0.00,68.64,0.995,1.133,0.887,1.133,1.138,0,0,SEARCHING,0.887,0.000,0.000,0.000
19:26:59.635,SEARCHING,27.607,18.957,1.000,0.00,0.00,70.02,0.938,1.095,0.847,1.100,1.095,0,0,SEARCHING,0.847,0.000,0.000,0.000
19:26:59.835,SEARCHING,27.630,19.023,1.000,0.00,0.00,71.29,0.883,1.059,0.811,1.059,1.059,0,0,SEARCHING,0.811,0.000,0.000,0.000
19:27:00.036,SEARCHING,27.651,19.087,1.000,0.00,0.00,72.43,0.832,1.017,0.776,1.017,1.017,0,0,SEARCHING,0.776,0.000,0.000,0.000
19:27:00.238,SEARCHING,27.670,19.149,1.000,0.00,0.00,73.33,0.776,0.970,0.736,0.965,0.970,0,0,SEARCHING,0.736,0.000,0.000,0.000
19:27:00.436,SEARCHING,27.688,19.209,1.000,0.00,0.00,73.76,0.738,0.919,0.702,0.919,0.919,0,0,SEARCHING,0.702,0.000,0.000,0.000
19:27:00.638,SEARCHING,27.704,19.266,1.000,0.00,0.00,74.14,0.693,0.867,0.669,0.863,0.863,0,0,SEARCHING,0.669,0.000,0.000,0.000
19:27:00.840,SEARCHING,27.719,19.319,1.000,0.00,0.00,74.39,0.659,0.823,0.639,0.820,0.817,0,0,SEARCHING,0.639,0.000,0.000,0.000
19:27:01.085,INSPECTING,27.730,19.360,1.000,0.00,0.00,74.39,0.615,0.768,0.599,0.768,0.768,0,0,TOP,0.768,0.120,0.000,0.000
19:27:01.280,INSPECTING,27.739,19.389,1.000,0.00,0.00,74.39,0.597,0.745,0.584,0.745,0.745,0,0,TOP,0.745,0.120,0.000,0.000
19:27:01.483,INSPECTING,27.747,19.418,1.000,0.00,0.00,74.39,0.578,0.720,0.568,0.720,0.720,0,0,TOP,0.720,0.120,0.000,0.000
19:27:01.683,INSPECTING,27.755,19.447,1.000,0.00,0.00,74.39,0.557,0.693,0.549,0.693,0.693,0,0,TOP,0.693,0.120,0.000,0.000
19:27:01.876,INSPECTING,27.763,19.476,1.000,0.00,0.00,74.39,0.536,0.665,0.530,0.667,0.665,0,0,TOP,0.667,0.120,0.000,0.000
19:27:02.083,INSPECTING,27.771,19.504,1.000,0.00,0.00,74.39,0.517,0.639,0.517,0.641,0.639,0,0,TOP,0.641,0.120,0.000,0.000
19:27:02.287,INSPECTING,27.779,19.533,1.000,0.00,0.00,74.39,0.493,0.612,0.497,0.615,0.612,0,0,TOP,0.615,0.120,0.000,0.000
19:27:02.637,INSPECTING,27.786,19.562,1.000,0.00,0.00,80.69,0.479,0.596,0.482,0.597,0.596,0,0,TOP,0.597,0.120,0.000,0.000
19:27:02.803,INSPECTING,27.788,19.577,1.000,0.00,0.00,86.99,0.456,0.551,0.508,0.551,0.553,0,0,TOP,0.551,0.120,0.000,0.000
19:27:03.136,INSPECTING,27.787,19.615,1.000,0.00,0.00,88.88,0.411,0.466,0.538,0.465,0.465,0,0,TOP,0.465,0.120,0.000,0.000
19:27:03.308,INSPECTING,27.788,19.630,1.000,0.00,0.00,82.58,0.397,0.477,0.478,0.478,0.477,0,0,TOP,0.478,0.120,0.000,0.000
19:27:03.656,INSPECTING,27.797,19.666,1.000,0.00,0.00,66.82,0.387,0.494,0.391,0.495,0.496,0,0,BOTTOM,0.496,0.120,0.000,0.000
19:27:03.835,INSPECTING,27.806,19.686,1.000,0.00,0.00,71.23,0.347,0.418,0.420,0.418,0.418,0,0,BOTTOM,0.418,0.120,0.000,0.000
19:27:04.003,INSPECTING,27.813,19.716,1.000,0.00,0.00,83.84,0.321,0.366,0.424,0.366,0.366,0,0,BOTTOM,0.366,0.120,0.000,0.000
19:27:04.220,TURNING,27.812,19.761,1.000,0.00,0.00,91.40,0.289,0.335,0.397,0.334,0.335,0,0,TURNING,0.000,0.000,0.000,0.000
19:27:04.383,TURNING,27.816,19.798,1.000,0.00,0.00,75.65,0.277,0.342,0.358,0.342,0.342,0,0,TURNING,0.000,0.000,0.000,0.000
19:27:04.566,TURNING,27.821,19.818,1.000,0.00,0.00,82.98,0.259,0.314,0.363,0.313,0.312,0,0,TURNING,0.000,0.000,0.000,0.000
19:27:04.751,TURNING,27.821,19.818,1.000,0.00,0.00,64.64,0.284,0.370,0.310,0.370,0.372,0,0,TURNING,0.000,0.000,0.000,0.000
19:27:04.957,TURNING,27.821,19.818,1.000,0.00,0.00,55.48,0.318,0.348,0.292,0.346,0.350,0,0,TURNING,0.000,0.000,0.000,0.000
19:27:05.159,TURNING,27.821,19.818,1.000,0.00,0.00,46.31,0.367,0.319,0.277,0.318,0.318,0,0,TURNING,0.000,0.000,0.000,0.000
19:27:05.359,TURNING,27.821,19.818,1.000,0.00,0.00,37.14,0.326,0.298,0.275,0.298,0.299,0,0,TURNING,0.000,0.000,0.000,0.000
19:27:05.696,TURNING,27.821,19.818,1.000,0.00,0.00,30.27,0.309,0.291,0.278,0.292,0.292,1,0,TURNING,0.000,0.000,0.000,0.000
19:27:05.871,TURNING,27.821,19.818,1.000,0.00,0.00,25.68,0.298,0.291,0.283,0.290,0.290,1,0,TURNING,0.000,0.000,0.000,0.000
19:27:06.064,TURNING,27.821,19.818,1.000,0.00,0.00,21.10,0.281,0.286,0.291,0.286,0.286,1,0,TURNING,0.000,0.000,0.000,0.000
19:27:06.259,TURNING,27.821,19.818,1.000,0.00,0.00,16.52,0.264,0.282,0.304,0.282,0.282,1,0,TURNING,0.000,0.000,0.000,0.000
19:27:06.426,TURNING,27.821,19.818,1.000,0.00,0.00,9.64,0.258,0.287,0.323,0.287,0.287,1,0,TURNING,0.000,0.000,0.000,0.000
19:27:06.604,TURNING,27.821,19.818,1.000,0.00,0.00,-1.82,0.256,0.301,0.363,0.301,0.301,0,0,TURNING,0.000,0.000,0.000,0.000
19:27:06.787,TURNING,27.821,19.818,1.000,0.00,0.00,-15.57,0.266,0.331,0.428,0.329,0.330,0,0,TURNING,0.000,0.000,0.000,0.000
19:27:06.965,TURNING,27.821,19.818,1.000,0.00,0.00,-33.90,0.295,0.392,0.597,0.392,0.393,0,0,TURNING,0.000,0.000,0.000,0.000
19:27:07.165,TURNING,27.821,19.818,1.000,0.00,0.00,-45.36,0.381,0.605,1.362,0.607,0.601,0,0,TURNING,0.000,0.000,0.000,0.000
19:27:07.365,TURNING,27.821,19.818,1.000,0.00,0.00,-54.42,0.471,0.847,4.317,0.826,0.847,0,0,TURNING,0.000,0.000,0.000,0.000
19:27:07.566,TURNING,27.821,19.818,1.000,0.00,0.00,-62.07,0.584,1.308,4.487,1.300,1.244,0,0,TURNING,0.000,0.000,0.000,0.000
19:27:07.767,TURNING,27.821,19.818,1.000,0.00,0.00,-68.35,0.741,2.179,4.576,2.359,2.243,0,0,TURNING,0.000,0.000,0.000,0.000
19:27:07.967,TURNING,27.821,19.818,1.000,0.00,0.00,-73.30,0.942,4.670,4.670,4.576,2.460,0,0,TURNING,0.000,0.000,0.000,0.000
19:27:08.168,TURNING,27.821,19.818,1.000,0.00,0.00,-77.29,1.198,4.767,4.868,4.767,2.487,0,0,TURNING,0.000,0.000,0.000,0.000
19:27:08.369,TURNING,27.821,19.818,1.000,0.00,0.00,-80.76,1.515,4.767,4.868,4.767,2.487,0,0,TURNING,0.000,0.000,0.000,0.000
19:27:08.569,TURNING,27.821,19.818,1.000,0.00,0.00,-84.19,2.007,4.767,5.085,4.767,2.487,0,0,TURNING,0.000,0.000,0.000,0.000
19:27:08.770,TURNING,27.821,19.818,1.000,0.00,0.00,-87.63,3.415,4.767,5.448,4.767,2.487,0,0,TURNING,0.000,0.000,0.000,0.000
19:27:09.003,RETURNING,27.821,19.788,1.000,0.00,0.00,-89.65,4.317,4.767,5.867,4.767,2.460,0,0,RETURNING,0.000,0.000,0.000,0.000
19:27:09.170,RETURNING,27.821,19.688,1.000,0.00,0.00,-90.26,4.237,4.767,6.022,4.767,2.487,0,0,RETURNING,0.000,0.000,0.000,0.000
19:27:09.372,RETURNING,27.820,19.588,1.000,0.00,0.00,-90.90,4.086,4.670,6.022,4.670,2.487,0,0,RETURNING,0.000,0.000,0.000,0.000
19:27:09.612,RETURNING,27.818,19.488,1.000,0.00,0.00,-91.60,4.086,4.576,6.022,4.487,2.487,0,0,RETURNING,0.000,0.000,0.000,0.000
19:27:09.788,RETURNING,27.815,19.388,1.000,0.00,0.00,-92.30,4.014,4.487,6.022,4.487,2.487,0,0,RETURNING,0.000,0.000,0.000,0.000
19:27:09.974,RETURNING,27.810,19.288,1.000,0.00,0.00,-93.04,3.878,4.487,5.867,4.487,2.487,0,0,RETURNING,0.000,0.000,0.000,0.000
19:27:10.181,RETURNING,27.806,19.213,1.000,0.00,0.00,-93.64,3.878,4.400,6.022,4.400,2.487,0,0,RETURNING,0.000,0.000,0.000,0.000
19:27:10.375,RETURNING,27.797,19.089,1.000,0.00,0.00,-94.65,3.751,4.317,5.867,4.317,2.487,0,0,RETURNING,0.000,0.000,0.000,0.000
19:27:10.577,RETURNING,27.788,18.989,1.000,0.00,0.00,-95.52,3.691,4.237,5.867,4.237,2.460,0,0,RETURNING,0.000,0.000,0.000,0.000
19:27:10.777,RETURNING,27.778,18.890,1.000,0.00,0.00,-96.45,3.632,4.086,5.720,4.160,2.460,0,0,RETURNING,0.000,0.000,0.000,0.000
19:27:10.978,RETURNING,27.766,18.790,1.000,0.00,0.00,-97.37,3.575,4.014,5.720,3.945,2.460,0,0,RETURNING,0.000,0.000,0.000,0.000
19:27:11.178,RETURNING,27.753,18.691,1.000,0.00,0.00,-98.32,3.520,3.814,5.867,3.814,2.460,0,0,RETURNING,0.000,0.000,0.000,0.000
19:27:11.379,RETURNING,27.737,18.592,1.000,0.00,0.00,-99.34,3.415,3.691,5.867,3.751,2.460,0,0,RETURNING,0.000,0.000,0.000,0.000
19:27:11.579,RETURNING,27.720,18.494,1.000,0.00,0.00,-100.44,3.316,3.691,6.022,3.691,2.460,0,0,RETURNING,0.000,0.000,0.000,0.000
19:27:11.780,RETURNING,27.701,18.396,1.000,0.00,0.00,-101.66,3.223,3.691,6.184,3.691,2.460,0,0,RETURNING,0.000,0.000,0.000,0.000
19:27:11.980,RETURNING,27.680,18.298,1.000,0.00,0.00,-103.07,3.134,3.751,8.172,3.751,2.487,0,0,RETURNING,0.000,0.000,0.000,0.000
19:27:12.185,RETURNING,27.656,18.201,1.000,0.00,0.00,-104.86,3.134,3.814,8.475,3.814,2.460,0,0,RETURNING,0.000,0.000,0.000,0.000
19:27:12.381,RETURNING,27.629,18.105,1.000,0.00,0.00,-106.73,3.051,3.945,8.172,3.945,2.460,0,0,RETURNING,0.000,0.000,0.000,0.000
19:27:12.582,RETURNING,27.599,18.009,1.000,0.00,0.00,-108.63,3.011,4.086,8.475,4.160,2.409,0,0,RETURNING,0.000,0.000,0.000,0.000
19:27:12.783,RETURNING,27.565,17.915,1.000,0.00,0.00,-110.58,2.860,4.317,8.172,4.237,2.359,0,0,RETURNING,0.000,0.000,0.000,0.000
19:27:12.983,RETURNING,27.529,17.822,1.000,0.00,0.00,-112.65,2.757,4.576,8.801,4.487,2.434,0,0,RETURNING,0.000,0.000,0.000,0.000
19:27:13.184,RETURNING,27.489,17.730,1.000,0.00,0.00,-114.88,2.790,4.670,8.475,4.670,2.460,0,0,RETURNING,0.000,0.000,0.000,0.000
19:27:13.384,RETURNING,27.445,17.640,1.000,0.00,0.00,-117.06,2.860,4.670,7.151,4.576,2.460,0,0,RETURNING,0.000,0.000,0.000,0.000
19:27:13.584,RETURNING,27.398,17.552,1.000,0.00,0.00,-119.05,2.934,4.974,7.890,5.085,2.434,0,0,RETURNING,0.000,0.000,0.000,0.000
19:27:13.785,RETURNING,27.348,17.466,1.000,0.00,0.00,-121.03,3.011,6.022,7.890,4.487,2.460,0,0,RETURNING,0.000,0.000,0.000,0.000
19:27:13.986,RETURNING,27.295,17.381,1.000,0.00,0.00,-122.88,3.178,7.627,7.151,4.160,2.434,0,0,RETURNING,0.000,0.000,0.000,0.000
19:27:14.186,RETURNING,27.240,17.297,1.000,0.00,0.00,-124.50,3.316,7.381,7.151,4.086,2.460,0,0,RETURNING,0.000,0.000,0.000,0.000
19:27:14.388,RETURNING,27.182,17.216,1.000,0.00,0.00,-125.97,3.467,7.627,6.934,4.014,2.434,0,0,RETURNING,0.000,0.000,0.000,0.000
19:27:14.588,RETURNING,27.123,17.135,1.000,0.00,0.00,-127.30,3.575,7.627,6.730,3.878,2.434,0,0,RETURNING,0.000,0.000,0.000,0.000
19:27:14.789,RETURNING,27.061,17.056,1.000,0.00,0.00,-128.50,3.575,7.627,6.538,3.945,2.434,0,0,RETURNING,0.000,0.000,0.000,0.000
19:27:14.989,RETURNING,26.998,16.979,1.000,0.00,0.00,-129.66,3.520,7.627,6.356,3.691,2.434,0,0,RETURNING,0.000,0.000,0.000,0.000
19:27:15.189,RETURNING,26.934,16.902,1.000,0.00,0.00,-130.82,3.520,7.627,6.184,3.632,2.460,0,0,RETURNING,0.000,0.000,0.000,0.000
19:27:15.390,RETURNING,26.868,16.827,1.000,0.00,0.00,-131.93,3.632,7.890,6.022,3.575,2.434,0,0,RETURNING,0.000,0.000,0.000,0.000
19:27:15.591,RETURNING,26.800,16.753,1.000,0.00,0.00,-132.93,3.945,7.890,5.720,3.520,2.460,0,0,RETURNING,0.000,0.000,0.000,0.000
19:27:15.792,RETURNING,26.732,16.681,1.000,0.00,0.00,-133.64,4.868,7.890,5.581,3.365,2.460,0,0,RETURNING,0.000,0.000,0.000,0.000
19:27:15.992,RETURNING,26.663,16.608,1.000,0.00,0.00,-133.95,5.448,7.890,5.448,3.316,2.460,0,0,RETURNING,0.000,0.000,0.000,0.000
19:27:16.192,RETURNING,26.593,16.536,1.000,0.00,0.00,-133.99,5.720,8.172,5.321,3.134,2.409,0,0,RETURNING,0.000,0.000,0.000,0.000
19:27:16.394,RETURNING,26.524,16.464,1.000,0.00,0.00,-133.89,5.720,7.381,5.448,3.051,2.434,0,0,RETURNING,0.000,0.000,0.000,0.000
19:27:16.594,RETURNING,26.455,16.392,1.000,0.00,0.00,-133.79,5.867,8.172,5.448,2.972,2.434,0,0,RETURNING,0.000,0.000,0.000,0.000
19:27:16.794,RETURNING,26.385,16.320,1.000,0.00,0.00,-133.65,6.022,7.627,5.321,2.896,2.434,0,0,RETURNING,0.000,0.000,0.000,0.000
19:27:16.996,RETURNING,26.317,16.248,1.000,0.00,0.00,-133.45,5.867,7.890,5.321,2.757,2.460,0,0,RETURNING,0.000,0.000,0.000,0.000
19:27:17.195,RETURNING,26.248,16.175,1.000,0.00,0.00,-133.27,5.867,8.172,5.321,2.692,2.487,0,0,RETURNING,0.000,0.000,0.000,0.000
19:27:17.396,RETURNING,26.179,16.102,1.000,0.00,0.00,-133.10,5.867,7.890,5.321,2.600,2.487,0,0,RETURNING,0.000,0.000,0.000,0.000
19:27:17.597,RETURNING,26.111,16.029,1.000,0.00,0.00,-132.93,6.184,7.627,5.321,2.514,2.460,0,0,RETURNING,0.000,0.000,0.000,0.000
19:27:17.797,RETURNING,26.043,15.956,1.000,0.00,0.00,-132.74,6.022,7.890,5.321,2.359,2.434,0,0,RETURNING,0.000,0.000,0.000,0.000
19:27:17.997,RETURNING,25.975,15.882,1.000,0.00,0.00,-132.56,5.867,7.627,5.321,2.288,2.434,0,0,RETURNING,0.000,0.000,0.000,0.000
19:27:18.198,RETURNING,25.908,15.808,1.000,0.00,0.00,-132.39,5.867,7.890,5.321,2.222,2.434,0,0,RETURNING,0.000,0.000,0.000,0.000
19:27:18.407,RETURNING,25.857,15.753,1.000,0.00,0.00,-132.26,6.022,7.890,5.321,2.119,2.460,0,0,RETURNING,0.000,0.000,0.000,0.000
19:27:18.600,RETURNING,25.773,15.660,1.000,0.00,0.00,-132.03,6.022,8.172,5.200,2.025,2.434,0,0,RETURNING,0.000,0.000,0.000,0.000
19:27:18.800,RETURNING,25.707,15.586,1.000,0.00,0.00,-131.81,6.022,7.890,5.200,1.891,2.434,0,0,RETURNING,0.000,0.000,0.000,0.000
19:27:19.001,RETURNING,25.640,15.511,1.000,0.00,0.00,-131.59,6.022,8.172,5.321,1.860,2.460,0,0,RETURNING,0.000,0.000,0.000,0.000
19:27:19.201,RETURNING,25.574,15.436,1.000,0.00,0.00,-131.38,6.022,8.475,5.200,1.860,2.434,0,0,RETURNING,0.000,0.000,0.000,0.000
19:27:19.402,RETURNING,25.508,15.361,1.000,0.00,0.00,-131.16,5.867,8.475,5.321,1.831,2.434,0,0,RETURNING,0.000,0.000,0.000,0.000
19:27:19.602,RETURNING,25.442,15.286,1.000,0.00,0.00,-130.98,5.867,7.890,5.200,1.760,2.434,0,0,RETURNING,0.000,0.000,0.000,0.000
19:27:19.813,RETURNING,25.377,15.210,1.000,0.00,0.00,-130.79,5.720,8.172,5.321,1.816,2.434,0,0,RETURNING,0.000,0.000,0.000,0.000
19:27:20.004,RETURNING,25.311,15.134,1.000,0.00,0.00,-130.66,5.720,8.172,5.321,6.022,2.460,0,0,RETURNING,0.000,0.000,0.000,0.000
19:27:20.204,RETURNING,25.246,15.058,1.000,0.00,0.00,-130.52,5.720,8.172,5.200,6.022,2.434,0,0,RETURNING,0.000,0.000,0.000,0.000
19:27:20.405,RETURNING,25.182,14.982,1.000,0.00,0.00,-130.35,5.720,8.475,5.200,6.022,2.434,0,0,RETURNING,0.000,0.000,0.000,0.000
19:27:20.606,RETURNING,25.117,14.906,1.000,0.00,0.00,-130.17,5.720,8.475,5.321,5.867,2.359,0,0,RETURNING,0.000,0.000,0.000,0.000
19:27:20.807,RETURNING,25.052,14.829,1.000,0.00,0.00,-130.02,5.867,8.172,5.200,5.720,2.434,0,0,RETURNING,0.000,0.000,0.000,0.000
19:27:21.008,RETURNING,24.988,14.753,1.000,0.00,0.00,-129.82,5.720,8.172,5.200,5.867,2.434,0,0,RETURNING,0.000,0.000,0.000,0.000
19:27:21.208,RETURNING,24.924,14.676,1.000,0.00,0.00,-129.64,5.720,8.172,5.085,6.022,2.460,0,0,RETURNING,0.000,0.000,0.000,0.000
19:27:21.409,RETURNING,24.861,14.599,1.000,0.00,0.00,-129.46,5.581,8.475,5.321,5.867,2.487,0,0,RETURNING,0.000,0.000,0.000,0.000
19:27:21.609,RETURNING,24.797,14.522,1.000,0.00,0.00,-129.33,5.720,8.475,5.200,5.867,2.460,0,0,RETURNING,0.000,0.000,0.000,0.000
19:27:21.809,RETURNING,24.734,14.444,1.000,0.00,0.00,-129.19,5.581,8.475,5.200,6.022,2.460,0,0,RETURNING,0.000,0.000,0.000,0.000
19:27:22.011,RETURNING,24.671,14.367,1.000,0.00,0.00,-129.07,5.448,8.172,5.200,5.867,2.434,0,0,RETURNING,0.000,0.000,0.000,0.000
19:27:22.211,RETURNING,24.608,14.289,1.000,0.00,0.00,-128.98,5.448,8.172,5.200,5.867,2.434,0,0,RETURNING,0.000,0.000,0.000,0.000
19:27:22.411,RETURNING,24.545,14.211,1.000,0.00,0.00,-128.90,5.448,8.475,5.321,5.867,2.434,0,0,RETURNING,0.000,0.000,0.000,0.000
19:27:22.612,RETURNING,24.482,14.133,1.000,0.00,0.00,-128.87,5.321,8.172,5.321,5.867,2.460,0,0,RETURNING,0.000,0.000,0.000,0.000
19:27:22.813,RETURNING,24.419,14.055,1.000,0.00,0.00,-128.87,5.321,8.475,5.321,5.867,2.434,0,0,RETURNING,0.000,0.000,0.000,0.000
19:27:23.013,RETURNING,24.357,13.978,1.000,0.00,0.00,-128.86,5.448,8.475,5.321,5.867,2.460,0,0,RETURNING,0.000,0.000,0.000,0.000
19:27:23.213,RETURNING,24.294,13.900,1.000,0.00,0.00,-128.84,5.321,7.890,5.448,5.867,2.434,0,0,RETURNING,0.000,0.000,0.000,0.000
19:27:23.414,RETURNING,24.231,13.822,1.000,0.00,0.00,-128.88,5.085,8.172,5.448,5.867,2.409,0,0,RETURNING,0.000,0.000,0.000,0.000
19:27:23.615,RETURNING,24.168,13.744,1.000,0.00,0.00,-128.96,5.321,7.890,5.321,5.720,2.384,0,0,RETURNING,0.000,0.000,0.000,0.000
19:27:23.815,RETURNING,24.105,13.666,1.000,0.00,0.00,-128.98,5.200,8.172,5.581,5.867,2.384,0,0,RETURNING,0.000,0.000,0.000,0.000
19:27:24.016,RETURNING,24.043,13.589,1.000,0.00,0.00,-129.07,5.321,8.172,5.581,5.720,2.409,0,0,RETURNING,0.000,0.000,0.000,0.000
19:27:24.217,RETURNING,23.979,13.511,1.000,0.00,0.00,-129.14,5.321,8.172,5.448,5.867,2.434,0,0,RETURNING,0.000,0.000,0.000,0.000
19:27:24.418,RETURNING,23.916,13.433,1.000,0.00,0.00,-129.18,5.448,7.890,5.581,5.867,2.384,0,0,RETURNING,0.000,0.000,0.000,0.000
19:27:24.618,RETURNING,23.853,13.356,1.000,0.00,0.00,-129.22,5.448,7.627,5.720,5.867,2.434,0,0,RETURNING,0.000,0.000,0.000,0.000
19:27:24.819,RETURNING,23.790,13.278,1.000,0.00,0.00,-129.28,5.581,7.627,5.581,5.867,2.460,0,0,RETURNING,0.000,0.000,0.000,0.000
19:27:25.019,RETURNING,23.727,13.201,1.000,0.00,0.00,-129.27,5.720,7.151,5.581,5.720,2.409,0,0,RETURNING,0.000,0.000,0.000,0.000
19:27:25.220,RETURNING,23.663,13.124,1.000,0.00,0.00,-129.23,5.720,7.381,5.720,5.720,2.434,0,0,RETURNING,0.000,0.000,0.000,0.000
19:27:25.420,RETURNING,23.600,13.046,1.000,0.00,0.00,-129.21,5.720,7.381,5.867,5.720,2.384,0,0,RETURNING,0.000,0.000,0.000,0.000
19:27:25.620,RETURNING,23.537,12.969,1.000,0.00,0.00,-129.21,5.720,7.627,5.720,5.720,2.460,0,0,RETURNING,0.000,0.000,0.000,0.000
19:27:25.823,RETURNING,23.474,12.891,1.000,0.00,0.00,-129.23,5.720,7.151,5.720,5.581,2.434,0,0,RETURNING,0.000,0.000,0.000,0.000
19:27:26.023,RETURNING,23.410,12.814,1.000,0.00,0.00,-129.23,5.720,7.381,5.720,5.720,2.460,0,0,RETURNING,0.000,0.000,0.000,0.000
19:27:26.223,RETURNING,23.347,12.736,1.000,0.00,0.00,-129.24,5.720,7.151,5.720,5.720,2.460,0,0,RETURNING,0.000,0.000,0.000,0.000
19:27:26.423,RETURNING,23.284,12.659,1.000,0.00,0.00,-129.23,5.720,6.934,5.720,5.720,2.460,0,0,RETURNING,0.000,0.000,0.000,0.000
19:27:26.624,RETURNING,23.221,12.581,1.000,0.00,0.00,-129.23,5.720,7.151,5.720,5.720,2.409,0,0,RETURNING,0.000,0.000,0.000,0.000
19:27:26.824,RETURNING,23.157,12.504,1.000,0.00,0.00,-129.25,5.720,6.730,5.720,5.581,2.434,0,0,RETURNING,0.000,0.000,0.000,0.000
19:27:27.026,RETURNING,23.094,12.426,1.000,0.00,0.00,-129.24,5.720,6.538,5.581,5.581,2.434,0,0,RETURNING,0.000,0.000,0.000,0.000
19:27:27.226,RETURNING,23.031,12.349,1.000,0.00,0.00,-129.19,5.720,6.730,5.448,5.720,2.409,0,0,RETURNING,0.000,0.000,0.000,0.000
19:27:28.373,RETURNING,22.984,12.291,1.000,0.00,0.00,-129.13,5.720,6.730,5.448,5.720,2.434,0,0,RETURNING,0.000,0.000,0.000,0.000
19:27:28.559,RETURNING,22.905,12.194,1.000,0.00,0.00,-129.03,5.720,6.538,5.448,5.581,2.409,0,0,RETURNING,0.000,0.000,0.000,0.000
19:27:28.734,RETURNING,22.810,12.077,1.000,0.00,0.00,-128.92,5.720,6.356,5.321,5.581,2.434,0,0,RETURNING,0.000,0.000,0.000,0.000
19:27:28.910,RETURNING,22.716,11.961,1.000,0.00,0.00,-128.95,4.086,6.184,5.448,5.581,2.460,0,0,RETURNING,0.000,0.000,0.000,0.000
19:27:29.111,RETURNING,22.653,11.883,1.000,0.00,0.00,-129.19,4.086,6.184,5.448,5.448,2.409,0,0,RETURNING,0.000,0.000,0.000,0.000
19:27:29.311,RETURNING,22.590,11.805,1.000,0.00,0.00,-129.51,5.448,6.184,5.321,5.448,2.434,0,0,RETURNING,0.000,0.000,0.000,0.000
19:27:29.512,RETURNING,22.526,11.728,1.000,0.00,0.00,-129.70,4.086,6.022,5.085,5.581,2.460,0,0,RETURNING,0.000,0.000,0.000,0.000
19:27:29.714,RETURNING,22.462,11.652,1.000,0.00,0.00,-130.14,5.200,6.022,5.085,5.720,2.434,0,0,RETURNING,0.000,0.000,0.000,0.000
19:27:29.915,RETURNING,22.397,11.575,1.000,0.00,0.00,-130.33,4.086,5.867,4.974,5.085,2.460,0,0,RETURNING,0.000,0.000,0.000,0.000
19:27:30.115,RETURNING,22.332,11.499,1.000,0.00,0.00,-130.72,4.086,5.581,5.085,5.581,2.434,0,0,RETURNING,0.000,0.000,0.000,0.000
19:27:30.316,RETURNING,22.267,11.424,1.000,0.00,0.00,-131.11,4.086,5.581,4.974,5.448,2.460,0,0,RETURNING,0.000,0.000,0.000,0.000
19:27:30.516,RETURNING,22.201,11.349,1.000,0.00,0.00,-131.51,4.160,5.321,4.868,5.448,2.434,0,0,RETURNING,0.000,0.000,0.000,0.000
19:27:30.717,RETURNING,22.134,11.274,1.000,0.00,0.00,-131.87,4.670,5.321,4.868,5.321,2.460,0,0,RETURNING,0.000,0.000,0.000,0.000
19:27:30.918,RETURNING,22.067,11.200,1.000,0.00,0.00,-132.05,4.767,5.200,4.767,5.321,2.434,0,0,RETURNING,0.000,0.000,0.000,0.000
19:27:31.118,RETURNING,22.000,11.125,1.000,0.00,0.00,-132.10,4.767,4.974,4.767,4.974,2.409,0,0,RETURNING,0.000,0.000,0.000,0.000
19:27:31.319,RETURNING,21.933,11.051,1.000,0.00,0.00,-132.09,4.670,4.974,4.767,4.974,2.434,0,0,RETURNING,0.000,0.000,0.000,0.000
19:27:31.520,RETURNING,21.866,10.977,1.000,0.00,0.00,-132.07,4.868,4.868,4.767,4.974,2.487,0,0,RETURNING,0.000,0.000,0.000,0.000
19:27:31.720,RETURNING,21.799,10.903,1.000,0.00,0.00,-132.07,4.767,4.974,4.670,4.974,2.434,0,0,RETURNING,0.000,0.000,0.000,0.000
19:27:31.920,RETURNING,21.732,10.828,1.000,0.00,0.00,-132.06,4.670,4.767,4.767,4.767,2.409,0,0,RETURNING,0.000,0.000,0.000,0.000
19:27:32.128,RETURNING,21.665,10.754,1.000,0.00,0.00,-132.08,4.670,4.670,4.670,4.767,2.409,0,0,RETURNING,0.000,0.000,0.000,0.000
19:27:32.322,RETURNING,21.598,10.680,1.000,0.00,0.00,-132.09,4.576,4.670,4.487,4.670,2.434,0,0,RETURNING,0.000,0.000,0.000,0.000
19:27:32.522,RETURNING,21.531,10.606,1.000,0.00,0.00,-132.08,4.487,4.670,4.487,4.670,2.434,0,0,RETURNING,0.000,0.000,0.000,0.000
19:27:32.724,RETURNING,21.464,10.532,1.000,0.00,0.00,-132.08,4.317,4.576,4.400,4.487,2.460,0,0,RETURNING,0.000,0.000,0.000,0.000
19:27:32.925,RETURNING,21.397,10.457,1.000,0.00,0.00,-132.10,4.317,4.400,4.237,4.400,2.460,0,0,RETURNING,0.000,0.000,0.000,0.000
19:27:33.125,RETURNING,21.330,10.383,1.000,0.00,0.00,-132.08,4.317,4.317,4.160,4.400,2.434,0,0,RETURNING,0.000,0.000,0.000,0.000
19:27:33.325,RETURNING,21.263,10.309,1.000,0.00,0.00,-132.04,4.237,4.237,4.086,4.317,2.460,0,0,RETURNING,0.000,0.000,0.000,0.000
19:27:33.526,RETURNING,21.196,10.235,1.000,0.00,0.00,-131.98,4.237,4.237,4.014,4.237,2.409,0,0,RETURNING,0.000,0.000,0.000,0.000
19:27:33.726,RETURNING,21.129,10.160,1.000,0.00,0.00,-131.90,4.160,4.160,3.945,4.160,2.409,0,0,RETURNING,0.000,0.000,0.000,0.000
19:27:33.927,RETURNING,21.063,10.086,1.000,0.00,0.00,-131.78,4.160,4.014,3.691,4.160,2.409,0,0,RETURNING,0.000,0.000,0.000,0.000
19:27:34.127,RETURNING,20.996,10.011,1.000,0.00,0.00,-131.55,4.014,4.086,3.632,4.160,2.409,0,0,RETURNING,0.000,0.000,0.000,0.000
19:27:34.328,RETURNING,20.930,9.936,1.000,0.00,0.00,-131.24,4.086,4.086,3.520,4.160,2.409,0,0,RETURNING,0.000,0.000,0.000,0.000
19:27:34.552,RETURNING,20.881,9.880,1.000,0.00,0.00,-130.88,3.945,4.160,3.520,4.160,2.460,0,0,RETURNING,0.000,0.000,0.000,0.000
19:27:34.730,RETURNING,20.799,9.785,1.000,0.00,0.00,-130.50,3.878,4.160,3.415,4.160,2.434,0,0,RETURNING,0.000,0.000,0.000,0.000
19:27:34.930,RETURNING,20.735,9.709,1.000,0.00,0.00,-130.18,3.878,4.160,3.316,4.160,2.434,0,0,RETURNING,0.000,0.000,0.000,0.000
19:27:35.130,RETURNING,20.670,9.632,1.000,0.00,0.00,-129.79,3.814,4.014,3.178,4.014,2.384,0,0,RETURNING,0.000,0.000,0.000,0.000
19:27:35.331,RETURNING,20.607,9.555,1.000,0.00,0.00,-129.31,3.751,3.878,3.092,3.945,2.409,0,0,RETURNING,0.000,0.000,0.000,0.000
19:27:35.532,RETURNING,20.543,9.477,1.000,0.00,0.00,-128.79,3.691,3.751,2.896,3.814,2.434,0,0,RETURNING,0.000,0.000,0.000,0.000
19:27:35.732,RETURNING,20.481,9.399,1.000,0.00,0.00,-128.12,3.632,3.814,2.790,3.751,2.460,0,0,RETURNING,0.000,0.000,0.000,0.000
19:27:35.933,RETURNING,20.420,9.320,1.000,0.00,0.00,-127.37,3.520,3.632,2.757,3.751,2.460,0,0,RETURNING,0.000,0.000,0.000,0.000
19:27:36.134,RETURNING,20.360,9.240,1.000,0.00,0.00,-126.62,3.415,3.520,2.571,3.467,2.487,0,0,RETURNING,0.000,0.000,0.000,0.000
19:27:36.334,RETURNING,20.301,9.160,1.000,0.00,0.00,-125.76,3.365,3.415,2.542,3.467,2.487,0,0,RETURNING,0.000,0.000,0.000,0.000
19:27:36.535,RETURNING,20.243,9.078,1.000,0.00,0.00,-124.89,3.269,3.316,2.434,3.365,2.434,0,0,RETURNING,0.000,0.000,0.000,0.000
19:27:36.735,RETURNING,20.186,8.996,1.000,0.00,0.00,-123.93,3.134,3.269,2.335,3.316,2.460,0,0,RETURNING,0.000,0.000,0.000,0.000
19:27:36.936,RETURNING,20.131,8.912,1.000,0.00,0.00,-122.93,3.011,3.178,2.266,3.134,2.434,0,0,RETURNING,0.000,0.000,0.000,0.000
19:27:37.137,RETURNING,20.077,8.828,1.000,0.00,0.00,-121.95,2.896,3.051,2.335,3.092,2.460,0,0,RETURNING,0.000,0.000,0.000,0.000
19:27:37.338,RETURNING,20.025,8.743,1.000,0.00,0.00,-121.19,2.825,2.934,2.514,2.972,2.487,0,0,RETURNING,0.000,0.000,0.000,0.000
19:27:37.538,RETURNING,19.973,8.657,1.000,0.00,0.00,-120.78,2.825,2.860,2.571,2.896,2.514,0,0,RETURNING,0.000,0.000,0.000,0.000
19:27:37.737,RETURNING,19.922,8.571,1.000,0.00,0.00,-120.52,2.757,2.790,2.692,2.790,2.460,0,0,RETURNING,0.000,0.000,0.000,0.000
19:27:37.939,RETURNING,19.872,8.485,1.000,0.00,0.00,-120.42,2.724,2.692,2.724,2.692,2.460,0,0,RETURNING,0.000,0.000,0.000,0.000
19:27:38.140,RETURNING,19.821,8.398,1.000,0.00,0.00,-120.41,2.661,2.571,2.661,2.542,2.460,0,0,RETURNING,0.000,0.000,0.000,0.000
19:27:38.341,RETURNING,19.771,8.312,1.000,0.00,0.00,-120.40,2.724,2.514,2.600,2.487,2.434,0,0,RETURNING,0.000,0.000,0.000,0.000
19:27:38.541,RETURNING,19.720,8.226,1.000,0.00,0.00,-120.25,2.661,2.409,2.487,2.359,2.359,0,0,RETURNING,0.000,0.000,0.000,0.000
19:27:38.741,RETURNING,19.670,8.139,1.000,0.00,0.00,-120.02,2.600,2.243,2.384,2.243,2.288,0,0,RETURNING,0.000,0.000,0.000,0.000
19:27:38.942,RETURNING,19.620,8.053,1.000,0.00,0.00,-119.73,2.514,2.179,2.335,2.179,2.179,0,0,RETURNING,0.000,0.000,0.000,0.000
19:27:39.154,RETURNING,19.571,7.966,1.000,0.00,0.00,-119.41,2.487,2.119,2.222,2.138,2.119,0,0,RETURNING,0.000,0.000,0.000,0.000
19:27:39.344,RETURNING,19.522,7.878,1.000,0.00,0.00,-118.93,2.434,2.007,2.243,2.007,2.007,0,0,RETURNING,0.000,0.000,0.000,0.000
19:27:39.544,RETURNING,19.474,7.791,1.000,0.00,0.00,-118.52,2.384,1.876,2.061,1.891,1.876,0,0,RETURNING,0.000,0.000,0.000,0.000
19:27:39.750,RETURNING,19.426,7.703,1.000,0.00,0.00,-117.87,2.335,1.670,1.956,1.831,1.816,0,0,RETURNING,0.000,0.000,0.000,0.000
19:27:39.946,RETURNING,19.380,7.614,1.000,0.00,0.00,-116.95,2.266,1.646,1.720,1.733,1.733,0,0,RETURNING,0.000,0.000,0.000,0.000
19:27:40.146,RETURNING,19.336,7.524,1.000,0.00,0.00,-115.68,2.159,1.557,1.670,1.600,1.600,0,0,RETURNING,0.000,0.000,0.000,0.000
19:27:40.346,RETURNING,19.293,7.434,1.000,0.00,0.00,-114.45,2.061,1.496,1.536,1.496,1.515,0,0,RETURNING,0.000,0.000,0.000,0.000
19:27:40.547,RETURNING,19.253,7.343,1.000,0.00,0.00,-112.94,1.990,1.412,1.421,1.412,1.404,0,0,RETURNING,0.000,0.000,0.000,0.000
19:27:40.748,RETURNING,19.218,7.257,1.000,0.00,0.00,-111.07,1.891,1.330,1.308,1.330,1.330,0,0,RETURNING,0.000,0.000,0.000,0.000
19:27:40.948,RETURNING,19.188,7.174,1.000,0.00,0.00,-108.81,1.774,1.354,1.192,1.354,1.346,0,0,RETURNING,0.000,0.000,0.000,0.000
19:27:41.149,RETURNING,19.161,7.089,1.000,0.00,0.00,-106.27,1.682,1.354,1.095,1.378,1.395,0,0,RETURNING,0.000,0.000,0.000,0.000
19:27:41.349,RETURNING,19.137,7.001,1.000,0.00,0.00,-103.33,1.557,2.311,0.974,2.335,2.335,0,0,RETURNING,0.000,0.000,0.000,0.000
19:27:41.551,RETURNING,19.117,6.905,1.000,0.00,0.00,-99.85,1.467,2.119,0.894,2.119,2.119,0,0,RETURNING,0.000,0.000,0.000,0.000
19:27:41.751,RETURNING,19.103,6.806,1.000,0.00,0.00,-96.00,1.338,1.860,0.974,1.860,1.860,0,0,RETURNING,0.000,0.000,0.000,0.000
19:27:41.951,RETURNING,19.095,6.706,1.000,0.00,0.00,-93.30,1.244,1.682,2.724,1.682,1.670,0,0,RETURNING,0.000,0.000,0.000,0.000
19:27:42.157,RETURNING,19.088,6.606,1.000,0.00,0.00,-95.58,1.204,1.634,2.661,1.634,1.646,0,0,RETURNING,0.000,0.000,0.000,0.000
19:27:42.356,RETURNING,19.076,6.507,1.000,0.00,0.00,-98.33,1.192,1.670,1.050,1.682,1.682,0,0,RETURNING,0.000,0.000,0.000,0.000
19:27:42.555,RETURNING,19.063,6.408,1.000,0.00,0.00,-97.37,1.116,1.567,2.571,1.567,1.525,0,0,RETURNING,0.000,0.000,0.000,0.000
