timestamp,state,x,y,z,roll_deg,pitch_deg,yaw_deg,dist_left,dist_center,dist_right,dist_top,dist_bottom,dtof_alert,collision_event,best_dir,max_space,cmd_vx,cmd_vz,cmd_yaw
21:35:49.263,SEARCHING,0.000,0.000,0.000,0.00,0.00,0.00,10.000,10.000,10.000,10.000,10.000,0,0,SEARCHING,0.000,0.800,0.000,0.000
21:35:50.546,SEARCHING,0.056,0.000,1.000,0.00,0.00,0.00,10.000,10.000,10.000,10.000,10.000,0,0,SEARCHING,0.000,0.800,0.000,0.000
21:35:50.748,SEARCHING,0.133,-0.000,0.998,0.00,0.00,-1.76,1.035,1.257,2.335,1.300,1.330,0,0,SEARCHING,0.000,0.273,-0.021,-0.457
21:35:50.948,SEARCHING,0.208,-0.005,1.023,0.00,0.00,-5.51,0.953,3.878,2.159,3.878,2.514,0,0,SEARCHING,0.000,0.800,0.168,-0.498
21:35:51.149,SEARCHING,0.319,-0.019,1.052,0.00,0.00,-9.86,0.826,3.269,2.043,3.316,2.571,0,0,SEARCHING,0.000,0.800,0.105,-0.613
21:35:51.350,SEARCHING,0.428,-0.043,1.067,0.00,0.00,-14.11,5.448,2.757,1.802,2.692,2.600,0,0,SEARCHING,0.000,0.800,0.016,0.316
21:35:51.550,SEARCHING,0.538,-0.068,1.071,0.00,0.00,-11.56,6.184,2.757,1.816,2.790,2.600,0,0,SEARCHING,0.000,0.800,0.031,0.331
21:35:51.753,SEARCHING,0.648,-0.088,1.078,0.00,0.00,-8.88,6.730,2.896,1.802,2.934,2.630,0,0,SEARCHING,0.000,0.800,0.047,0.345
21:35:51.954,SEARCHING,0.759,-0.103,1.088,0.00,0.00,-6.09,0.776,3.092,1.831,3.092,2.661,0,0,SEARCHING,0.000,0.800,0.063,-0.632
21:35:52.154,SEARCHING,0.870,-0.118,1.098,0.00,0.00,-7.18,6.934,3.011,1.774,2.972,2.692,0,0,SEARCHING,0.000,0.800,0.042,0.357
21:35:52.354,SEARCHING,0.981,-0.129,1.108,0.00,0.00,-4.34,7.151,3.223,1.816,3.223,2.692,0,0,SEARCHING,0.000,0.800,0.073,0.349
21:35:52.554,SEARCHING,1.093,-0.135,1.126,0.00,0.00,-1.58,6.730,3.520,1.907,3.467,2.757,0,0,SEARCHING,0.000,0.800,0.089,0.319
21:35:52.757,SEARCHING,1.205,-0.136,1.145,0.00,0.00,0.92,6.538,3.751,1.973,3.751,2.825,0,0,SEARCHING,0.000,0.800,0.105,0.301
21:35:52.957,SEARCHING,1.317,-0.132,1.168,0.00,0.00,3.26,6.356,4.160,2.043,4.160,2.934,0,0,SEARCHING,0.000,0.800,0.121,0.282
21:35:53.159,SEARCHING,1.429,-0.124,1.195,0.00,0.00,5.45,6.356,4.576,2.200,4.576,2.972,0,0,SEARCHING,0.000,0.800,0.142,0.253
21:35:53.360,SEARCHING,1.540,-0.112,1.225,0.00,0.00,7.37,5.321,5.200,2.311,5.200,3.051,0,0,SEARCHING,0.000,0.800,0.163,0.208
21:35:53.560,SEARCHING,1.651,-0.096,1.258,0.00,0.00,8.97,4.868,5.581,2.487,5.321,3.092,0,0,SEARCHING,0.000,0.800,0.163,0.167
21:35:53.760,SEARCHING,1.761,-0.078,1.290,0.00,0.00,10.31,4.670,5.720,2.542,5.200,3.134,0,0,SEARCHING,0.000,0.800,0.152,0.152
21:35:53.963,SEARCHING,1.871,-0.057,1.319,0.00,0.00,11.49,4.400,6.022,2.661,5.085,3.269,0,0,SEARCHING,0.000,0.800,0.131,0.126
21:35:54.163,SEARCHING,1.981,-0.033,1.345,0.00,0.00,12.47,4.237,6.356,2.757,5.085,3.316,0,0,SEARCHING,0.000,0.800,0.126,0.108
21:35:54.364,SEARCHING,2.090,-0.008,1.369,0.00,0.00,13.35,4.086,6.356,2.724,4.974,3.415,0,0,SEARCHING,0.000,0.800,0.110,0.104
21:35:54.564,SEARCHING,2.199,0.018,1.391,0.00,0.00,14.12,4.014,6.184,2.860,4.868,3.467,0,0,SEARCHING,0.000,0.800,0.100,0.085
21:35:54.764,SEARCHING,2.307,0.046,1.412,0.00,0.00,14.75,3.814,6.356,2.934,4.868,3.520,0,0,SEARCHING,0.000,0.800,0.094,0.067
21:35:54.965,SEARCHING,2.415,0.075,1.431,0.00,0.00,15.27,3.751,6.184,3.051,4.868,3.520,0,0,SEARCHING,0.000,0.800,0.094,0.052
21:35:55.166,SEARCHING,2.523,0.105,1.448,0.00,0.00,15.66,3.751,6.022,3.178,4.868,3.520,0,0,SEARCHING,0.000,0.800,0.094,0.041
21:35:55.366,SEARCHING,2.631,0.135,1.467,0.00,0.00,15.93,3.691,6.184,3.223,4.868,3.575,0,0,SEARCHING,0.000,0.800,0.089,0.033
21:35:55.568,SEARCHING,2.739,0.166,1.483,0.00,0.00,16.15,3.632,6.022,3.365,4.767,3.691,0,0,SEARCHING,0.000,0.800,0.073,0.019
21:35:55.767,SEARCHING,2.846,0.197,1.497,0.00,0.00,16.31,3.632,5.867,3.316,4.767,3.751,0,0,SEARCHING,0.000,0.800,0.068,0.022
21:35:55.968,SEARCHING,2.954,0.229,1.509,0.00,0.00,16.49,3.575,5.720,3.415,4.670,3.751,0,0,SEARCHING,0.000,0.800,0.063,0.011
21:35:56.169,SEARCHING,3.061,0.261,1.521,0.00,0.00,16.60,3.575,5.867,3.365,4.670,3.814,0,0,SEARCHING,0.000,0.800,0.058,0.015
21:35:56.369,SEARCHING,3.168,0.293,1.532,0.00,0.00,16.72,3.632,5.867,3.415,4.576,3.814,0,0,SEARCHING,0.000,0.800,0.052,0.015
21:35:56.569,SEARCHING,3.276,0.325,1.543,0.00,0.00,16.87,3.751,5.720,3.365,4.576,3.878,0,0,SEARCHING,0.000,0.800,0.047,0.026
21:35:56.769,SEARCHING,3.383,0.358,1.552,0.00,0.00,17.09,3.575,5.720,3.415,4.576,3.878,0,0,SEARCHING,0.000,0.800,0.047,0.011
21:35:56.970,SEARCHING,3.490,0.391,1.562,0.00,0.00,17.25,3.945,5.581,3.415,4.487,3.878,0,0,SEARCHING,0.000,0.800,0.042,0.033
21:35:57.171,SEARCHING,3.597,0.424,1.569,0.00,0.00,17.52,3.945,5.581,3.316,4.576,3.878,0,0,SEARCHING,0.000,0.800,0.047,0.041
21:35:57.371,SEARCHING,3.703,0.458,1.578,0.00,0.00,17.83,3.945,5.581,3.316,4.487,3.878,0,0,SEARCHING,0.000,0.800,0.042,0.041
21:35:57.571,SEARCHING,3.810,0.493,1.586,0.00,0.00,18.15,3.945,5.448,3.365,4.487,3.878,0,0,SEARCHING,0.000,0.800,0.042,0.037
21:35:57.772,SEARCHING,3.916,0.528,1.594,0.00,0.00,18.43,4.014,5.448,3.415,4.487,3.814,0,0,SEARCHING,0.000,0.800,0.047,0.037
21:35:57.972,SEARCHING,4.023,0.564,1.605,0.00,0.00,18.71,3.878,5.448,3.415,4.487,3.632,0,0,SEARCHING,0.000,0.800,0.063,0.030
21:35:58.173,SEARCHING,4.129,0.600,1.618,0.00,0.00,18.95,3.945,5.448,3.467,4.487,3.520,0,0,SEARCHING,0.000,0.800,0.073,0.030
21:35:58.373,SEARCHING,4.234,0.636,1.633,0.00,0.00,19.14,3.814,5.448,3.415,4.400,3.269,0,0,SEARCHING,0.000,0.800,0.094,0.026
21:35:58.574,SEARCHING,4.340,0.673,1.650,0.00,0.00,19.38,3.632,5.200,3.415,4.400,3.316,0,0,SEARCHING,0.000,0.800,0.089,0.015
21:35:58.775,SEARCHING,4.446,0.711,1.669,0.00,0.00,19.56,3.945,5.200,3.415,4.317,3.178,0,0,SEARCHING,0.000,0.800,0.100,0.033
21:35:58.975,SEARCHING,4.551,0.748,1.690,0.00,0.00,19.80,6.022,5.085,3.415,4.317,3.092,0,0,SEARCHING,0.000,0.800,0.110,0.108
21:35:59.176,SEARCHING,4.656,0.787,1.713,0.00,0.00,20.63,5.720,5.085,3.467,4.237,3.011,0,0,SEARCHING,0.000,0.800,0.115,0.097
21:35:59.377,SEARCHING,4.761,0.827,1.735,0.00,0.00,21.05,5.720,5.085,3.467,4.237,2.896,0,0,SEARCHING,0.000,0.800,0.131,0.097
21:35:59.577,SEARCHING,4.865,0.868,1.762,0.00,0.00,21.86,5.581,5.321,3.467,4.086,2.825,0,0,SEARCHING,0.000,0.800,0.131,0.093
21:35:59.777,SEARCHING,4.969,0.910,1.788,0.00,0.00,22.59,5.448,5.200,3.467,4.086,2.790,0,0,SEARCHING,0.000,0.800,0.136,0.089
21:35:59.978,SEARCHING,5.072,0.954,1.816,0.00,0.00,23.32,5.448,4.974,3.365,3.945,2.757,0,0,SEARCHING,0.000,0.800,0.131,0.097
21:36:00.179,SEARCHING,5.175,0.999,1.843,0.00,0.00,24.12,5.448,4.767,3.316,3.878,2.724,0,0,SEARCHING,0.000,0.800,0.131,0.100
21:36:00.379,SEARCHING,5.277,1.045,1.869,0.00,0.00,24.93,5.448,4.767,3.223,3.814,2.724,0,0,SEARCHING,0.000,0.800,0.126,0.108
21:36:00.583,SEARCHING,5.378,1.093,1.893,0.00,0.00,25.75,5.200,4.767,3.269,3.751,2.790,0,0,SEARCHING,0.000,0.800,0.110,0.097
21:36:00.781,SEARCHING,5.479,1.142,1.914,0.00,0.00,26.49,5.200,4.767,3.316,3.691,2.896,0,0,SEARCHING,0.000,0.800,0.089,0.093
21:36:00.981,SEARCHING,5.578,1.193,1.931,0.00,0.00,27.23,4.974,4.767,3.316,3.691,2.934,0,0,SEARCHING,0.000,0.800,0.084,0.085
21:36:01.181,SEARCHING,5.678,1.244,1.946,0.00,0.00,27.91,4.767,4.670,3.365,3.575,2.972,0,0,SEARCHING,0.000,0.800,0.068,0.074
21:36:01.382,SEARCHING,5.777,1.297,1.961,0.00,0.00,28.52,4.767,4.670,3.365,3.575,3.011,0,0,SEARCHING,0.000,0.800,0.063,0.074
21:36:01.583,SEARCHING,5.875,1.351,1.972,0.00,0.00,29.13,4.670,4.670,3.316,3.520,3.051,0,0,SEARCHING,0.000,0.800,0.052,0.074
21:36:01.784,SEARCHING,5.972,1.406,1.982,0.00,0.00,29.71,4.576,4.576,3.365,3.520,3.092,0,0,SEARCHING,0.000,0.800,0.047,0.067
21:36:01.984,SEARCHING,6.069,1.462,1.992,0.00,0.00,30.24,4.487,4.576,3.316,3.520,3.092,0,0,SEARCHING,0.000,0.800,0.047,0.067
21:36:02.186,SEARCHING,6.166,1.519,2.001,0.00,0.00,30.78,4.400,4.487,3.365,3.520,3.092,0,0,SEARCHING,0.000,0.800,0.047,0.059
21:36:02.385,SEARCHING,6.262,1.576,2.009,0.00,0.00,31.24,4.317,4.317,3.415,3.467,3.178,0,0,SEARCHING,0.000,0.800,0.031,0.052
21:36:02.586,SEARCHING,6.357,1.635,2.016,0.00,0.00,31.66,4.160,4.237,3.365,3.467,3.316,0,0,SEARCHING,0.000,0.800,0.016,0.048
21:36:02.786,SEARCHING,6.453,1.694,2.015,0.00,0.00,32.06,4.014,4.014,3.316,3.467,3.814,0,0,SEARCHING,0.000,0.800,-0.031,0.045
21:36:02.988,SEARCHING,6.547,1.754,2.008,0.00,0.00,32.42,4.014,3.945,3.269,3.467,4.014,0,0,SEARCHING,0.000,0.800,-0.047,0.048
21:36:03.188,SEARCHING,6.642,1.814,1.998,0.00,0.00,32.82,3.878,3.878,3.134,3.520,4.086,0,0,SEARCHING,0.000,0.800,-0.047,0.052
21:36:03.389,SEARCHING,6.736,1.875,1.989,0.00,0.00,33.28,3.814,3.632,3.011,3.520,4.086,0,0,SEARCHING,0.000,0.800,-0.047,0.059
21:36:03.589,SEARCHING,6.829,1.937,1.979,0.00,0.00,33.76,3.691,3.467,2.896,3.575,4.086,0,0,SEARCHING,0.000,0.800,-0.042,0.063
21:36:03.789,SEARCHING,6.922,1.999,1.970,0.00,0.00,34.27,3.632,3.467,2.860,3.520,4.086,0,0,SEARCHING,0.000,0.800,-0.047,0.063
21:36:03.990,SEARCHING,7.014,2.063,1.960,0.00,0.00,34.76,3.575,3.415,2.825,3.415,4.014,0,0,SEARCHING,0.000,0.800,-0.052,0.063
21:36:04.190,SEARCHING,7.106,2.127,1.949,0.00,0.00,35.27,3.467,3.365,2.757,3.316,4.014,0,0,SEARCHING,0.000,0.800,-0.063,0.063
21:36:04.392,SEARCHING,7.197,2.192,1.936,0.00,0.00,35.76,3.365,3.223,2.757,3.223,3.945,0,0,SEARCHING,0.000,0.800,-0.068,0.056
21:36:04.592,SEARCHING,7.288,2.258,1.921,0.00,0.00,36.19,3.178,3.092,2.724,3.092,3.945,0,0,SEARCHING,0.000,0.800,-0.084,0.045
21:36:04.794,SEARCHING,7.378,2.324,1.902,0.00,0.00,36.52,3.011,2.896,2.692,2.896,3.878,0,0,SEARCHING,0.000,0.800,-0.105,0.033
21:36:04.994,SEARCHING,7.468,2.391,1.881,0.00,0.00,36.76,2.860,2.790,2.630,2.757,3.814,0,0,SEARCHING,0.000,0.800,-0.121,0.026
21:36:05.195,SEARCHING,7.558,2.458,1.857,0.00,0.00,36.98,2.790,2.825,2.600,2.757,3.814,0,0,SEARCHING,0.000,0.800,-0.121,0.022
21:36:05.395,SEARCHING,7.647,2.526,1.832,0.00,0.00,37.14,2.692,2.692,2.514,2.661,3.751,0,0,SEARCHING,0.000,0.800,-0.131,0.022
21:36:05.595,SEARCHING,7.736,2.593,1.805,0.00,0.00,37.31,2.571,2.600,2.514,2.514,3.691,0,0,SEARCHING,0.000,0.800,-0.152,0.007
21:36:05.797,SEARCHING,7.825,2.661,1.773,0.00,0.00,37.34,2.514,2.487,2.487,2.409,3.632,0,0,SEARCHING,0.000,0.800,-0.168,0.004
21:36:05.998,SEARCHING,7.914,2.729,1.739,0.00,0.00,37.37,2.384,2.359,2.384,2.335,3.575,0,0,SEARCHING,0.000,0.800,-0.178,0.000
21:36:06.198,SEARCHING,8.003,2.797,1.702,0.00,0.00,37.34,2.335,2.288,2.384,2.243,3.520,0,0,SEARCHING,0.000,0.800,-0.194,-0.007
21:36:06.398,SEARCHING,8.092,2.865,1.661,0.00,0.00,37.37,2.487,2.335,2.288,2.099,3.467,0,0,SEARCHING,0.000,0.800,-0.226,0.030
21:36:06.599,SEARCHING,8.181,2.933,1.614,0.00,0.00,37.98,3.415,3.365,2.288,2.025,3.365,0,0,SEARCHING,0.000,0.800,-0.236,0.123
21:36:06.800,SEARCHING,8.269,3.003,1.564,0.00,0.00,39.08,4.317,3.415,2.266,1.876,3.365,0,0,SEARCHING,0.000,0.800,-0.283,0.178
21:36:07.000,SEARCHING,8.355,3.074,1.506,0.00,0.00,40.57,4.868,3.415,2.266,1.747,3.269,0,0,SEARCHING,0.000,0.800,-0.320,0.201
21:36:07.201,SEARCHING,8.439,3.148,1.442,0.00,0.00,42.24,6.184,3.520,2.200,1.720,3.134,0,0,SEARCHING,0.000,0.800,-0.315,0.249
21:36:07.401,SEARCHING,8.521,3.225,1.379,0.00,0.00,44.20,6.022,3.691,2.243,1.634,2.972,0,0,SEARCHING,0.000,0.800,-0.330,0.238
21:36:07.602,SEARCHING,8.600,3.304,1.320,0.00,0.00,46.04,4.868,3.878,2.288,1.845,2.790,0,0,SEARCHING,0.000,0.800,-0.220,0.197
21:36:07.802,SEARCHING,8.677,3.386,1.276,0.00,0.00,47.54,4.317,4.160,2.288,2.790,2.661,0,0,SEARCHING,0.000,0.800,0.021,0.175
21:36:08.003,SEARCHING,8.752,3.469,1.281,0.00,0.00,48.93,4.014,3.945,2.335,2.514,2.692,0,0,SEARCHING,0.000,0.800,-0.031,0.152
21:36:08.202,SEARCHING,8.825,3.554,1.275,0.00,0.00,50.09,3.878,3.878,2.359,2.460,2.661,0,0,SEARCHING,0.000,0.800,-0.037,0.141
21:36:08.405,SEARCHING,8.896,3.641,1.266,0.00,0.00,51.19,3.691,4.014,2.384,2.359,2.630,0,0,SEARCHING,0.000,0.800,-0.052,0.126
21:36:08.605,SEARCHING,8.965,3.728,1.255,0.00,0.00,52.21,3.520,3.878,2.434,2.311,2.630,0,0,SEARCHING,0.000,0.800,-0.063,0.108
21:36:08.804,SEARCHING,9.033,3.817,1.241,0.00,0.00,53.10,3.467,3.751,2.409,2.200,2.571,0,0,SEARCHING,0.000,0.800,-0.079,0.108
21:36:09.006,SEARCHING,9.100,3.907,1.224,0.00,0.00,53.92,3.415,3.520,2.434,2.159,2.571,0,0,SEARCHING,0.000,0.800,-0.089,0.100
21:36:09.210,SEARCHING,9.165,3.998,1.204,0.00,0.00,54.68,3.365,3.520,2.487,2.138,2.571,0,0,SEARCHING,0.000,0.800,-0.094,0.089
21:36:09.410,SEARCHING,9.230,4.090,1.184,0.00,0.00,55.35,3.269,3.467,2.542,2.159,2.571,0,0,SEARCHING,0.000,0.800,-0.089,0.074
21:36:11.322,SEARCHING,9.293,4.182,1.167,0.00,0.00,55.87,3.134,3.365,2.542,2.200,2.571,0,0,SEARCHING,0.000,0.800,-0.079,0.063
21:36:11.525,SEARCHING,9.355,4.275,1.151,0.00,0.00,56.32,2.972,3.365,2.661,2.222,2.571,0,0,SEARCHING,0.000,0.800,-0.073,0.033
21:36:11.723,SEARCHING,9.417,4.369,1.137,0.00,0.00,56.69,3.011,3.223,2.630,2.266,2.542,0,0,SEARCHING,0.000,0.800,-0.058,0.041
21:36:11.925,SEARCHING,9.479,4.462,1.126,0.00,0.00,56.96,2.934,3.178,2.600,2.288,2.542,0,0,SEARCHING,0.000,0.800,-0.052,0.037
21:36:12.124,SEARCHING,9.539,4.556,1.117,0.00,0.00,57.26,2.896,3.134,2.600,2.288,2.542,0,0,SEARCHING,0.000,0.800,-0.052,0.033
21:36:12.325,SEARCHING,9.600,4.651,1.107,0.00,0.00,57.54,2.896,3.134,2.630,2.359,2.514,0,0,SEARCHING,0.000,0.800,-0.031,0.030
21:36:12.526,SEARCHING,9.660,4.745,1.101,0.00,0.00,57.78,2.934,3.134,2.630,2.311,2.487,0,0,SEARCHING,0.000,0.800,-0.037,0.033
21:36:12.726,SEARCHING,9.719,4.840,1.095,0.00,0.00,58.05,2.896,3.223,2.542,2.384,2.487,0,0,SEARCHING,0.000,0.800,-0.021,0.041
21:36:12.927,SEARCHING,9.778,4.935,1.092,0.00,0.00,58.40,2.860,3.269,2.409,2.409,2.460,0,0,SEARCHING,0.000,0.800,-0.010,0.056
21:36:13.128,SEARCHING,9.837,5.031,1.089,0.00,0.00,58.89,2.790,3.415,2.311,2.359,2.434,0,0,SEARCHING,0.000,0.800,-0.016,0.063
21:36:13.329,SEARCHING,9.894,5.127,1.085,0.00,0.00,59.42,2.757,3.520,2.200,2.384,2.460,0,0,SEARCHING,0.000,0.800,-0.016,0.078
21:36:13.528,SEARCHING,9.951,5.224,1.079,0.00,0.00,60.09,2.692,3.632,2.061,2.384,2.542,0,0,SEARCHING,0.000,0.800,-0.031,0.097
21:36:13.729,SEARCHING,10.006,5.321,1.073,0.00,0.00,60.89,2.661,3.751,1.973,2.359,2.542,0,0,SEARCHING,0.000,0.800,-0.037,0.111
21:36:13.930,SEARCHING,10.060,5.419,1.087,0.00,0.00,61.83,2.571,4.014,1.831,3.945,2.600,0,0,SEARCHING,0.000,0.800,0.157,0.134
21:36:14.131,SEARCHING,10.112,5.519,1.119,0.00,0.00,62.95,2.487,4.868,1.708,4.400,2.630,0,0,SEARCHING,0.000,0.800,0.184,0.156
21:36:14.333,SEARCHING,10.162,5.619,1.156,0.00,0.00,64.20,2.288,6.022,1.611,4.576,2.757,0,0,SEARCHING,0.000,0.800,0.173,0.156
21:36:14.533,SEARCHING,10.210,5.720,1.189,0.00,0.00,65.38,2.200,5.720,1.682,4.576,2.825,0,0,SEARCHING,0.000,0.800,0.163,0.119
21:36:14.734,SEARCHING,10.256,5.822,1.221,0.00,0.00,66.24,2.200,4.974,1.788,4.576,2.896,0,0,SEARCHING,0.000,0.800,0.152,0.089
21:36:14.934,SEARCHING,10.300,5.925,1.251,0.00,0.00,66.88,2.138,4.974,1.845,4.487,2.972,0,0,SEARCHING,0.000,0.800,0.136,0.063
21:36:15.135,SEARCHING,10.344,6.028,1.277,0.00,0.00,67.33,2.080,4.670,1.939,4.400,3.092,0,0,SEARCHING,0.000,0.800,0.115,0.030
21:36:15.336,SEARCHING,10.387,6.132,1.300,0.00,0.00,67.52,2.043,4.400,1.990,4.400,3.134,0,0,SEARCHING,0.000,0.800,0.110,0.011
21:36:15.537,SEARCHING,10.430,6.235,1.320,0.00,0.00,67.60,1.990,4.086,2.007,4.317,3.223,0,0,SEARCHING,0.000,0.800,0.094,-0.004
21:36:15.737,SEARCHING,10.472,6.339,1.339,0.00,0.00,67.63,1.990,3.945,2.025,4.086,3.269,0,0,SEARCHING,0.000,0.800,0.073,-0.007
21:36:15.934,SEARCHING,10.515,6.442,1.354,0.00,0.00,67.58,2.007,4.670,2.043,4.237,3.316,0,0,SEARCHING,0.000,0.800,0.079,-0.007
21:36:16.135,SEARCHING,10.558,6.546,1.367,0.00,0.00,67.54,1.990,3.878,2.061,4.086,3.316,0,0,SEARCHING,0.000,0.800,0.068,-0.015
21:36:16.335,SEARCHING,10.601,6.649,1.381,0.00,0.00,67.42,1.973,5.867,2.080,4.317,3.316,0,0,SEARCHING,0.000,0.800,0.084,-0.022
21:36:16.536,SEARCHING,10.644,6.753,1.398,0.00,0.00,67.24,1.973,6.184,2.061,4.317,3.365,0,0,SEARCHING,0.000,0.800,0.079,-0.019
21:36:16.736,SEARCHING,10.687,6.856,1.416,0.00,0.00,67.06,1.973,6.184,2.099,4.487,3.415,0,0,SEARCHING,0.000,0.800,0.084,-0.026
21:36:16.936,SEARCHING,10.731,6.959,1.432,0.00,0.00,66.82,1.973,6.022,2.119,4.487,3.467,0,0,SEARCHING,0.000,0.800,0.079,-0.030
21:36:17.137,SEARCHING,10.775,7.062,1.447,0.00,0.00,66.57,1.973,5.867,2.159,4.400,3.467,0,0,SEARCHING,0.000,0.800,0.073,-0.037
21:36:17.337,SEARCHING,10.820,7.164,1.462,0.00,0.00,66.33,1.990,5.867,2.138,4.317,3.520,0,0,SEARCHING,0.000,0.800,0.063,-0.030
21:36:17.538,SEARCHING,10.865,7.267,1.474,0.00,0.00,66.12,2.061,6.022,2.200,4.400,3.575,0,0,SEARCHING,0.000,0.800,0.063,-0.026
21:36:17.738,SEARCHING,10.911,7.369,1.485,0.00,0.00,65.87,2.080,5.200,2.179,4.086,3.691,0,0,SEARCHING,0.000,0.800,0.031,-0.019
21:36:17.938,SEARCHING,10.957,7.471,1.491,0.00,0.00,65.72,2.007,6.022,2.159,4.317,3.691,0,0,SEARCHING,0.000,0.800,0.047,-0.030
21:36:18.139,SEARCHING,11.003,7.573,1.501,0.00,0.00,65.54,2.061,5.321,2.119,4.400,3.632,0,0,SEARCHING,0.000,0.800,0.058,-0.011
21:36:18.340,SEARCHING,11.049,7.675,1.511,0.00,0.00,65.44,2.061,6.022,2.138,4.400,3.691,0,0,SEARCHING,0.000,0.800,0.052,-0.015
21:36:18.540,SEARCHING,11.096,7.777,1.521,0.00,0.00,65.30,2.061,5.085,2.119,4.487,3.751,0,0,SEARCHING,0.000,0.800,0.052,-0.011
21:36:18.741,SEARCHING,11.143,7.879,1.531,0.00,0.00,65.21,2.061,5.085,2.119,4.400,3.814,0,0,SEARCHING,0.000,0.800,0.042,-0.011
21:36:18.940,SEARCHING,11.190,7.980,1.539,0.00,0.00,65.11,2.061,5.085,2.179,4.487,3.814,0,0,SEARCHING,0.000,0.800,0.047,-0.022
21:36:19.140,SEARCHING,11.237,8.082,1.547,0.00,0.00,64.97,2.043,5.448,1.990,4.400,3.814,0,0,SEARCHING,0.000,0.800,0.042,0.011
21:36:19.341,SEARCHING,11.284,8.184,1.555,0.00,0.00,65.03,2.043,5.448,1.990,4.400,3.878,0,0,SEARCHING,0.000,0.800,0.037,0.011
21:36:19.541,SEARCHING,11.332,8.285,1.563,0.00,0.00,65.06,2.025,5.200,1.973,4.317,3.878,0,0,SEARCHING,0.000,0.800,0.031,0.011
21:36:19.742,SEARCHING,11.379,8.387,1.570,0.00,0.00,63.95,4.670,5.200,5.867,4.400,3.878,0,0,SEARCHING,0.000,0.800,0.037,-0.037
21:36:19.942,SEARCHING,11.429,8.487,1.576,0.00,0.00,63.68,4.317,4.767,6.022,4.317,3.945,0,0,SEARCHING,0.000,0.800,0.026,-0.056
21:36:20.143,SEARCHING,11.479,8.587,1.583,0.00,0.00,63.26,4.317,4.868,6.184,4.317,3.945,0,0,SEARCHING,0.000,0.800,0.026,-0.059
21:36:20.343,SEARCHING,11.529,8.687,1.588,0.00,0.00,62.84,4.576,4.868,6.022,4.400,3.945,0,0,SEARCHING,0.000,0.800,0.031,-0.045
21:36:20.545,SEARCHING,11.581,8.786,1.595,0.00,0.00,59.82,4.400,4.767,5.321,4.400,3.878,0,0,SEARCHING,0.000,0.800,0.037,-0.033
21:36:20.745,SEARCHING,11.638,8.883,1.602,0.00,0.00,59.60,4.237,4.767,5.085,4.487,4.014,0,0,SEARCHING,0.000,0.800,0.031,-0.033
21:36:20.945,SEARCHING,11.695,8.979,1.608,0.00,0.00,59.34,4.317,4.767,5.085,4.400,4.086,0,0,SEARCHING,0.000,0.800,0.021,-0.030
21:36:21.146,SEARCHING,11.752,9.076,1.612,0.00,0.00,59.10,4.317,4.767,4.974,4.400,4.086,0,0,SEARCHING,0.000,0.800,0.021,-0.026
21:36:21.346,SEARCHING,11.810,9.172,1.617,0.00,0.00,58.89,3.751,4.670,4.974,4.400,4.086,0,0,SEARCHING,0.000,0.800,0.021,-0.056
21:36:21.547,SEARCHING,11.868,9.267,1.621,0.00,0.00,58.45,1.179,4.670,4.868,4.400,4.160,0,0,SEARCHING,0.000,0.800,0.016,-0.546
21:36:21.748,SEARCHING,11.929,9.361,1.624,0.00,0.00,56.14,3.878,4.868,4.576,4.400,4.160,0,0,SEARCHING,0.000,0.800,0.016,-0.033
21:36:21.949,SEARCHING,11.992,9.454,1.627,0.00,0.00,55.87,3.878,4.868,4.576,4.400,4.086,0,0,SEARCHING,0.000,0.800,0.021,-0.033
21:36:22.149,SEARCHING,12.055,9.547,1.630,0.00,0.00,55.57,3.632,4.868,4.487,4.400,4.086,0,0,SEARCHING,0.000,0.800,0.021,-0.045
21:36:22.350,SEARCHING,12.118,9.639,1.634,0.00,0.00,55.14,3.575,4.767,4.487,4.317,4.086,0,0,SEARCHING,0.000,0.800,0.016,-0.048
21:36:22.550,SEARCHING,12.183,9.730,1.637,0.00,0.00,54.69,3.316,4.767,4.317,4.317,4.086,0,0,SEARCHING,0.000,0.800,0.016,-0.059
21:36:22.750,SEARCHING,12.248,9.822,1.640,0.00,0.00,54.23,3.467,4.767,4.317,4.317,4.086,0,0,SEARCHING,0.000,0.800,0.016,-0.048
21:36:22.950,SEARCHING,12.313,9.912,1.644,0.00,0.00,53.83,3.316,4.670,4.237,4.317,4.086,0,0,SEARCHING,0.000,0.800,0.016,-0.056
21:36:23.151,SEARCHING,12.380,10.003,1.646,0.00,0.00,53.35,3.092,4.767,4.160,4.317,4.160,0,0,SEARCHING,0.000,0.800,0.010,-0.071
21:36:23.352,SEARCHING,12.447,10.092,1.648,0.00,0.00,52.82,2.934,4.670,4.086,4.237,4.160,0,0,SEARCHING,0.000,0.800,0.005,-0.082
21:36:23.553,SEARCHING,12.515,10.181,1.650,0.00,0.00,52.19,2.934,4.576,3.945,4.237,4.086,0,0,SEARCHING,0.000,0.800,0.010,-0.074
21:36:23.753,SEARCHING,12.584,10.269,1.652,0.00,0.00,51.58,2.896,4.576,3.878,4.317,4.086,0,0,SEARCHING,0.000,0.800,0.016,-0.074
21:36:23.954,SEARCHING,12.654,10.357,1.655,0.00,0.00,50.98,2.860,4.400,3.751,4.317,4.086,0,0,SEARCHING,0.000,0.800,0.016,-0.071
21:36:24.156,SEARCHING,12.725,10.443,1.658,0.00,0.00,50.42,2.896,4.317,3.691,4.317,4.086,0,0,SEARCHING,0.000,0.800,0.016,-0.063
21:36:24.355,SEARCHING,12.797,10.529,1.661,0.00,0.00,49.91,2.860,4.086,3.575,4.237,4.086,0,0,SEARCHING,0.000,0.800,0.010,-0.059
21:36:24.555,SEARCHING,12.869,10.615,1.663,0.00,0.00,49.43,2.825,4.086,3.575,4.317,4.086,0,0,SEARCHING,0.000,0.800,0.016,-0.063
21:36:24.756,SEARCHING,12.942,10.700,1.667,0.00,0.00,48.91,2.790,3.878,3.520,4.317,3.945,0,0,SEARCHING,0.000,0.800,0.026,-0.063
21:36:24.956,SEARCHING,13.016,10.784,1.672,0.00,0.00,48.41,2.790,3.751,3.467,4.317,3.814,0,0,SEARCHING,0.000,0.800,0.037,-0.059
21:36:25.157,SEARCHING,13.091,10.867,1.679,0.00,0.00,47.93,2.757,3.691,3.415,4.237,3.691,0,0,SEARCHING,0.000,0.800,0.042,-0.059
21:36:25.358,SEARCHING,13.166,10.950,1.687,0.00,0.00,47.47,2.724,3.632,3.365,4.237,3.575,0,0,SEARCHING,0.000,0.800,0.052,-0.059
21:36:25.558,SEARCHING,13.242,11.032,1.697,0.00,0.00,47.01,2.757,3.520,3.269,4.237,3.520,0,0,SEARCHING,0.000,0.800,0.058,-0.048
21:36:25.758,SEARCHING,13.319,11.114,1.710,0.00,0.00,46.63,2.724,3.415,3.178,4.160,3.415,0,0,SEARCHING,0.000,0.800,0.063,-0.045
21:36:25.959,SEARCHING,13.396,11.195,1.723,0.00,0.00,46.29,2.757,3.316,3.178,4.160,3.316,0,0,SEARCHING,0.000,0.800,0.073,-0.041
21:36:26.160,SEARCHING,13.474,11.276,1.738,0.00,0.00,45.96,2.692,3.223,3.092,4.160,3.223,0,0,SEARCHING,0.000,0.800,0.084,-0.041
21:36:26.361,SEARCHING,13.552,11.356,1.754,0.00,0.00,45.63,2.724,3.092,3.051,4.086,3.092,0,0,SEARCHING,0.000,0.800,0.094,-0.033
21:36:26.561,SEARCHING,13.630,11.436,1.773,0.00,0.00,45.37,2.692,2.724,3.011,4.086,2.692,0,0,SEARCHING,0.000,0.800,0.152,-0.033
21:36:26.762,SEARCHING,13.709,11.516,1.804,0.00,0.00,45.08,2.661,2.692,2.934,4.014,2.661,0,0,SEARCHING,0.000,0.800,0.152,-0.030
21:36:26.963,SEARCHING,13.788,11.595,1.831,0.00,0.00,44.80,2.630,2.790,2.934,3.814,2.790,0,0,SEARCHING,0.000,0.800,0.115,-0.033
21:36:27.164,SEARCHING,13.868,11.674,1.856,0.00,0.00,44.52,3.011,2.630,2.896,3.878,2.630,0,0,SEARCHING,0.000,0.800,0.147,0.011
21:36:27.364,SEARCHING,13.948,11.752,1.885,0.00,0.00,44.58,2.757,2.630,2.896,3.751,2.600,0,0,SEARCHING,0.000,0.800,0.142,-0.015
21:36:27.564,SEARCHING,14.028,11.831,1.916,0.00,0.00,44.41,2.460,2.487,2.860,3.691,2.434,0,0,SEARCHING,0.000,0.800,0.168,-0.048
21:36:27.765,SEARCHING,14.108,11.909,1.951,0.00,0.00,44.06,4.487,2.409,2.790,3.632,2.288,0,0,SEARCHING,0.000,0.800,0.194,0.115
21:36:27.965,SEARCHING,14.188,11.987,1.989,0.00,0.00,44.95,4.400,4.576,2.860,3.520,2.200,0,0,SEARCHING,0.000,0.800,0.205,0.104
21:36:28.166,SEARCHING,14.267,12.067,2.029,0.00,0.00,45.77,4.317,4.576,2.896,3.365,2.099,0,0,SEARCHING,0.000,0.800,0.215,0.097
21:36:28.366,SEARCHING,14.344,12.148,2.073,0.00,0.00,46.53,4.160,4.576,2.860,3.269,2.025,0,0,SEARCHING,0.000,0.800,0.226,0.093
21:36:28.567,SEARCHING,14.421,12.229,2.119,0.00,0.00,47.23,4.086,4.670,2.934,3.178,1.907,0,0,SEARCHING,0.000,0.800,0.252,0.082
21:36:28.768,SEARCHING,14.496,12.312,2.170,0.00,0.00,47.91,3.945,4.767,2.825,3.011,1.816,0,0,SEARCHING,0.000,0.800,0.262,0.085
21:36:28.969,SEARCHING,14.571,12.396,2.225,0.00,0.00,48.58,3.814,5.200,2.757,2.860,1.747,0,0,SEARCHING,0.000,0.800,0.267,0.085
21:36:29.169,SEARCHING,14.645,12.480,2.279,0.00,0.00,49.27,3.691,6.538,2.724,2.724,1.733,0,0,SEARCHING,0.000,0.800,0.252,0.082
21:36:29.370,SEARCHING,14.717,12.565,2.328,0.00,0.00,49.93,3.691,7.151,2.724,2.600,1.747,0,0,SEARCHING,0.000,0.800,0.226,0.082
21:36:29.570,SEARCHING,14.789,12.651,2.318,0.00,0.00,50.61,3.632,6.934,2.724,2.600,5.867,0,0,SEARCHING,0.000,0.800,-0.257,0.078
21:36:29.771,SEARCHING,14.860,12.738,2.271,0.00,0.00,51.22,3.520,6.538,2.790,2.825,5.720,0,0,SEARCHING,0.000,0.800,-0.215,0.063
21:36:29.972,SEARCHING,14.930,12.826,2.287,0.00,0.00,51.73,3.365,6.538,2.724,2.790,5.720,0,0,SEARCHING,0.000,0.800,-0.220,0.059
21:36:30.173,SEARCHING,14.999,12.914,2.237,0.00,0.00,52.24,3.316,6.356,2.724,2.896,5.581,0,0,SEARCHING,0.000,0.800,-0.199,0.056
21:36:30.373,SEARCHING,15.067,13.003,2.198,0.00,0.00,52.68,3.269,6.184,2.724,2.934,5.581,0,0,SEARCHING,0.000,0.800,-0.194,0.052
21:36:30.573,SEARCHING,15.135,13.092,2.163,0.00,0.00,53.07,3.269,6.022,2.724,3.051,5.448,0,0,SEARCHING,0.000,0.800,-0.173,0.052
21:36:30.774,SEARCHING,15.202,13.182,2.129,0.00,0.00,53.49,3.223,5.867,2.692,3.134,5.321,0,0,SEARCHING,0.000,0.800,-0.157,0.052
21:36:30.974,SEARCHING,15.268,13.272,2.098,0.00,0.00,53.89,3.134,5.581,2.757,3.223,5.200,0,0,SEARCHING,0.000,0.800,-0.142,0.037
21:36:31.175,SEARCHING,15.334,13.363,2.070,0.00,0.00,54.19,3.051,5.581,2.757,3.269,5.200,0,0,SEARCHING,0.000,0.800,-0.136,0.030
21:36:31.376,SEARCHING,15.399,13.453,2.044,0.00,0.00,54.44,3.051,5.321,2.724,3.365,5.085,0,0,SEARCHING,0.000,0.800,-0.121,0.033
21:36:31.576,SEARCHING,15.464,13.545,2.021,0.00,0.00,54.71,3.011,5.321,2.661,3.415,5.085,0,0,SEARCHING,0.000,0.800,-0.115,0.037
21:36:31.777,SEARCHING,15.529,13.636,1.998,0.00,0.00,54.96,2.972,5.085,2.724,3.520,4.974,0,0,SEARCHING,0.000,0.800,-0.100,0.026
21:36:31.982,SEARCHING,15.593,13.728,1.978,0.00,0.00,55.19,2.934,4.974,2.692,3.467,4.868,0,0,SEARCHING,0.000,0.800,-0.100,0.026
21:36:32.182,SEARCHING,15.656,13.820,1.960,0.00,0.00,55.33,2.896,4.974,2.825,3.632,4.767,0,0,SEARCHING,0.000,0.800,-0.079,0.007
21:36:32.382,SEARCHING,15.720,13.912,1.944,0.00,0.00,55.35,2.860,4.868,3.223,3.632,4.767,0,0,SEARCHING,0.000,0.800,-0.079,-0.033
21:36:32.582,SEARCHING,15.784,14.004,1.929,0.00,0.00,55.08,2.896,4.868,3.269,3.751,4.767,0,0,SEARCHING,0.000,0.800,-0.068,-0.033
21:36:32.784,SEARCHING,15.848,14.096,1.915,0.00,0.00,54.81,2.860,4.767,3.467,3.751,4.670,0,0,SEARCHING,0.000,0.800,-0.063,-0.052
21:36:32.985,SEARCHING,15.913,14.187,1.903,0.00,0.00,54.41,2.934,4.767,3.415,3.751,4.670,0,0,SEARCHING,0.000,0.800,-0.063,-0.041
21:36:33.186,SEARCHING,15.979,14.278,1.890,0.00,0.00,54.13,2.896,4.767,3.520,3.751,4.670,0,0,SEARCHING,0.000,0.800,-0.063,-0.052
21:36:33.387,SEARCHING,16.044,14.369,1.878,0.00,0.00,53.75,2.896,4.767,3.520,3.814,4.670,0,0,SEARCHING,0.000,0.800,-0.058,-0.052
21:36:33.587,SEARCHING,16.111,14.459,1.866,0.00,0.00,53.17,2.896,4.767,4.160,3.814,4.670,0,0,SEARCHING,0.000,0.800,-0.058,-0.089
21:36:33.787,SEARCHING,16.179,14.548,1.856,0.00,0.00,52.47,2.972,4.868,4.160,3.814,4.576,0,0,SEARCHING,0.000,0.800,-0.052,-0.082
21:36:33.988,SEARCHING,16.247,14.637,1.846,0.00,0.00,51.79,2.896,4.974,4.086,3.878,4.576,0,0,SEARCHING,0.000,0.800,-0.047,-0.085
21:36:34.188,SEARCHING,16.317,14.724,1.837,0.00,0.00,51.12,2.860,5.085,4.014,3.945,4.487,0,0,SEARCHING,0.000,0.800,-0.037,-0.085
21:36:34.388,SEARCHING,16.388,14.811,1.829,0.00,0.00,50.42,2.825,5.321,4.014,3.945,4.487,0,0,SEARCHING,0.000,0.800,-0.037,-0.089
21:36:34.590,SEARCHING,16.460,14.897,1.821,0.00,0.00,49.75,2.860,5.581,3.814,3.945,4.576,0,0,SEARCHING,0.000,0.800,-0.042,-0.074
21:36:34.791,SEARCHING,16.532,14.982,1.813,0.00,0.00,49.14,2.860,5.581,3.814,4.014,4.576,0,0,SEARCHING,0.000,0.800,-0.037,-0.074
21:36:34.990,SEARCHING,16.606,15.067,1.806,0.00,0.00,48.56,2.825,5.720,3.691,4.014,4.487,0,0,SEARCHING,0.000,0.800,-0.031,-0.071
21:36:35.191,SEARCHING,16.680,15.150,1.800,0.00,0.00,47.97,2.860,5.720,3.632,4.014,4.487,0,0,SEARCHING,0.000,0.800,-0.031,-0.063
21:36:35.395,SEARCHING,16.756,15.233,1.794,0.00,0.00,47.45,2.860,5.867,3.575,4.014,4.487,0,0,SEARCHING,0.000,0.800,-0.031,-0.059
21:36:35.594,SEARCHING,16.832,15.315,1.788,0.00,0.00,46.95,2.825,5.867,3.520,4.086,4.400,0,0,SEARCHING,0.000,0.800,-0.021,-0.059
21:36:35.794,SEARCHING,16.909,15.397,1.784,0.00,0.00,46.47,2.790,5.867,3.467,4.086,4.400,0,0,SEARCHING,0.000,0.800,-0.021,-0.059
21:36:35.995,SEARCHING,16.986,15.478,1.780,0.00,0.00,45.98,2.825,6.022,3.415,4.086,4.400,0,0,SEARCHING,0.000,0.800,-0.021,-0.052
21:36:36.196,SEARCHING,17.064,15.558,1.775,0.00,0.00,45.58,2.825,6.022,3.365,4.086,4.400,0,0,SEARCHING,0.000,0.800,-0.021,-0.048
21:36:36.396,SEARCHING,17.143,15.638,1.771,0.00,0.00,45.19,2.757,6.022,3.316,4.086,4.487,0,0,SEARCHING,0.000,0.800,-0.026,-0.052
21:36:36.597,SEARCHING,17.222,15.717,1.767,0.00,0.00,44.77,2.790,6.184,3.269,4.086,4.400,0,0,SEARCHING,0.000,0.800,-0.021,-0.045
21:36:36.798,SEARCHING,17.302,15.796,1.763,0.00,0.00,44.41,2.825,6.184,3.269,4.086,4.400,0,0,SEARCHING,0.000,0.800,-0.021,-0.041
21:36:36.999,SEARCHING,17.382,15.874,1.759,0.00,0.00,44.09,2.757,6.356,3.223,4.014,4.400,0,0,SEARCHING,0.000,0.800,-0.026,-0.045
21:36:37.198,SEARCHING,17.463,15.952,1.755,0.00,0.00,43.73,2.757,6.356,3.223,4.160,4.400,0,0,SEARCHING,0.000,0.800,-0.016,-0.045
21:36:37.399,SEARCHING,17.544,16.029,1.752,0.00,0.00,43.39,2.896,6.356,3.178,4.086,4.317,0,0,SEARCHING,0.000,0.800,-0.016,-0.026
21:36:37.601,SEARCHING,17.625,16.106,1.748,0.00,0.00,43.24,3.051,6.538,3.092,4.237,4.237,0,0,SEARCHING,0.000,0.800,0.000,-0.004
21:36:37.801,SEARCHING,17.707,16.182,1.748,0.00,0.00,43.19,3.011,6.356,3.092,4.160,4.317,0,0,SEARCHING,0.000,0.800,-0.010,-0.007
21:36:38.001,SEARCHING,17.788,16.259,1.745,0.00,0.00,43.16,3.092,6.356,3.092,4.160,4.317,0,0,SEARCHING,0.000,0.800,-0.010,0.000
21:36:38.202,SEARCHING,17.870,16.336,1.743,0.00,0.00,43.15,3.011,6.356,3.092,4.160,4.317,0,0,SEARCHING,0.000,0.800,-0.010,-0.007
21:36:38.402,SEARCHING,17.952,16.412,1.741,0.00,0.00,43.12,3.011,6.356,3.051,4.160,4.317,0,0,SEARCHING,0.000,0.800,-0.010,-0.004
21:36:38.602,SEARCHING,18.034,16.489,1.738,0.00,0.00,43.09,3.011,6.356,3.051,4.160,4.317,0,0,SEARCHING,0.000,0.800,-0.010,-0.004
21:36:38.803,SEARCHING,18.115,16.565,1.736,0.00,0.00,43.09,3.011,6.356,3.092,4.160,4.317,0,0,SEARCHING,0.000,0.800,-0.010,-0.007
21:36:39.004,SEARCHING,18.197,16.642,1.734,0.00,0.00,43.04,3.011,6.356,3.011,4.237,4.400,0,0,SEARCHING,0.000,0.800,-0.010,0.000
21:36:39.205,SEARCHING,18.279,16.718,1.733,0.00,0.00,43.03,3.011,6.184,3.178,4.160,4.400,0,0,SEARCHING,0.000,0.800,-0.016,-0.015
21:36:39.405,SEARCHING,18.361,16.794,1.730,0.00,0.00,42.88,2.972,6.184,4.086,4.160,4.317,0,0,SEARCHING,0.000,0.800,-0.010,-0.078
21:36:39.605,SEARCHING,18.444,16.870,1.729,0.00,0.00,42.27,2.972,6.184,4.014,4.237,4.317,0,0,SEARCHING,0.000,0.800,-0.005,-0.074
21:36:39.806,SEARCHING,18.527,16.945,1.728,0.00,0.00,41.69,3.011,6.022,4.014,4.317,4.317,0,0,SEARCHING,0.000,0.800,0.000,-0.071
21:36:40.007,SEARCHING,18.611,17.019,1.727,0.00,0.00,41.15,3.011,6.022,3.945,4.237,4.317,0,0,SEARCHING,0.000,0.800,-0.005,-0.067
21:36:40.207,SEARCHING,18.695,17.093,1.727,0.00,0.00,40.63,2.972,5.867,3.878,4.160,4.237,0,0,SEARCHING,0.000,0.800,-0.005,-0.067
21:36:40.408,SEARCHING,18.781,17.165,1.725,0.00,0.00,40.14,3.092,5.720,3.878,4.237,4.317,0,0,SEARCHING,0.000,0.800,-0.005,-0.056
21:36:40.609,SEARCHING,18.866,17.237,1.724,0.00,0.00,39.69,3.092,5.448,3.751,4.237,4.237,0,0,SEARCHING,0.000,0.800,0.000,-0.048
21:36:40.810,SEARCHING,18.953,17.308,1.724,0.00,0.00,39.29,3.092,5.448,3.751,4.237,4.317,0,0,SEARCHING,0.000,0.800,-0.005,-0.048
21:36:41.012,SEARCHING,19.040,17.379,1.723,0.00,0.00,38.89,3.134,5.321,3.751,4.237,4.317,0,0,SEARCHING,0.000,0.800,-0.005,-0.045
21:36:41.212,SEARCHING,19.127,17.449,1.722,0.00,0.00,38.53,3.134,5.200,3.691,4.237,4.237,0,0,SEARCHING,0.000,0.800,0.000,-0.041
21:36:41.413,SEARCHING,19.215,17.519,1.721,0.00,0.00,38.25,3.178,5.085,3.691,4.237,4.317,0,0,SEARCHING,0.000,0.800,-0.005,-0.037
21:36:41.613,SEARCHING,19.303,17.588,1.720,0.00,0.00,37.92,3.092,4.974,3.691,4.237,4.317,0,0,SEARCHING,0.000,0.800,-0.005,-0.045
21:36:41.814,SEARCHING,19.392,17.656,1.720,0.00,0.00,37.59,3.178,4.868,3.632,4.237,4.317,0,0,SEARCHING,0.000,0.800,-0.005,-0.033
21:36:42.014,SEARCHING,19.480,17.725,1.719,0.00,0.00,37.32,3.269,4.767,3.632,4.237,4.317,0,0,SEARCHING,0.000,0.800,-0.005,-0.026
21:36:42.215,SEARCHING,19.570,17.792,1.719,0.00,0.00,37.10,3.178,4.670,3.632,4.237,4.317,0,0,SEARCHING,0.000,0.800,-0.005,-0.033
21:36:42.416,SEARCHING,19.659,17.860,1.717,0.00,0.00,36.84,3.178,4.576,3.632,4.237,4.317,0,0,SEARCHING,0.000,0.800,-0.005,-0.033
21:36:42.616,SEARCHING,19.749,17.927,1.715,0.00,0.00,36.65,3.223,4.400,3.575,4.237,4.237,0,0,SEARCHING,0.000,0.800,0.000,-0.026
21:36:42.818,SEARCHING,19.839,17.993,1.715,0.00,0.00,36.44,3.223,4.317,3.632,4.237,4.317,0,0,SEARCHING,0.000,0.800,-0.005,-0.030
21:36:43.021,SEARCHING,19.929,18.060,1.714,0.00,0.00,36.22,3.316,4.237,3.575,4.160,4.317,0,0,SEARCHING,0.000,0.800,-0.010,-0.019
21:36:43.224,SEARCHING,20.019,18.126,1.712,0.00,0.00,36.07,3.223,3.945,3.575,4.086,4.160,0,0,SEARCHING,0.000,0.800,-0.005,-0.026
21:36:45.144,SEARCHING,20.110,18.192,1.710,0.00,0.00,35.91,3.269,3.878,3.520,3.945,4.317,0,0,SEARCHING,0.000,0.800,-0.026,-0.019
21:36:45.161,SEARCHING,20.162,18.229,1.705,0.00,0.00,35.82,3.269,3.878,3.520,3.945,4.237,0,0,SEARCHING,0.000,0.800,-0.021,-0.019
21:36:45.254,SEARCHING,20.227,18.276,1.701,0.00,0.00,35.71,3.316,3.814,3.520,3.814,4.237,0,0,SEARCHING,0.000,0.800,-0.031,-0.015
21:36:45.440,SEARCHING,20.318,18.341,1.693,0.00,0.00,35.55,3.269,3.520,3.520,3.632,4.086,0,0,SEARCHING,0.000,0.800,-0.037,-0.019
21:36:45.640,SEARCHING,20.409,18.406,1.683,0.00,0.00,35.42,3.365,3.365,3.467,3.415,4.237,0,0,SEARCHING,0.000,0.800,-0.068,-0.007
21:36:45.841,SEARCHING,20.500,18.471,1.670,0.00,0.00,35.36,3.632,3.316,3.467,3.316,4.237,0,0,SEARCHING,0.000,0.800,-0.079,0.011
21:36:46.041,SEARCHING,20.592,18.536,1.654,0.00,0.00,35.45,3.751,3.223,3.467,3.223,4.086,0,0,SEARCHING,0.000,0.800,-0.079,0.019
21:36:46.242,SEARCHING,20.683,18.601,1.638,0.00,0.00,35.58,3.814,3.223,3.415,3.134,4.086,0,0,SEARCHING,0.000,0.800,-0.089,0.026
21:36:46.444,SEARCHING,20.774,18.666,1.619,0.00,0.00,35.76,3.751,3.092,3.520,3.051,4.014,0,0,SEARCHING,0.000,0.800,-0.094,0.015
21:36:46.643,SEARCHING,20.865,18.732,1.599,0.00,0.00,35.88,3.751,2.972,3.467,2.934,4.014,0,0,SEARCHING,0.000,0.800,-0.110,0.019
21:36:46.844,SEARCHING,20.955,18.798,1.575,0.00,0.00,36.01,3.691,2.724,3.467,2.757,3.878,0,0,SEARCHING,0.000,0.800,-0.126,0.015
21:36:47.045,SEARCHING,21.046,18.864,1.551,0.00,0.00,36.16,3.691,2.630,3.467,2.724,3.878,0,0,SEARCHING,0.000,0.800,-0.131,0.015
21:36:47.247,SEARCHING,21.136,18.930,1.524,0.00,0.00,36.28,3.751,2.630,3.520,2.630,3.814,0,0,SEARCHING,0.000,0.800,-0.142,0.015
21:36:47.446,SEARCHING,21.226,18.996,1.495,0.00,0.00,36.38,3.632,2.514,3.520,2.600,3.751,0,0,SEARCHING,0.000,0.800,-0.142,0.007
21:36:47.647,SEARCHING,21.317,19.063,1.465,0.00,0.00,36.43,3.575,2.409,3.520,2.335,3.691,0,0,SEARCHING,0.000,0.800,-0.189,0.004
21:36:47.847,SEARCHING,21.407,19.129,1.425,0.00,0.00,36.43,3.575,5.448,3.520,2.266,3.575,0,0,SEARCHING,0.000,0.800,-0.194,0.004
21:36:48.048,SEARCHING,21.497,19.196,1.388,0.00,0.00,36.44,3.520,5.200,3.814,2.266,3.467,0,0,SEARCHING,0.000,0.800,-0.184,-0.019
21:36:48.249,SEARCHING,21.587,19.262,1.351,0.00,0.00,35.95,3.467,5.200,5.867,2.159,3.365,0,0,SEARCHING,0.000,0.800,-0.199,-0.100
21:36:48.450,SEARCHING,21.678,19.327,1.310,0.00,0.00,35.10,3.415,5.200,6.184,2.043,3.269,0,0,SEARCHING,0.000,0.800,-0.220,-0.111
21:36:48.650,SEARCHING,21.770,19.391,1.263,0.00,0.00,34.21,3.415,5.200,5.867,1.891,3.178,0,0,SEARCHING,0.000,0.800,-0.257,-0.104
21:36:48.847,SEARCHING,21.863,19.453,1.211,0.00,0.00,33.36,3.467,5.085,5.867,1.788,2.972,0,0,SEARCHING,0.000,0.800,-0.267,-0.100
21:36:49.047,SEARCHING,21.957,19.514,1.156,0.00,0.00,32.56,3.467,5.200,3.092,1.720,2.825,0,0,SEARCHING,0.000,0.800,-0.273,0.030
21:36:49.247,SEARCHING,22.051,19.575,1.101,0.00,0.00,32.26,3.467,5.085,5.867,1.708,2.692,0,0,SEARCHING,0.000,0.800,-0.257,-0.100
21:36:49.449,SEARCHING,22.147,19.634,1.049,0.00,0.00,31.45,3.415,5.200,6.022,5.085,2.571,0,0,SEARCHING,0.000,0.800,0.231,-0.108
21:36:49.648,SEARCHING,22.242,19.692,1.097,0.00,0.00,30.62,3.520,5.200,5.867,5.200,2.692,0,0,SEARCHING,0.000,0.800,0.215,-0.097
21:36:49.850,SEARCHING,22.339,19.748,1.139,0.00,0.00,29.89,3.520,5.200,5.581,5.085,2.790,0,0,SEARCHING,0.000,0.800,0.194,-0.089
21:36:50.051,SEARCHING,22.437,19.803,1.177,0.00,0.00,29.23,3.575,5.200,5.581,5.200,2.896,0,0,SEARCHING,0.000,0.800,0.184,-0.085
21:36:50.251,SEARCHING,22.535,19.858,1.213,0.00,0.00,28.56,3.575,5.085,5.448,5.085,2.757,0,0,SEARCHING,0.000,0.800,0.199,-0.082
21:36:50.451,SEARCHING,22.633,19.911,1.255,0.00,0.00,27.92,3.632,5.085,5.321,5.085,3.092,0,0,SEARCHING,0.000,0.800,0.152,-0.074
21:36:50.651,SEARCHING,22.732,19.963,1.284,0.00,0.00,27.33,3.632,5.085,5.448,5.085,3.223,0,0,SEARCHING,0.000,0.800,0.136,-0.078
21:36:50.853,SEARCHING,22.832,20.014,1.312,0.00,0.00,26.70,3.575,5.085,5.321,5.085,3.269,0,0,SEARCHING,0.000,0.800,0.131,-0.078
21:36:51.053,SEARCHING,22.932,20.064,1.337,0.00,0.00,26.06,3.520,5.085,5.321,5.085,3.316,0,0,SEARCHING,0.000,0.800,0.126,-0.082
21:36:51.254,SEARCHING,23.033,20.112,1.362,0.00,0.00,25.39,3.467,4.974,5.200,4.974,3.365,0,0,SEARCHING,0.000,0.800,0.115,-0.082
21:36:51.454,SEARCHING,23.135,20.160,1.384,0.00,0.00,24.72,3.415,5.085,5.200,4.974,3.415,0,0,SEARCHING,0.000,0.800,0.110,-0.085
21:36:51.655,SEARCHING,23.237,20.206,1.406,0.00,0.00,24.03,3.415,5.085,5.085,4.974,3.467,0,0,SEARCHING,0.000,0.800,0.105,-0.082
21:36:51.856,SEARCHING,23.339,20.251,1.427,0.00,0.00,23.38,3.316,4.974,4.974,4.974,3.575,0,0,SEARCHING,0.000,0.800,0.094,-0.085
21:36:52.056,SEARCHING,23.442,20.295,1.445,0.00,0.00,22.72,3.365,4.974,4.868,4.974,3.575,0,0,SEARCHING,0.000,0.800,0.094,-0.078
21:36:52.258,SEARCHING,23.546,20.338,1.463,0.00,0.00,22.10,3.365,4.974,4.868,4.868,3.691,0,0,SEARCHING,0.000,0.800,0.079,-0.078
21:36:52.458,SEARCHING,23.650,20.379,1.479,0.00,0.00,21.47,3.365,4.974,4.767,4.868,3.691,0,0,SEARCHING,0.000,0.800,0.079,-0.074
21:36:52.657,SEARCHING,23.754,20.420,1.495,0.00,0.00,20.89,3.223,4.974,4.670,4.767,3.751,0,0,SEARCHING,0.000,0.800,0.068,-0.082
21:36:52.857,SEARCHING,23.859,20.459,1.511,0.00,0.00,20.26,3.223,4.974,4.576,4.767,3.751,0,0,SEARCHING,0.000,0.800,0.068,-0.078
21:36:53.058,SEARCHING,23.964,20.498,1.524,0.00,0.00,19.62,3.316,4.974,4.487,4.767,3.814,0,0,SEARCHING,0.000,0.800,0.063,-0.067
21:36:53.258,SEARCHING,24.070,20.535,1.536,0.00,0.00,19.07,3.269,4.974,4.487,4.767,3.814,0,0,SEARCHING,0.000,0.800,0.063,-0.071
21:36:53.458,SEARCHING,24.176,20.571,1.548,0.00,0.00,18.54,3.223,4.868,4.400,4.767,3.878,0,0,SEARCHING,0.000,0.800,0.058,-0.071
21:36:53.659,SEARCHING,24.282,20.606,1.559,0.00,0.00,18.01,3.223,4.974,4.237,4.576,3.878,0,0,SEARCHING,0.000,0.800,0.047,-0.063
21:36:53.861,SEARCHING,24.389,20.640,1.569,0.00,0.00,17.51,3.178,4.868,4.237,4.576,3.945,0,0,SEARCHING,0.000,0.800,0.042,-0.067
21:36:54.060,SEARCHING,24.496,20.674,1.578,0.00,0.00,17.00,3.178,4.868,4.086,4.670,3.945,0,0,SEARCHING,0.000,0.800,0.047,-0.059
21:36:54.262,SEARCHING,24.603,20.706,1.586,0.00,0.00,16.52,3.134,4.767,4.014,4.576,4.014,0,0,SEARCHING,0.000,0.800,0.037,-0.059
21:36:54.463,SEARCHING,24.711,20.738,1.594,0.00,0.00,16.05,3.092,4.767,3.945,4.576,4.014,0,0,SEARCHING,0.000,0.800,0.037,-0.059
21:36:54.664,SEARCHING,24.818,20.768,1.602,0.00,0.00,15.59,3.092,4.670,3.814,4.487,4.014,0,0,SEARCHING,0.000,0.800,0.031,-0.052
21:36:54.865,SEARCHING,24.926,20.798,1.607,0.00,0.00,15.17,3.092,4.670,3.691,4.487,4.086,0,0,SEARCHING,0.000,0.800,0.026,-0.045
21:36:55.066,SEARCHING,25.034,20.827,1.613,0.00,0.00,14.78,3.011,4.576,3.632,4.487,4.014,0,0,SEARCHING,0.000,0.800,0.031,-0.048
21:36:55.267,SEARCHING,25.143,20.855,1.619,0.00,0.00,14.41,3.011,4.487,3.520,4.487,4.086,0,0,SEARCHING,0.000,0.800,0.026,-0.041
21:36:55.467,SEARCHING,25.251,20.883,1.624,0.00,0.00,14.08,2.972,4.317,3.467,4.400,4.014,0,0,SEARCHING,0.000,0.800,0.026,-0.041
21:36:55.667,SEARCHING,25.360,20.910,1.629,0.00,0.00,13.77,2.896,4.237,3.415,4.237,4.014,0,0,SEARCHING,0.000,0.800,0.016,-0.045
21:36:55.868,SEARCHING,25.469,20.936,1.631,0.00,0.00,13.44,2.896,4.086,3.316,4.086,4.014,0,0,SEARCHING,0.000,0.800,0.005,-0.037
21:36:56.069,SEARCHING,25.578,20.962,1.632,0.00,0.00,13.14,2.860,4.014,3.223,3.945,3.945,0,0,SEARCHING,0.000,0.800,0.000,-0.033
21:36:56.269,SEARCHING,25.687,20.987,1.632,0.00,0.00,12.87,2.825,3.878,3.178,3.878,3.878,0,0,SEARCHING,0.000,0.800,0.000,-0.033
21:36:56.470,SEARCHING,25.796,21.012,1.632,0.00,0.00,12.65,2.860,3.751,3.051,3.751,3.751,0,0,SEARCHING,0.000,0.800,0.000,-0.019
21:36:56.670,SEARCHING,25.906,21.036,1.632,0.00,0.00,12.50,2.790,3.691,2.972,3.632,3.691,0,0,SEARCHING,0.000,0.800,-0.005,-0.019
21:36:56.870,SEARCHING,26.015,21.060,1.632,0.00,0.00,12.35,2.757,3.575,2.934,3.575,3.575,0,0,SEARCHING,0.000,0.800,0.000,-0.019
21:36:57.072,SEARCHING,26.124,21.084,1.632,0.00,0.00,12.22,2.724,3.467,2.860,3.467,3.467,0,0,SEARCHING,0.000,0.800,0.000,-0.015
21:36:57.272,SEARCHING,26.234,21.108,1.632,0.00,0.00,12.11,2.692,3.365,2.790,3.365,3.365,0,0,SEARCHING,0.000,0.800,0.000,-0.011
21:36:57.473,SEARCHING,26.343,21.131,1.632,0.00,0.00,12.04,2.630,3.269,2.692,3.269,3.269,0,0,SEARCHING,0.000,0.800,0.000,-0.007
21:36:57.673,SEARCHING,26.453,21.155,1.632,0.00,0.00,12.00,2.630,3.134,2.600,3.178,3.134,0,0,SEARCHING,0.000,0.800,0.005,0.004
21:36:57.873,SEARCHING,26.562,21.178,1.632,0.00,0.00,12.01,2.514,3.051,2.514,3.051,3.051,0,0,SEARCHING,0.000,0.800,0.000,0.000
21:36:58.074,SEARCHING,26.672,21.201,1.632,0.00,0.00,12.04,2.487,2.934,2.409,2.934,2.934,0,0,SEARCHING,0.000,0.800,0.000,0.011
21:36:58.274,SEARCHING,26.782,21.225,1.632,0.00,0.00,12.14,2.487,2.860,2.335,2.860,2.825,0,0,SEARCHING,0.000,0.800,0.005,0.022
21:36:58.474,SEARCHING,26.891,21.248,1.633,0.00,0.00,12.32,2.359,2.757,2.288,2.790,2.757,0,0,SEARCHING,0.000,0.800,0.005,0.011
21:36:58.676,SEARCHING,27.000,21.272,1.634,0.00,0.00,12.41,2.434,2.661,2.200,2.661,2.661,0,0,SEARCHING,0.000,0.800,0.000,0.037
21:36:58.879,SEARCHING,27.110,21.297,1.634,0.00,0.00,12.71,2.359,2.571,2.119,2.571,2.571,0,0,SEARCHING,0.000,0.800,0.000,0.041
21:36:59.078,SEARCHING,27.219,21.322,1.634,0.00,0.00,13.04,2.243,2.460,2.043,2.460,2.460,0,0,SEARCHING,0.000,0.800,0.000,0.037
21:36:59.279,SEARCHING,27.328,21.347,1.634,0.00,0.00,13.32,2.119,2.384,1.973,2.359,2.409,0,0,SEARCHING,0.000,0.800,-0.010,0.030
21:36:59.479,SEARCHING,27.437,21.373,1.632,0.00,0.00,13.56,2.043,2.311,1.876,2.288,2.311,0,0,SEARCHING,0.000,0.800,-0.005,0.037
21:36:59.681,SEARCHING,27.546,21.400,1.632,0.00,0.00,13.83,1.923,2.222,1.802,2.222,2.222,0,0,SEARCHING,0.000,0.800,0.000,0.030
21:36:59.880,SEARCHING,27.654,21.427,1.631,0.00,0.00,14.05,1.831,2.080,1.733,2.119,2.119,0,0,SEARCHING,0.000,0.754,0.000,0.026
21:37:00.080,SEARCHING,27.755,21.452,1.631,0.00,0.00,14.30,1.788,2.025,1.646,2.043,2.043,0,0,SEARCHING,0.000,0.702,0.000,0.041
21:37:00.281,SEARCHING,27.849,21.476,1.631,0.00,0.00,14.62,1.720,1.956,1.589,1.956,1.956,0,0,SEARCHING,0.000,0.655,0.000,0.041
21:37:00.482,SEARCHING,27.936,21.499,1.631,0.00,0.00,14.95,1.658,1.876,1.525,1.876,1.876,0,0,SEARCHING,0.000,0.602,0.000,0.045
21:37:00.681,SEARCHING,28.016,21.521,1.631,0.00,0.00,15.32,1.600,1.816,1.467,1.802,1.802,0,0,SEARCHING,0.000,0.562,0.000,0.048
21:37:00.883,SEARCHING,28.090,21.541,1.631,0.00,0.00,15.72,1.546,1.747,1.412,1.747,1.747,0,0,SEARCHING,0.000,0.520,0.000,0.052
21:37:01.083,SEARCHING,28.159,21.561,1.631,0.00,0.00,16.14,1.505,1.695,1.370,1.695,1.695,0,0,SEARCHING,0.000,0.490,0.000,0.056
21:37:01.284,SEARCHING,28.224,21.580,1.631,0.00,0.00,16.58,1.448,1.646,1.323,1.646,1.646,0,0,SEARCHING,0.000,0.460,0.000,0.056
21:37:01.485,SEARCHING,28.285,21.598,1.631,0.00,0.00,17.05,1.404,1.600,1.285,1.600,1.589,0,0,SEARCHING,0.000,0.435,0.005,0.056
21:37:01.684,SEARCHING,28.342,21.616,1.632,0.00,0.00,17.52,1.362,1.557,1.230,1.557,1.557,0,0,SEARCHING,0.000,0.407,0.000,0.067
21:37:01.887,SEARCHING,28.396,21.633,1.631,0.00,0.00,18.03,1.315,1.515,1.204,1.515,1.525,0,0,SEARCHING,0.000,0.387,-0.005,0.059
21:37:02.085,SEARCHING,28.446,21.650,1.630,0.00,0.00,18.49,1.285,1.467,1.173,1.467,1.476,0,0,SEARCHING,0.000,0.364,-0.005,0.063
21:37:02.286,SEARCHING,28.494,21.666,1.629,0.00,0.00,19.00,1.250,1.430,1.144,1.439,1.439,0,0,SEARCHING,0.000,0.346,0.000,0.063
21:37:02.485,SEARCHING,28.539,21.682,1.628,0.00,0.00,19.49,1.211,1.404,1.111,1.412,1.412,0,0,SEARCHING,0.000,0.331,0.000,0.063
21:37:02.689,SEARCHING,28.582,21.697,1.629,0.00,0.00,20.01,1.179,1.387,1.079,1.387,1.387,0,0,SEARCHING,0.000,0.319,0.000,0.067
21:37:02.888,SEARCHING,28.624,21.712,1.629,0.00,0.00,20.55,1.144,1.362,1.059,1.354,1.354,0,0,SEARCHING,0.000,0.308,0.000,0.059
21:37:03.089,SEARCHING,28.664,21.728,1.629,0.00,0.00,21.02,1.111,1.323,1.035,1.330,1.323,0,0,SEARCHING,0.000,0.292,0.005,0.056
21:37:03.289,SEARCHING,28.701,21.742,1.630,0.00,0.00,21.47,1.084,1.300,1.008,1.300,1.300,0,0,SEARCHING,0.000,0.280,0.000,0.059
21:37:03.490,SEARCHING,28.737,21.757,1.630,0.00,0.00,21.93,1.054,1.278,0.986,1.278,1.271,0,0,SEARCHING,0.000,0.270,0.005,0.056
21:37:03.691,SEARCHING,28.772,21.771,1.631,0.00,0.00,22.38,1.031,1.257,0.961,1.257,1.250,0,0,SEARCHING,0.000,0.259,0.005,0.059
21:37:03.891,SEARCHING,28.805,21.784,1.632,0.00,0.00,22.84,0.999,1.230,0.946,1.230,1.224,0,0,SEARCHING,0.000,0.249,0.005,0.048
21:37:04.091,SEARCHING,28.837,21.798,1.633,0.00,0.00,23.21,0.974,1.204,0.926,1.198,1.211,0,0,SEARCHING,0.000,0.239,-0.010,0.045
21:37:04.292,SEARCHING,28.867,21.811,1.632,0.00,0.00,23.57,0.946,1.186,0.908,1.179,1.186,0,0,SEARCHING,0.000,0.231,-0.005,0.037
21:37:04.493,SEARCHING,28.897,21.824,1.631,0.00,0.00,23.88,0.923,1.162,0.883,1.162,1.167,0,0,SEARCHING,0.000,0.221,-0.005,0.041
21:37:04.695,SEARCHING,28.925,21.836,1.630,0.00,0.00,24.18,0.901,1.133,0.870,1.138,1.144,0,0,SEARCHING,0.000,0.211,-0.005,0.033
21:37:04.894,SEARCHING,28.952,21.848,1.630,0.00,0.00,24.45,0.880,1.111,0.854,1.116,1.116,0,0,SEARCHING,0.000,0.203,0.000,0.030
21:37:05.094,SEARCHING,28.977,21.860,1.630,0.00,0.00,24.67,0.860,1.084,0.835,1.090,1.084,0,0,SEARCHING,0.000,0.194,0.005,0.030
21:37:05.297,SEARCHING,29.002,21.871,1.631,0.00,0.00,24.90,0.841,1.054,0.820,1.059,1.059,0,0,SEARCHING,0.000,0.185,0.000,0.026
21:37:05.496,SEARCHING,29.025,21.882,1.631,0.00,0.00,25.11,0.823,1.031,0.809,1.035,1.031,0,0,SEARCHING,0.000,0.180,0.005,0.019
21:37:05.696,SEARCHING,29.048,21.893,1.632,0.00,0.00,25.26,0.803,1.008,0.786,1.008,1.004,0,0,SEARCHING,0.000,0.180,0.005,0.022
21:37:05.896,SEARCHING,29.070,21.904,1.633,0.00,0.00,25.42,0.786,0.982,0.773,0.986,0.986,0,0,SEARCHING,0.000,0.180,0.000,0.019
21:37:06.097,SEARCHING,29.093,21.915,1.634,0.00,0.00,25.55,0.765,0.961,0.760,0.961,0.961,0,0,SEARCHING,0.000,0.180,0.000,0.007
21:37:06.297,SEARCHING,29.116,21.925,1.634,0.00,0.00,25.61,0.750,0.938,0.745,0.942,0.938,0,0,SEARCHING,0.000,0.180,0.005,0.007
21:37:06.498,SEARCHING,29.138,21.936,1.634,0.00,0.00,25.64,0.733,0.915,0.736,0.919,0.919,0,0,SEARCHING,0.000,0.180,0.000,-0.004
21:37:06.698,SEARCHING,29.161,21.947,1.634,0.00,0.00,25.61,0.717,0.894,0.722,0.897,0.897,0,0,SEARCHING,0.000,0.180,0.000,-0.007
21:37:06.900,SEARCHING,29.184,21.958,1.634,0.00,0.00,25.58,0.700,0.870,0.702,0.873,0.877,0,0,SEARCHING,0.000,0.180,-0.005,-0.004
21:37:07.100,SEARCHING,29.207,21.969,1.633,0.00,0.00,25.55,0.679,0.851,0.687,0.851,0.851,0,0,SEARCHING,0.000,0.180,0.000,-0.015
21:37:07.301,SEARCHING,29.229,21.980,1.633,0.00,0.00,25.46,0.663,0.829,0.667,0.829,0.829,0,0,SEARCHING,0.000,0.180,0.000,-0.007
21:37:07.502,SEARCHING,29.252,21.991,1.633,0.00,0.00,25.39,0.645,0.809,0.652,0.809,0.809,0,0,SEARCHING,0.000,0.180,0.000,-0.015
21:37:07.703,INSPECTING,29.266,21.997,1.661,0.00,0.00,25.33,0.632,0.795,0.637,0.795,0.795,0,0,INSPECT_TOP,0.000,0.100,0.500,0.000
21:37:07.903,INSPECTING,29.279,22.003,1.763,0.00,0.00,25.33,0.625,0.781,0.630,0.784,0.781,0,0,INSPECT_TOP,0.000,0.100,0.500,0.000
21:37:08.106,INSPECTING,29.292,22.009,1.863,0.00,0.00,25.33,0.613,0.770,0.623,0.770,0.770,0,0,INSPECT_TOP,0.000,0.100,0.500,0.000
21:37:08.306,INSPECTING,29.304,22.015,1.963,0.00,0.00,25.33,0.605,0.758,0.612,0.760,0.758,0,0,INSPECT_TOP,0.000,0.100,0.500,0.000
21:37:08.507,INSPECTING,29.317,22.021,2.063,0.00,0.00,25.33,0.596,0.745,0.601,0.748,0.745,0,0,INSPECT_TOP,0.000,0.100,0.500,0.000
21:37:08.707,INSPECTING,29.330,22.027,2.163,0.00,0.00,25.33,0.585,0.736,0.594,0.731,0.733,0,0,INSPECT_BOTTOM,0.000,0.100,-0.500,0.000
21:37:08.909,INSPECTING,29.342,22.033,2.163,0.00,0.00,25.33,0.578,0.724,0.584,0.722,0.722,0,0,INSPECT_TOP,0.000,0.100,0.500,0.000
21:37:09.109,INSPECTING,29.355,22.039,2.263,0.00,0.00,25.33,0.566,0.711,0.578,0.708,0.711,0,0,INSPECT_BOTTOM,0.000,0.100,-0.500,0.000
21:37:09.310,TURNING,29.363,22.043,2.208,0.00,0.00,22.92,0.561,0.702,0.568,0.702,0.700,0,0,TURNING,0.000,0.050,0.000,-1.400
21:37:09.511,TURNING,29.369,22.045,2.208,0.00,0.00,11.69,0.604,0.636,0.518,0.636,0.636,0,0,TURNING,0.000,0.050,0.000,-1.400
21:37:09.711,TURNING,29.376,22.046,2.208,0.00,0.00,0.46,0.663,0.562,0.488,0.564,0.564,0,0,TURNING,0.000,0.050,0.000,-1.400
21:37:09.911,TURNING,29.383,22.045,2.208,0.00,0.00,-10.77,0.575,0.524,0.481,0.524,0.524,0,0,TURNING,0.000,0.050,0.000,-1.400
21:37:10.111,TURNING,29.390,22.044,2.208,0.00,0.00,-22.00,0.519,0.507,0.495,0.507,0.506,0,0,TURNING,0.000,0.050,0.000,-1.400
21:37:10.312,TURNING,29.396,22.040,2.208,0.00,0.00,-33.23,0.474,0.493,0.514,0.493,0.493,0,0,TURNING,0.000,0.050,0.000,-1.400
21:37:10.513,TURNING,29.402,22.036,2.208,0.00,0.00,-44.46,0.444,0.491,0.549,0.490,0.490,0,0,TURNING,0.000,0.050,0.000,-1.400
21:37:10.713,TURNING,29.406,22.031,2.208,0.00,0.00,-55.69,0.438,0.511,0.620,0.511,0.512,0,0,TURNING,0.000,0.050,0.000,-1.400
21:37:10.914,TURNING,29.410,22.025,2.208,0.00,0.00,-66.92,0.452,0.564,0.760,0.561,0.564,0,0,TURNING,0.000,0.050,0.000,-1.400
21:37:11.115,TURNING,29.412,22.018,2.208,0.00,0.00,-78.15,0.486,0.661,1.026,0.658,0.659,0,0,TURNING,0.000,0.050,0.000,-1.400
21:37:11.315,TURNING,29.413,22.011,2.208,0.00,0.00,-89.38,0.562,0.835,1.658,0.841,0.838,0,0,TURNING,0.000,0.050,0.000,-1.400
21:37:11.517,TURNING,29.412,22.004,2.208,0.00,0.00,-100.61,0.689,1.217,2.934,1.217,1.198,0,0,TURNING,0.000,0.050,0.000,-1.400
21:37:11.718,TURNING,29.410,21.997,2.208,0.00,0.00,-111.84,0.919,2.138,3.134,2.080,2.179,0,0,TURNING,0.000,0.050,0.000,-1.400
21:37:11.917,TURNING,29.407,21.991,2.208,0.00,0.00,-123.07,1.457,3.011,3.316,2.934,3.011,0,0,TURNING,0.000,0.050,0.000,-1.400
21:37:12.119,TURNING,29.403,21.986,2.208,0.00,0.00,-134.30,2.692,3.178,3.520,3.011,3.223,0,0,TURNING,0.000,0.050,0.000,-1.400
21:37:12.378,RETURNING,29.397,21.981,2.208,0.00,0.00,-145.53,2.825,3.520,4.317,3.011,3.520,0,0,TURNING,0.000,0.000,0.000,0.000
21:37:12.574,RETURNING,29.393,21.978,2.199,0.00,0.00,-145.70,2.860,3.520,4.974,3.011,3.520,0,0,RETURNING,0.000,0.200,-0.058,-0.104
21:37:12.770,RETURNING,29.386,21.973,2.187,0.00,0.00,-145.95,2.860,3.520,4.974,3.051,3.520,0,0,RETURNING,0.000,0.200,-0.052,-0.104
21:37:12.968,RETURNING,29.375,21.966,2.176,0.00,0.00,-146.31,2.860,3.520,4.868,3.051,3.520,0,0,RETURNING,0.000,0.270,-0.052,-0.101
21:37:13.168,RETURNING,29.361,21.956,2.166,0.00,0.00,-146.66,2.860,3.520,5.085,3.092,3.520,0,0,RETURNING,0.000,0.360,-0.047,-0.107
21:37:13.367,RETURNING,29.352,21.950,2.154,0.00,0.00,-146.85,2.860,3.467,4.868,3.134,3.520,0,0,RETURNING,0.000,0.450,-0.042,-0.101
21:37:13.571,RETURNING,29.328,21.935,2.148,0.00,0.00,-147.19,2.825,3.467,4.974,3.134,3.467,0,0,RETURNING,0.000,0.540,-0.037,-0.107
21:37:13.770,RETURNING,29.299,21.917,2.141,0.00,0.00,-147.56,2.860,3.415,4.868,3.134,3.467,0,0,RETURNING,0.000,0.630,-0.037,-0.101
21:37:13.963,RETURNING,29.266,21.896,2.134,0.00,0.00,-147.90,2.825,3.415,4.868,3.223,3.415,0,0,RETURNING,0.000,0.720,-0.021,-0.104
21:37:14.167,RETURNING,29.247,21.884,2.130,0.00,0.00,-148.09,2.825,3.365,4.974,3.178,3.365,0,0,RETURNING,0.000,0.810,-0.021,-0.107
21:37:14.369,RETURNING,29.204,21.857,2.126,0.00,0.00,-148.45,2.790,3.316,4.974,3.223,3.316,0,0,RETURNING,0.000,0.900,-0.010,-0.110
21:37:14.571,RETURNING,29.158,21.829,2.123,0.00,0.00,-148.83,2.724,3.223,4.868,3.223,3.269,0,0,RETURNING,0.000,0.900,-0.005,-0.113
21:37:14.770,RETURNING,29.128,21.811,2.121,0.00,0.00,-149.09,2.692,3.223,4.868,3.178,3.223,0,0,RETURNING,0.000,0.900,-0.005,-0.116
21:37:14.975,RETURNING,29.081,21.783,2.120,0.00,0.00,-149.48,2.630,3.178,4.767,3.178,3.223,0,0,RETURNING,0.000,0.900,-0.005,-0.119
21:37:15.175,RETURNING,29.035,21.756,2.118,0.00,0.00,-149.90,2.600,3.092,4.670,3.092,3.092,0,0,RETURNING,0.000,0.900,0.000,-0.119
21:37:15.371,RETURNING,28.988,21.729,2.118,0.00,0.00,-150.33,2.514,3.092,4.670,3.134,3.092,0,0,RETURNING,0.000,0.900,0.005,-0.128
21:37:15.566,RETURNING,28.941,21.702,2.119,0.00,0.00,-150.77,2.514,3.092,4.670,3.051,3.092,0,0,RETURNING,0.000,0.900,-0.005,-0.128
21:37:15.769,RETURNING,28.917,21.689,2.119,0.00,0.00,-150.99,2.514,3.011,4.576,3.051,3.051,0,0,RETURNING,0.000,0.900,0.000,-0.125
21:37:15.985,RETURNING,28.909,21.685,2.119,0.00,0.00,-151.06,2.487,3.051,4.670,3.051,3.092,0,0,RETURNING,0.000,0.900,-0.005,-0.132
21:37:16.174,RETURNING,28.878,21.667,2.119,0.00,0.00,-151.36,2.487,3.051,4.576,3.092,3.092,0,0,RETURNING,0.000,0.900,0.000,-0.128
21:37:16.385,RETURNING,28.830,21.641,2.119,0.00,0.00,-151.81,2.487,3.051,4.576,3.051,3.092,0,0,RETURNING,0.000,0.900,-0.005,-0.128
21:37:16.574,RETURNING,28.799,21.625,2.118,0.00,0.00,-152.10,2.487,2.972,4.576,3.051,3.092,0,0,RETURNING,0.000,0.900,-0.005,-0.128
21:37:16.780,RETURNING,28.751,21.599,2.118,0.00,0.00,-152.55,2.460,3.051,4.576,3.051,3.092,0,0,RETURNING,0.000,0.900,-0.005,-0.132
21:37:16.984,RETURNING,28.703,21.575,2.117,0.00,0.00,-152.99,2.487,3.134,4.576,3.051,3.178,0,0,RETURNING,0.000,0.900,-0.016,-0.128
21:37:17.184,RETURNING,28.655,21.550,2.114,0.00,0.00,-153.44,2.434,3.134,4.487,3.134,3.178,0,0,RETURNING,0.000,0.900,-0.005,-0.132
21:37:19.109,RETURNING,28.606,21.526,2.112,0.00,0.00,-153.89,2.434,3.134,4.487,3.134,3.316,0,0,RETURNING,0.000,0.900,-0.021,-0.132
21:37:19.190,RETURNING,28.574,21.510,2.111,0.00,0.00,-154.19,2.434,3.134,4.487,3.223,3.316,0,0,RETURNING,0.000,0.900,-0.010,-0.132
21:37:19.278,RETURNING,28.533,21.491,2.110,0.00,0.00,-154.57,2.434,3.134,4.487,3.223,3.316,0,0,RETURNING,0.000,0.900,-0.010,-0.132
21:37:19.474,RETURNING,28.485,21.468,2.108,0.00,0.00,-155.02,2.409,2.972,4.317,3.223,3.178,0,0,RETURNING,0.000,0.900,0.005,-0.128
21:37:19.685,RETURNING,28.452,21.453,2.109,0.00,0.00,-155.32,2.359,2.934,4.317,3.178,3.134,0,0,RETURNING,0.000,0.900,0.005,-0.135
21:37:19.872,RETURNING,28.436,21.445,2.110,0.00,0.00,-155.47,2.359,3.011,4.237,3.134,3.134,0,0,RETURNING,0.000,0.900,0.000,-0.132
21:37:20.073,RETURNING,28.403,21.430,2.110,0.00,0.00,-155.77,2.311,2.934,4.237,3.134,3.092,0,0,RETURNING,0.000,0.900,0.005,-0.138
21:37:20.267,RETURNING,28.353,21.408,2.111,0.00,0.00,-156.25,2.311,2.860,4.317,3.092,3.051,0,0,RETURNING,0.000,0.900,0.005,-0.141
21:37:20.463,RETURNING,28.304,21.387,2.111,0.00,0.00,-156.74,2.222,2.790,4.160,3.011,2.934,0,0,RETURNING,0.000,0.900,0.010,-0.147
21:37:20.679,RETURNING,28.279,21.376,2.113,0.00,0.00,-156.99,2.138,2.896,4.237,2.934,2.934,0,0,RETURNING,0.000,0.900,0.000,-0.162
21:37:20.876,RETURNING,28.229,21.355,2.114,0.00,0.00,-157.53,2.138,2.860,4.237,2.934,2.896,0,0,RETURNING,0.000,0.900,0.005,-0.162
21:37:21.079,RETURNING,28.179,21.335,2.115,0.00,0.00,-158.09,2.080,2.757,4.160,2.896,2.790,0,0,RETURNING,0.000,0.900,0.016,-0.168
21:37:21.277,RETURNING,28.129,21.315,2.118,0.00,0.00,-158.68,2.025,2.724,4.014,2.860,2.724,0,0,RETURNING,0.000,0.900,0.021,-0.171
21:37:21.482,RETURNING,28.079,21.295,2.121,0.00,0.00,-159.29,1.956,2.724,4.014,2.790,2.724,0,0,RETURNING,0.000,0.900,0.010,-0.184
21:37:21.678,RETURNING,28.028,21.276,2.123,0.00,0.00,-159.92,1.907,2.661,4.014,2.757,2.661,0,0,RETURNING,0.000,0.900,0.016,-0.193
21:37:21.887,RETURNING,27.994,21.264,2.126,0.00,0.00,-160.36,1.876,2.661,3.945,2.724,2.661,0,0,RETURNING,0.000,0.900,0.010,-0.196
21:37:22.078,RETURNING,27.977,21.258,2.129,0.00,0.00,-160.58,1.831,2.661,3.945,2.724,2.661,0,0,RETURNING,0.000,0.900,0.010,-0.205
21:37:22.294,RETURNING,27.952,21.249,2.131,0.00,0.00,-160.93,1.845,2.661,3.814,2.692,2.630,0,0,RETURNING,0.000,0.900,0.010,-0.196
21:37:22.473,RETURNING,27.918,21.237,2.133,0.00,0.00,-161.39,1.845,2.630,3.751,2.630,2.600,0,0,RETURNING,0.000,0.900,0.005,-0.193
21:37:22.680,RETURNING,27.892,21.229,2.134,0.00,0.00,-161.73,1.891,2.542,3.751,2.514,2.542,0,0,RETURNING,0.000,0.900,-0.005,-0.184
21:37:22.877,RETURNING,27.841,21.212,2.134,0.00,0.00,-162.36,1.923,2.514,3.751,2.542,2.514,0,0,RETURNING,0.000,0.900,0.005,-0.177
21:37:23.080,RETURNING,27.789,21.196,2.133,0.00,0.00,-162.96,1.939,2.571,3.751,2.571,4.487,0,0,RETURNING,0.000,0.900,-0.199,-0.174
21:37:23.274,RETURNING,27.738,21.180,2.101,0.00,0.00,-163.53,2.007,5.867,3.691,2.571,5.085,0,0,RETURNING,0.000,0.900,-0.231,-0.159
21:37:23.472,RETURNING,27.712,21.173,2.055,0.00,0.00,-163.80,2.099,4.237,3.691,3.365,5.200,0,0,RETURNING,0.000,0.900,-0.126,-0.144
21:37:23.691,RETURNING,27.677,21.163,2.034,0.00,0.00,-164.13,2.119,4.014,3.632,3.365,5.085,0,0,RETURNING,0.000,0.900,-0.121,-0.138
21:37:23.873,RETURNING,27.643,21.153,2.011,0.00,0.00,-164.44,2.119,4.014,3.632,3.467,5.085,0,0,RETURNING,0.000,0.900,-0.110,-0.138
21:37:24.088,RETURNING,27.617,21.146,1.989,0.00,0.00,-164.66,2.159,3.878,3.575,3.467,4.974,0,0,RETURNING,0.000,0.900,-0.105,-0.128
21:37:24.296,RETURNING,27.582,21.136,1.968,0.00,0.00,-164.96,2.179,3.751,3.632,3.520,4.974,0,0,RETURNING,0.000,0.900,-0.100,-0.128
21:37:24.480,RETURNING,27.573,21.134,1.943,0.00,0.00,-165.03,2.099,3.751,3.520,3.520,4.868,0,0,RETURNING,0.000,0.900,-0.094,-0.135
21:37:24.684,RETURNING,27.521,21.120,1.928,0.00,0.00,-165.51,2.061,3.814,3.520,3.520,4.868,0,0,RETURNING,0.000,0.900,-0.094,-0.141
21:37:24.891,RETURNING,27.495,21.113,1.905,0.00,0.00,-165.75,2.007,3.632,3.467,3.467,4.767,0,0,RETURNING,0.000,0.900,-0.094,-0.147
21:37:25.091,RETURNING,27.469,21.107,1.886,0.00,0.00,-166.00,1.956,3.632,3.520,3.520,4.767,0,0,RETURNING,0.000,0.900,-0.089,-0.159
21:37:25.330,RETURNING,27.407,21.092,1.876,0.00,0.00,-166.64,1.990,3.632,3.467,3.520,4.670,0,0,RETURNING,0.000,0.900,-0.084,-0.150
21:37:25.511,RETURNING,27.372,21.084,1.856,0.00,0.00,-166.98,1.923,3.467,3.415,3.415,4.576,0,0,RETURNING,0.000,0.900,-0.089,-0.159
21:37:25.697,RETURNING,27.355,21.079,1.836,0.00,0.00,-167.17,1.860,3.467,3.415,3.467,4.576,0,0,RETURNING,0.000,0.900,-0.084,-0.171
21:37:25.880,RETURNING,27.320,21.072,1.820,0.00,0.00,-167.57,1.831,3.415,3.365,3.415,4.487,0,0,RETURNING,0.000,0.900,-0.084,-0.174
21:37:26.081,RETURNING,27.285,21.064,1.798,0.00,0.00,-167.97,1.802,3.316,3.316,3.316,4.487,0,0,RETURNING,0.000,0.900,-0.094,-0.177
21:37:26.294,RETURNING,27.285,21.064,1.780,0.00,0.00,-167.97,1.816,3.365,3.365,3.316,4.400,0,0,RETURNING,0.000,0.900,-0.089,-0.177
21:37:26.482,RETURNING,27.258,21.058,1.761,0.00,0.00,-168.27,1.788,3.365,3.316,3.316,4.400,0,0,RETURNING,0.000,0.900,-0.089,-0.180
21:37:26.684,RETURNING,27.249,21.056,1.747,0.00,0.00,-168.38,1.788,3.415,3.365,3.365,4.317,0,0,RETURNING,0.000,0.900,-0.079,-0.184
21:37:26.882,RETURNING,27.223,21.051,1.726,0.00,0.00,-168.69,1.760,3.316,3.316,3.316,4.317,0,0,RETURNING,0.000,0.900,-0.084,-0.187
21:37:27.084,RETURNING,27.170,21.041,1.713,0.00,0.00,-169.34,1.747,3.316,3.316,3.269,4.317,0,0,RETURNING,0.000,0.900,-0.089,-0.190
21:37:27.299,RETURNING,27.143,21.036,1.691,0.00,0.00,-169.66,1.695,3.134,3.178,3.134,4.086,0,0,RETURNING,0.000,0.900,-0.089,-0.193
21:37:27.490,RETURNING,27.108,21.029,1.677,0.00,0.00,-170.13,1.695,3.223,3.269,3.223,4.237,0,0,RETURNING,0.000,0.900,-0.089,-0.199
21:37:27.688,RETURNING,27.081,21.025,1.653,0.00,0.00,-170.47,1.634,3.134,3.223,3.092,4.160,0,0,RETURNING,0.000,0.900,-0.100,-0.211
21:37:27.885,RETURNING,27.028,21.016,1.638,0.00,0.00,-171.19,1.567,3.134,3.223,3.092,4.086,0,0,RETURNING,0.000,0.900,-0.094,-0.229
21:37:28.081,RETURNING,27.001,21.012,1.616,0.00,0.00,-171.59,4.868,3.092,3.316,3.051,4.086,0,0,RETURNING,0.000,0.900,-0.100,0.067
21:37:28.295,RETURNING,26.975,21.008,1.601,0.00,0.00,-171.47,4.576,2.972,3.223,2.972,4.014,0,0,RETURNING,0.000,0.900,-0.105,0.064
21:37:28.494,RETURNING,26.921,21.000,1.582,0.00,0.00,-171.24,4.400,2.972,3.092,2.934,3.945,0,0,RETURNING,0.000,0.900,-0.105,0.067
21:37:28.688,RETURNING,26.895,20.996,1.556,0.00,0.00,-171.13,4.237,2.934,3.051,2.934,3.878,0,0,RETURNING,0.000,0.900,-0.100,0.064
