timestamp,state,x,z,roll_deg,pitch_deg,yaw_deg,left,center,right,top,bottom,cmd_vx,cmd_vz,cmd_roll,cmd_yaw
2026-05-11 16:01:05.622608,SEARCHING,0.000,0.000,0.00,0.00,0.00,10.000,10.000,10.000,10.000,10.000,0.700,0.000,0.000,0.000
2026-05-11 16:01:06.681109,SEARCHING,0.000,1.000,0.00,0.00,0.00,10.000,10.000,10.000,10.000,10.000,0.700,0.000,0.000,0.000
2026-05-11 16:01:06.880256,SEARCHING,0.119,1.000,0.00,0.00,0.00,10.000,10.000,10.000,10.000,10.000,0.700,0.000,0.000,0.000
2026-05-11 16:01:07.113886,SEARCHING,0.259,1.000,0.00,0.00,0.00,2.825,7.627,3.945,4.868,6.022,0.700,-0.024,-0.045,-0.090
2026-05-11 16:01:07.314701,SEARCHING,0.399,1.000,0.00,0.00,-0.93,2.860,7.381,3.878,4.868,5.200,0.700,-0.008,-0.041,-0.083
2026-05-11 16:01:07.523321,SEARCHING,0.539,1.000,0.00,0.00,-1.85,2.972,7.151,3.751,4.868,4.576,0.700,0.008,-0.031,-0.063
2026-05-11 16:01:07.733053,SEARCHING,0.679,1.000,0.00,0.00,-2.56,2.972,5.867,3.691,4.868,4.487,0.700,0.010,-0.029,-0.059
2026-05-11 16:01:07.938150,SEARCHING,0.819,1.000,0.00,0.00,-3.20,2.972,6.934,3.575,4.868,4.767,0.700,0.003,-0.026,-0.051
2026-05-11 16:01:08.146419,SEARCHING,0.958,1.000,0.00,0.00,-3.77,2.972,6.538,3.467,4.868,5.867,0.700,-0.021,-0.022,-0.043
2026-05-11 16:01:08.353334,SEARCHING,1.098,1.000,0.00,0.00,-4.26,3.011,6.538,3.520,4.868,3.365,0.700,0.055,-0.022,-0.043
2026-05-11 16:01:09.649625,SEARCHING,1.238,1.000,0.00,0.00,-4.72,3.051,6.184,3.365,4.868,4.974,0.700,-0.003,-0.014,-0.028
2026-05-11 16:01:09.669919,SEARCHING,1.377,1.000,0.00,0.00,-5.11,3.092,6.184,3.467,4.974,4.400,0.700,0.016,-0.016,-0.031
2026-05-11 16:01:09.830843,SEARCHING,1.517,1.000,0.00,0.00,-5.46,3.092,6.184,3.467,4.974,4.400,0.700,0.016,-0.016,-0.031
2026-05-11 16:01:10.046702,SEARCHING,1.656,1.000,0.00,0.00,-5.76,3.178,5.581,3.269,4.868,4.317,0.700,0.016,-0.004,-0.008
2026-05-11 16:01:10.256737,SEARCHING,1.795,1.000,0.00,0.00,-5.85,3.178,5.448,3.178,4.974,4.317,0.700,0.018,0.000,0.000
2026-05-11 16:01:10.467909,SEARCHING,1.934,1.000,0.00,0.00,-5.87,3.178,5.448,3.092,4.868,4.317,0.700,0.016,0.004,0.008
2026-05-11 16:01:10.679993,SEARCHING,2.074,1.000,0.00,0.00,-5.88,3.134,5.321,3.269,4.974,4.400,0.700,0.016,-0.006,-0.012
2026-05-11 16:01:10.893845,SEARCHING,2.213,1.000,0.00,0.00,-6.06,4.237,5.085,3.134,4.868,4.317,0.700,0.016,0.037,0.075
2026-05-11 16:01:11.105324,SEARCHING,2.352,1.000,0.00,0.00,-5.34,4.767,5.085,3.223,4.868,4.237,0.700,0.018,0.045,0.090
2026-05-11 16:01:11.318356,SEARCHING,2.492,1.000,0.00,0.00,-4.34,4.487,5.200,3.051,4.868,4.317,0.700,0.016,0.047,0.094
2026-05-11 16:01:11.522125,SEARCHING,2.631,1.000,0.00,0.00,-3.30,4.160,5.448,2.972,4.868,4.400,0.700,0.013,0.043,0.087
2026-05-11 16:01:11.726684,SEARCHING,2.771,1.000,0.00,0.00,-2.39,3.878,5.448,3.011,4.767,4.317,0.700,0.013,0.033,0.067
2026-05-11 16:01:11.932724,SEARCHING,2.911,1.000,0.00,0.00,-1.64,3.814,5.448,3.011,4.868,4.317,0.700,0.016,0.031,0.063
2026-05-11 16:01:12.148532,SEARCHING,3.051,1.000,0.00,0.00,-0.93,3.632,5.448,3.092,4.868,4.237,0.700,0.018,0.022,0.043
2026-05-11 16:01:12.338870,SEARCHING,3.191,1.000,0.00,0.00,-0.41,3.691,5.321,3.051,4.868,4.237,0.700,0.018,0.026,0.051
2026-05-11 16:01:12.542369,SEARCHING,3.331,1.000,0.00,0.00,0.16,3.691,5.321,3.051,4.868,4.400,0.700,0.013,0.026,0.051
2026-05-11 16:01:12.743847,SEARCHING,3.471,1.000,0.00,0.00,0.73,3.691,5.448,3.134,4.868,4.400,0.700,0.013,0.022,0.043
2026-05-11 16:01:12.959596,SEARCHING,3.611,1.000,0.00,0.00,1.23,3.632,5.321,3.134,4.974,4.400,0.700,0.016,0.020,0.039
2026-05-11 16:01:13.159933,SEARCHING,3.751,1.000,0.00,0.00,1.70,3.632,5.448,3.092,4.974,4.400,0.700,0.016,0.022,0.043
2026-05-11 16:01:13.372759,SEARCHING,3.891,1.000,0.00,0.00,2.21,3.632,5.581,3.092,4.868,4.317,0.700,0.016,0.022,0.043
2026-05-11 16:01:13.596144,SEARCHING,4.031,1.000,0.00,0.00,2.74,3.575,5.448,3.092,4.868,4.317,0.700,0.016,0.020,0.039
2026-05-11 16:01:13.804348,SEARCHING,4.171,1.000,0.00,0.00,3.18,3.575,5.448,3.092,4.767,4.400,0.700,0.010,0.020,0.039
2026-05-11 16:01:14.012658,SEARCHING,4.310,1.000,0.00,0.00,3.61,3.691,5.321,3.092,4.767,4.317,0.700,0.013,0.024,0.047
2026-05-11 16:01:14.229012,SEARCHING,4.450,1.000,0.00,0.00,4.08,3.575,5.321,3.092,4.868,4.317,0.700,0.016,0.020,0.039
2026-05-11 16:01:14.419520,SEARCHING,4.590,1.000,0.00,0.00,4.51,3.520,5.448,3.134,4.767,4.317,0.700,0.013,0.016,0.031
2026-05-11 16:01:14.618863,SEARCHING,4.729,1.000,0.00,0.00,4.99,4.086,5.200,3.134,4.868,4.317,0.700,0.016,0.033,0.067
2026-05-11 16:01:14.833735,SEARCHING,4.869,1.000,0.00,0.00,5.72,3.878,5.448,3.269,4.868,4.317,0.700,0.016,0.022,0.043
2026-05-11 16:01:15.043548,SEARCHING,5.008,1.000,0.00,0.00,6.25,3.945,5.448,3.316,4.868,4.317,0.700,0.016,0.022,0.043
2026-05-11 16:01:15.253558,SEARCHING,5.147,1.000,0.00,0.00,6.75,3.878,5.720,3.316,4.868,4.317,0.700,0.016,0.020,0.039
2026-05-11 16:01:15.462930,SEARCHING,5.286,1.000,0.00,0.00,7.22,3.878,5.581,3.178,4.868,4.237,0.700,0.018,0.026,0.051
2026-05-11 16:01:15.675959,SEARCHING,5.425,1.000,0.00,0.00,7.83,3.751,5.720,3.051,4.868,4.400,0.700,0.013,0.028,0.055
2026-05-11 16:01:15.882602,SEARCHING,5.563,1.000,0.00,0.00,8.48,3.751,5.720,3.051,4.868,4.317,0.700,0.016,0.028,0.055
2026-05-11 16:01:16.095808,SEARCHING,5.702,1.000,0.00,0.00,9.10,3.751,5.720,3.051,4.868,4.487,0.700,0.010,0.028,0.055
2026-05-11 16:01:16.295904,SEARCHING,5.840,1.000,0.00,0.00,9.71,3.691,5.581,3.051,4.868,4.400,0.700,0.013,0.026,0.051
2026-05-11 16:01:16.511655,SEARCHING,5.978,1.000,0.00,0.00,10.28,3.632,5.720,3.092,4.868,4.487,0.700,0.010,0.022,0.043
2026-05-11 16:01:16.732695,SEARCHING,6.115,1.000,0.00,0.00,10.75,3.575,5.720,3.092,4.868,4.576,0.700,0.008,0.020,0.039
2026-05-11 16:01:16.931733,SEARCHING,6.253,1.000,0.00,0.00,11.20,3.575,5.867,3.092,4.868,4.317,0.700,0.016,0.020,0.039
2026-05-11 16:01:17.136134,SEARCHING,6.390,1.000,0.00,0.00,11.62,3.575,5.867,3.134,4.868,4.974,0.700,-0.003,0.018,0.035
2026-05-11 16:01:17.355302,SEARCHING,6.527,1.000,0.00,0.00,12.01,3.520,5.720,3.092,4.974,4.487,0.700,0.013,0.018,0.035
2026-05-11 16:01:17.556853,SEARCHING,6.664,1.000,0.00,0.00,12.44,3.520,5.867,3.092,4.868,4.400,0.700,0.013,0.018,0.035
2026-05-11 16:01:17.772465,SEARCHING,6.801,1.000,0.00,0.00,12.83,3.520,5.867,3.134,4.767,4.237,0.700,0.016,0.016,0.031
2026-05-11 16:01:17.980937,SEARCHING,6.937,1.000,0.00,0.00,13.18,3.467,5.867,3.134,4.868,4.400,0.700,0.013,0.014,0.028
2026-05-11 16:01:18.191356,SEARCHING,7.073,1.000,0.00,0.00,13.51,3.467,5.867,3.134,4.868,4.400,0.700,0.013,0.014,0.028
2026-05-11 16:01:18.405641,SEARCHING,7.209,1.000,0.00,0.00,13.83,3.467,6.022,3.134,4.767,4.237,0.700,0.016,0.014,0.028
2026-05-11 16:01:18.607990,SEARCHING,7.345,1.000,0.00,0.00,14.16,3.467,6.730,3.134,4.868,4.317,0.700,0.016,0.014,0.028
2026-05-11 16:01:18.812114,SEARCHING,7.481,1.000,0.00,0.00,14.48,3.467,5.867,3.134,4.868,4.160,0.700,0.021,0.014,0.028
2026-05-11 16:01:19.017379,SEARCHING,7.616,1.000,0.00,0.00,14.78,3.467,5.867,3.092,4.868,4.160,0.700,0.021,0.016,0.031
2026-05-11 16:01:19.229861,SEARCHING,7.751,1.000,0.00,0.00,15.18,3.751,6.356,3.134,4.974,4.487,0.700,0.013,0.024,0.047
2026-05-11 16:01:19.447973,SEARCHING,7.886,1.000,0.00,0.00,15.70,3.691,5.867,3.134,4.974,4.400,0.700,0.016,0.022,0.043
2026-05-11 16:01:19.655227,SEARCHING,8.021,1.000,0.00,0.00,16.18,3.691,5.720,3.092,4.767,5.448,0.700,-0.016,0.024,0.047
2026-05-11 16:01:19.859950,SEARCHING,8.155,1.000,0.00,0.00,16.66,3.814,5.720,3.092,4.868,4.974,0.700,-0.003,0.028,0.055
2026-05-11 16:01:20.067069,SEARCHING,8.289,1.000,0.00,0.00,17.22,3.691,5.720,3.051,4.868,5.720,0.700,-0.018,0.026,0.051
2026-05-11 16:01:20.276347,SEARCHING,8.423,1.000,0.00,0.00,17.74,3.632,5.867,3.092,4.868,5.720,0.700,-0.018,0.022,0.043
2026-05-11 16:01:20.493366,SEARCHING,8.556,1.000,0.00,0.00,18.22,3.575,7.890,3.092,4.868,5.448,0.700,-0.013,0.020,0.039
2026-05-11 16:01:20.708550,SEARCHING,8.689,1.000,0.00,0.00,18.65,3.632,7.627,3.092,4.868,5.867,0.700,-0.021,0.022,0.043
2026-05-11 16:01:20.906527,SEARCHING,8.821,1.000,0.00,0.00,19.10,3.520,7.381,3.092,4.868,7.627,0.700,-0.045,0.018,0.035
2026-05-11 16:01:21.102224,SEARCHING,8.953,1.000,0.00,0.00,19.49,3.467,7.381,3.092,4.868,7.151,0.700,-0.039,0.016,0.031
2026-05-11 16:01:21.313678,SEARCHING,9.085,1.000,0.00,0.00,19.84,3.467,7.381,3.092,4.974,6.730,0.700,-0.031,0.016,0.031
2026-05-11 16:01:21.518646,SEARCHING,9.217,1.000,0.00,0.00,20.13,3.316,6.730,3.134,4.868,6.184,0.700,-0.026,0.008,0.016
2026-05-11 16:01:21.718787,SEARCHING,9.348,1.000,0.00,0.00,20.29,3.178,6.538,3.134,4.868,6.184,0.700,-0.026,0.002,0.004
2026-05-11 16:01:21.927926,SEARCHING,9.480,1.000,0.00,0.00,20.37,3.092,6.730,3.134,4.868,6.022,0.700,-0.024,-0.002,-0.004
2026-05-11 16:01:22.135326,SEARCHING,9.611,1.000,0.00,0.00,20.31,3.011,6.538,3.316,4.868,6.184,0.700,-0.026,-0.014,-0.028
2026-05-11 16:01:22.341535,SEARCHING,9.742,1.000,0.00,0.00,19.98,2.972,6.538,3.467,4.868,6.184,0.700,-0.026,-0.022,-0.043
2026-05-11 16:01:22.568526,SEARCHING,9.874,1.000,0.00,0.00,19.47,2.972,6.538,3.575,4.767,6.022,0.700,-0.026,-0.026,-0.051
2026-05-11 16:01:22.769803,SEARCHING,10.006,1.000,0.00,0.00,18.88,3.011,6.934,3.520,4.767,6.538,0.700,-0.034,-0.022,-0.043
2026-05-11 16:01:22.964353,SEARCHING,10.139,1.000,0.00,0.00,18.41,3.051,6.934,3.467,4.868,6.730,0.700,-0.034,-0.018,-0.035
2026-05-11 16:01:23.176810,SEARCHING,10.272,1.000,0.00,0.00,18.03,3.051,6.934,3.415,4.868,6.934,0.700,-0.037,-0.016,-0.031
2026-05-11 16:01:23.403591,SEARCHING,10.405,1.000,0.00,0.00,17.68,3.134,6.730,3.365,4.868,6.934,0.700,-0.037,-0.010,-0.020
2026-05-11 16:01:23.609489,SEARCHING,10.539,1.000,0.00,0.00,17.43,3.134,6.730,3.316,4.974,6.538,0.700,-0.029,-0.008,-0.016
2026-05-11 16:01:23.814543,SEARCHING,10.672,1.000,0.00,0.00,17.25,3.134,6.730,3.223,4.868,6.356,0.700,-0.029,-0.004,-0.008
2026-05-11 16:01:24.017036,SEARCHING,10.806,1.000,0.00,0.00,17.15,3.223,6.934,3.223,4.868,6.356,0.700,-0.029,0.000,0.000
2026-05-11 16:01:24.220398,SEARCHING,10.940,1.000,0.00,0.00,17.13,3.269,6.538,3.223,4.868,6.356,0.700,-0.029,0.002,0.004
2026-05-11 16:01:24.419887,SEARCHING,11.073,1.000,0.00,0.00,17.14,3.269,6.538,3.223,4.868,4.767,0.700,0.003,0.002,0.004
2026-05-11 16:01:24.631459,SEARCHING,11.207,1.000,0.00,0.00,17.19,3.316,6.356,3.223,4.767,6.356,0.700,-0.031,0.004,0.008
2026-05-11 16:01:24.851901,SEARCHING,11.341,1.000,0.00,0.00,17.26,3.316,6.538,3.223,4.868,6.184,0.700,-0.026,0.004,0.008
2026-05-11 16:01:25.054966,SEARCHING,11.475,1.000,0.00,0.00,17.34,3.269,6.538,3.223,4.767,5.581,0.700,-0.018,0.002,0.004
2026-05-11 16:01:25.260412,SEARCHING,11.608,1.000,0.00,0.00,17.42,3.316,6.356,3.178,4.767,5.581,0.700,-0.018,0.006,0.012
2026-05-11 16:01:25.466114,SEARCHING,11.742,1.000,0.00,0.00,17.51,3.269,6.356,3.223,4.868,5.448,0.700,-0.013,0.002,0.004
2026-05-11 16:01:25.668143,SEARCHING,11.875,1.000,0.00,0.00,17.56,3.269,6.184,3.269,4.868,5.448,0.700,-0.013,0.000,0.000
2026-05-11 16:01:25.883937,SEARCHING,12.009,1.000,0.00,0.00,17.55,3.269,6.184,3.223,4.974,5.448,0.700,-0.010,0.002,0.004
2026-05-11 16:01:26.094848,SEARCHING,12.142,1.000,0.00,0.00,17.53,3.223,6.184,3.316,4.868,5.448,0.700,-0.013,-0.004,-0.008
2026-05-11 16:01:26.303208,SEARCHING,12.276,1.000,0.00,0.00,17.41,3.178,6.022,3.415,4.868,5.581,0.700,-0.016,-0.010,-0.020
2026-05-11 16:01:26.503977,SEARCHING,12.409,1.000,0.00,0.00,17.18,3.051,5.867,0.457,4.868,5.321,0.700,-0.010,0.838,1.676
2026-05-11 16:01:26.726380,SEARCHING,12.539,1.000,0.00,0.00,26.57,2.860,4.868,5.200,4.868,4.670,0.700,0.005,-0.071,-0.142
2026-05-11 16:01:26.926747,SEARCHING,12.663,1.000,0.00,0.00,32.78,2.487,4.237,6.934,4.237,3.945,0.700,0.010,-0.116,-0.232
2026-05-11 16:01:27.128662,SEARCHING,12.779,1.000,0.00,0.00,33.41,2.007,3.134,5.867,3.092,3.011,0.700,0.005,-0.147,-0.295
2026-05-11 16:01:27.333104,SEARCHING,12.897,1.000,0.00,0.00,30.08,2.099,3.365,6.022,3.365,3.092,0.700,0.016,-0.140,-0.279
2026-05-11 16:01:27.543773,SEARCHING,13.020,1.000,0.00,0.00,26.88,2.222,3.691,6.538,3.632,3.467,0.700,0.008,-0.134,-0.267
2026-05-11 16:01:27.745333,SEARCHING,13.147,1.000,0.00,0.00,23.83,2.359,3.751,6.730,3.751,3.575,0.700,0.008,-0.124,-0.248
2026-05-11 16:01:27.968740,SEARCHING,13.275,1.000,0.00,0.00,29.28,2.311,4.086,0.419,4.086,3.751,0.700,0.013,0.879,1.758
2026-05-11 16:01:28.157319,SEARCHING,13.386,1.000,0.00,0.00,41.44,1.708,2.460,4.317,2.487,2.460,0.700,0.003,-0.159,-0.319
2026-05-11 16:01:28.350523,SEARCHING,13.493,1.000,0.00,0.00,37.86,1.611,2.311,3.945,2.288,2.311,0.700,-0.003,-0.165,-0.330
2026-05-11 16:01:28.561569,SEARCHING,13.606,1.000,0.00,0.00,34.08,1.670,2.409,4.400,2.409,2.409,0.700,0.000,-0.167,-0.334
2026-05-11 16:01:28.775908,SEARCHING,13.724,1.000,0.00,0.00,30.25,1.816,2.542,4.767,2.542,2.542,0.700,0.000,-0.153,-0.307
2026-05-11 16:01:28.987644,SEARCHING,13.847,1.000,0.00,0.00,26.59,1.695,2.860,4.974,2.860,2.790,0.700,0.005,-0.175,-0.350
2026-05-11 16:01:29.192764,SEARCHING,13.974,1.000,0.00,0.00,22.61,1.774,3.051,5.720,3.051,3.011,0.700,0.003,-0.175,-0.350
2026-05-11 16:01:29.390143,SEARCHING,14.105,1.000,0.00,0.00,18.61,1.907,3.365,6.184,3.365,3.134,0.700,0.013,-0.163,-0.326
2026-05-11 16:01:29.623406,SEARCHING,14.239,1.000,0.00,0.00,14.89,2.043,3.751,6.730,3.751,3.365,0.700,0.018,-0.153,-0.307
2026-05-11 16:01:29.830248,SEARCHING,14.375,1.000,0.00,0.00,11.44,2.243,4.160,6.934,4.237,3.945,0.700,0.010,-0.136,-0.271
2026-05-11 16:01:30.043702,SEARCHING,14.513,1.000,0.00,0.00,8.33,2.335,4.317,6.934,4.317,3.945,0.700,0.013,-0.128,-0.256
2026-05-11 16:01:30.249556,SEARCHING,14.652,1.000,0.00,0.00,5.39,2.487,4.576,8.475,4.576,4.014,0.700,0.018,-0.128,-0.256
2026-05-11 16:01:30.445525,SEARCHING,14.792,1.000,0.00,0.00,2.96,2.692,4.868,4.400,4.767,4.237,0.700,0.016,-0.065,-0.130
2026-05-11 16:01:30.667827,SEARCHING,14.932,1.000,0.00,0.00,1.76,3.011,5.200,3.467,4.868,5.200,0.700,-0.008,-0.020,-0.039
2026-05-11 16:01:30.861730,SEARCHING,15.072,1.000,0.00,0.00,1.31,3.134,5.200,3.575,4.868,4.767,0.700,0.003,-0.018,-0.035
2026-05-11 16:01:31.067116,SEARCHING,15.211,1.000,0.00,0.00,0.94,3.178,5.200,3.691,4.868,5.200,0.700,-0.008,-0.020,-0.039
2026-05-11 16:01:31.277243,SEARCHING,15.351,1.000,0.00,0.00,0.40,2.972,5.085,3.814,4.868,5.085,0.700,-0.005,-0.033,-0.067
2026-05-11 16:01:31.496530,SEARCHING,15.491,1.000,0.00,0.00,-0.41,2.934,5.085,3.814,4.868,4.974,0.700,-0.003,-0.035,-0.071
2026-05-11 16:01:31.695631,SEARCHING,15.631,1.000,0.00,0.00,-1.26,2.934,5.200,3.751,4.868,4.767,0.700,0.003,-0.033,-0.067
2026-05-11 16:01:31.906971,SEARCHING,15.771,1.000,0.00,0.00,-2.04,2.972,5.448,3.751,4.974,4.576,0.700,0.010,-0.031,-0.063
2026-05-11 16:01:32.116330,SEARCHING,15.911,1.000,0.00,0.00,-2.75,3.011,5.200,3.632,4.974,4.400,0.700,0.016,-0.026,-0.051
2026-05-11 16:01:32.323664,SEARCHING,16.051,1.000,0.00,0.00,-3.36,3.011,5.321,3.691,4.868,4.868,0.700,0.000,-0.028,-0.055
2026-05-11 16:01:32.514759,SEARCHING,16.191,1.000,0.00,0.00,-3.97,3.051,5.200,3.632,4.868,4.670,0.700,0.005,-0.024,-0.047
2026-05-11 16:01:32.730711,SEARCHING,16.330,1.000,0.00,0.00,-4.50,3.134,5.085,3.691,4.868,4.868,0.700,0.000,-0.022,-0.043
2026-05-11 16:01:32.929586,SEARCHING,16.470,1.000,0.00,0.00,-4.97,3.178,5.085,3.632,4.868,4.767,0.700,0.003,-0.018,-0.035
2026-05-11 16:01:33.152345,SEARCHING,16.609,1.000,0.00,0.00,-5.25,3.178,5.200,3.223,4.868,4.670,0.700,0.005,-0.002,-0.004
2026-05-11 16:01:33.353893,SEARCHING,16.749,1.000,0.00,0.00,-5.40,3.092,5.085,3.365,4.974,4.670,0.700,0.008,-0.012,-0.024
2026-05-11 16:01:33.549148,SEARCHING,16.888,1.000,0.00,0.00,-5.64,3.051,4.974,3.178,4.868,4.767,0.700,0.003,-0.006,-0.012
2026-05-11 16:01:33.755608,SEARCHING,17.027,1.000,0.00,0.00,-5.81,2.934,4.868,3.316,4.868,4.767,0.700,0.003,-0.018,-0.035
2026-05-11 16:01:33.966360,SEARCHING,17.167,1.000,0.00,0.00,-6.12,2.934,4.868,3.223,4.868,4.767,0.700,0.003,-0.014,-0.028
2026-05-11 16:01:34.180967,SEARCHING,17.306,1.000,0.00,0.00,-6.43,2.934,4.767,3.316,4.767,4.767,0.700,0.000,-0.018,-0.035
2026-05-11 16:01:34.399528,SEARCHING,17.445,1.000,0.00,0.00,-6.82,2.934,4.767,5.720,4.767,4.576,0.700,0.005,-0.075,-0.149
2026-05-11 16:01:34.601807,SEARCHING,17.584,1.000,0.00,0.00,-8.38,2.896,4.767,6.022,4.670,4.576,0.700,0.003,-0.081,-0.161
2026-05-11 16:01:34.804483,SEARCHING,17.722,1.000,0.00,0.00,-10.17,3.092,4.868,5.085,4.868,4.868,0.700,0.000,-0.057,-0.114
2026-05-11 16:01:35.014165,SEARCHING,17.859,1.000,0.00,0.00,-11.48,3.178,4.868,5.720,4.868,4.868,0.700,0.000,-0.063,-0.126
2026-05-11 16:01:35.229273,SEARCHING,17.996,1.000,0.00,0.00,-12.85,3.365,5.085,5.720,4.868,4.868,0.700,0.000,-0.055,-0.110
2026-05-11 16:01:35.446788,SEARCHING,18.133,1.000,0.00,0.00,-14.13,3.365,5.085,5.720,4.868,4.868,0.700,0.000,-0.055,-0.110
2026-05-11 16:01:35.651425,SEARCHING,18.268,1.000,0.00,0.00,-15.40,3.223,4.974,5.321,4.868,4.400,0.700,0.013,-0.055,-0.110
2026-05-11 16:01:35.857757,SEARCHING,18.403,1.000,0.00,0.00,-16.09,3.178,5.085,2.896,4.868,4.767,0.700,0.003,0.014,0.028
2026-05-11 16:01:36.082778,SEARCHING,18.537,1.000,0.00,0.00,-16.11,3.134,5.085,4.086,4.767,4.868,0.700,-0.003,-0.033,-0.067
2026-05-11 16:01:36.300283,SEARCHING,18.671,1.000,0.00,0.00,-16.91,3.134,4.974,4.160,4.868,4.767,0.700,0.003,-0.035,-0.071
2026-05-11 16:01:36.491710,SEARCHING,18.772,1.000,0.00,0.00,-17.51,3.223,4.974,4.014,4.868,4.317,0.700,0.016,-0.028,-0.055
2026-05-11 16:01:36.723306,SEARCHING,18.938,1.000,0.00,0.00,-18.35,3.178,4.974,4.086,4.868,4.576,0.700,0.008,-0.031,-0.063
2026-05-11 16:01:36.928983,SEARCHING,19.071,1.000,0.00,0.00,-19.07,3.223,5.085,4.160,4.974,4.974,0.700,0.000,-0.031,-0.063
2026-05-11 16:01:37.130967,SEARCHING,19.203,1.000,0.00,0.00,-19.78,3.223,5.085,4.160,4.868,4.974,0.700,-0.003,-0.031,-0.063
2026-05-11 16:01:37.351981,SEARCHING,19.334,1.000,0.00,0.00,-20.48,3.223,5.581,4.160,4.868,4.576,0.700,0.008,-0.031,-0.063
2026-05-11 16:01:37.554642,SEARCHING,19.465,1.000,0.00,0.00,-21.19,3.316,5.720,4.160,4.868,4.487,0.700,0.010,-0.028,-0.055
2026-05-11 16:01:37.760705,SEARCHING,19.596,1.000,0.00,0.00,-21.88,3.134,6.022,4.014,4.868,4.767,0.700,0.003,-0.031,-0.063
2026-05-11 16:01:37.965900,SEARCHING,19.725,1.000,0.00,0.00,-22.59,3.134,6.022,3.945,4.868,4.767,0.700,0.003,-0.029,-0.059
2026-05-11 16:01:38.184032,SEARCHING,19.854,1.000,0.00,0.00,-23.26,3.092,5.867,3.814,4.868,5.321,0.700,-0.010,-0.028,-0.055
2026-05-11 16:01:38.391553,SEARCHING,19.983,1.000,0.00,0.00,-23.91,3.051,5.867,3.691,4.767,5.720,0.700,-0.021,-0.026,-0.051
2026-05-11 16:01:38.592096,SEARCHING,20.110,1.000,0.00,0.00,-24.53,3.011,6.022,3.632,4.868,4.767,0.700,0.003,-0.026,-0.051
2026-05-11 16:01:38.813058,SEARCHING,20.237,1.000,0.00,0.00,-25.11,3.051,5.867,3.632,4.868,4.767,0.700,0.003,-0.024,-0.047
2026-05-11 16:01:39.020515,SEARCHING,20.364,1.000,0.00,0.00,-25.65,3.011,5.867,3.520,4.868,4.317,0.700,0.016,-0.022,-0.043
2026-05-11 16:01:39.227366,SEARCHING,20.490,1.000,0.00,0.00,-26.15,2.972,5.867,3.467,4.868,4.487,0.700,0.010,-0.022,-0.043
2026-05-11 16:01:39.438050,SEARCHING,20.615,1.000,0.00,0.00,-26.64,2.972,6.022,3.467,4.767,4.317,0.700,0.013,-0.022,-0.043
2026-05-11 16:01:40.100602,SEARCHING,20.740,1.000,0.00,0.00,-27.14,2.934,6.184,3.415,4.868,4.576,0.700,0.008,-0.022,-0.043
2026-05-11 16:01:40.966127,SEARCHING,20.864,1.000,0.00,0.00,-27.62,2.972,6.356,3.365,4.868,4.868,0.700,0.000,-0.018,-0.035
2026-05-11 16:01:41.171954,SEARCHING,20.988,1.000,0.00,0.00,-28.03,2.934,6.184,3.269,4.868,4.974,0.700,-0.003,-0.016,-0.031
2026-05-11 16:01:41.389736,SEARCHING,21.112,1.000,0.00,0.00,-28.40,3.051,6.356,3.178,4.868,5.448,0.700,-0.013,-0.006,-0.012
2026-05-11 16:01:41.593558,SEARCHING,21.235,1.000,0.00,0.00,-28.57,3.134,6.184,3.178,4.868,5.200,0.700,-0.008,-0.002,-0.004
2026-05-11 16:01:41.804472,SEARCHING,21.358,1.000,0.00,0.00,-28.61,3.269,6.184,3.223,4.868,4.974,0.700,-0.003,0.002,0.004
2026-05-11 16:01:42.012072,SEARCHING,21.481,1.000,0.00,0.00,-28.54,3.316,6.184,3.223,4.868,4.767,0.700,0.003,0.004,0.008
2026-05-11 16:01:42.219189,SEARCHING,21.604,1.000,0.00,0.00,-28.46,3.269,6.184,3.223,4.868,4.576,0.700,0.008,0.002,0.004
2026-05-11 16:01:42.426908,SEARCHING,21.727,1.000,0.00,0.00,-28.42,3.223,6.022,3.269,4.974,4.576,0.700,0.010,-0.002,-0.004
2026-05-11 16:01:42.639228,SEARCHING,21.850,1.000,0.00,0.00,-28.48,3.178,6.022,3.467,4.868,5.321,0.700,-0.010,-0.012,-0.024
2026-05-11 16:01:42.853662,SEARCHING,21.973,1.000,0.00,0.00,-28.70,3.269,5.867,3.632,4.868,4.317,0.700,0.016,-0.014,-0.028
2026-05-11 16:01:43.062039,SEARCHING,22.095,1.000,0.00,0.00,-28.99,3.134,5.867,3.751,4.868,4.576,0.700,0.008,-0.024,-0.047
2026-05-11 16:01:43.267051,SEARCHING,22.218,1.000,0.00,0.00,-29.52,3.134,6.022,3.814,4.868,5.448,0.700,-0.013,-0.026,-0.051
2026-05-11 16:01:43.491710,SEARCHING,22.339,1.000,0.00,0.00,-30.10,3.051,5.867,3.751,4.868,5.448,0.700,-0.013,-0.028,-0.055
2026-05-11 16:01:43.676970,SEARCHING,22.460,1.000,0.00,0.00,-30.73,3.011,6.184,3.691,4.868,4.487,0.700,0.010,-0.028,-0.055
2026-05-11 16:01:43.883551,SEARCHING,22.580,1.000,0.00,0.00,-31.35,3.051,6.184,3.632,4.767,5.867,0.700,-0.024,-0.024,-0.047
2026-05-11 16:01:44.096096,SEARCHING,22.699,1.000,0.00,0.00,-31.88,3.051,6.356,3.575,4.868,4.487,0.700,0.010,-0.022,-0.043
2026-05-11 16:01:44.306650,SEARCHING,22.818,1.000,0.00,0.00,-32.36,3.051,6.538,3.520,4.868,4.487,0.700,0.010,-0.020,-0.039
2026-05-11 16:01:44.499239,SEARCHING,22.936,1.000,0.00,0.00,-32.79,3.092,7.151,3.467,4.868,4.868,0.700,0.000,-0.016,-0.031
2026-05-11 16:01:44.702349,SEARCHING,23.053,1.000,0.00,0.00,-33.14,3.092,7.381,3.415,4.868,6.022,0.700,-0.024,-0.014,-0.028
2026-05-11 16:01:44.913055,SEARCHING,23.170,1.000,0.00,0.00,-33.47,3.092,7.627,3.467,4.868,4.767,0.700,0.003,-0.016,-0.031
2026-05-11 16:01:45.118585,SEARCHING,23.287,1.000,0.00,0.00,-33.85,3.051,7.627,3.467,4.868,4.974,0.700,-0.003,-0.018,-0.035
2026-05-11 16:01:45.322730,SEARCHING,23.403,1.000,0.00,0.00,-34.26,3.134,8.172,3.415,4.868,5.085,0.700,-0.005,-0.012,-0.024
2026-05-11 16:01:45.542454,SEARCHING,23.518,1.000,0.00,0.00,-34.55,3.134,8.475,3.365,4.868,5.085,0.700,-0.005,-0.010,-0.020
2026-05-11 16:01:45.748236,SEARCHING,23.633,1.000,0.00,0.00,-34.78,3.134,7.890,3.365,4.868,5.581,0.700,-0.016,-0.010,-0.020
2026-05-11 16:01:45.970290,SEARCHING,23.748,1.000,0.00,0.00,-34.99,3.178,7.890,3.365,4.868,4.868,0.700,0.000,-0.008,-0.016
2026-05-11 16:01:46.163535,SEARCHING,23.863,1.000,0.00,0.00,-35.15,3.178,7.890,3.365,4.868,6.934,0.700,-0.037,-0.008,-0.016
2026-05-11 16:01:46.387830,SEARCHING,23.977,1.000,0.00,0.00,-35.34,3.178,8.172,3.316,4.868,6.730,0.700,-0.034,-0.006,-0.012
2026-05-11 16:01:46.600881,SEARCHING,24.091,1.000,0.00,0.00,-35.49,3.178,7.890,3.316,4.868,5.085,0.700,-0.005,-0.006,-0.012
2026-05-11 16:01:46.822391,SEARCHING,24.205,1.000,0.00,0.00,-35.63,3.134,7.890,3.365,4.868,6.934,0.700,-0.037,-0.010,-0.020
2026-05-11 16:01:47.022162,SEARCHING,24.319,1.000,0.00,0.00,-35.84,3.178,7.890,3.365,4.868,6.356,0.700,-0.029,-0.008,-0.016
2026-05-11 16:01:47.233877,SEARCHING,24.432,1.000,0.00,0.00,-36.03,3.178,7.381,3.365,4.868,6.730,0.700,-0.034,-0.008,-0.016
2026-05-11 16:01:47.433742,SEARCHING,24.545,1.000,0.00,0.00,-36.21,3.134,7.381,3.365,4.868,6.184,0.700,-0.026,-0.010,-0.020
2026-05-11 16:01:47.647185,SEARCHING,24.658,1.000,0.00,0.00,-36.41,3.134,7.151,3.415,4.868,4.767,0.700,0.003,-0.012,-0.024
2026-05-11 16:01:47.854703,SEARCHING,24.771,1.000,0.00,0.00,-36.65,3.134,7.151,3.365,4.868,6.184,0.700,-0.026,-0.010,-0.020
2026-05-11 16:01:48.064128,SEARCHING,24.883,1.000,0.00,0.00,-36.84,3.223,6.934,3.365,4.868,6.184,0.700,-0.026,-0.006,-0.012
2026-05-11 16:01:48.285797,SEARCHING,24.995,1.000,0.00,0.00,-36.98,3.223,6.934,3.365,4.868,6.356,0.700,-0.029,-0.006,-0.012
2026-05-11 16:01:48.492849,SEARCHING,25.107,1.000,0.00,0.00,-37.15,3.134,6.730,3.316,4.767,6.184,0.700,-0.029,-0.008,-0.016
2026-05-11 16:01:48.711241,SEARCHING,25.218,1.000,0.00,0.00,-37.32,3.178,6.934,3.316,4.868,5.867,0.700,-0.021,-0.006,-0.012
2026-05-11 16:01:48.919201,SEARCHING,25.329,1.000,0.00,0.00,-37.47,3.178,6.538,3.316,4.868,6.184,0.700,-0.026,-0.006,-0.012
2026-05-11 16:01:49.136826,SEARCHING,25.440,1.000,0.00,0.00,-37.61,3.178,6.730,3.316,4.868,6.022,0.700,-0.024,-0.006,-0.012
2026-05-11 16:01:49.339309,SEARCHING,25.551,1.000,0.00,0.00,-37.75,3.178,6.730,3.316,4.868,6.022,0.700,-0.024,-0.006,-0.012
2026-05-11 16:01:49.554696,SEARCHING,25.662,1.000,0.00,0.00,-37.88,3.316,6.538,3.178,4.868,5.867,0.700,-0.021,0.006,0.012
2026-05-11 16:01:49.759845,SEARCHING,25.772,1.000,0.00,0.00,-37.79,3.365,6.356,3.223,4.868,5.720,0.700,-0.018,0.006,0.012
2026-05-11 16:01:49.974414,SEARCHING,25.883,1.000,0.00,0.00,-37.54,3.632,6.356,3.011,4.868,3.575,0.700,0.045,0.026,0.051
2026-05-11 16:01:50.200928,SEARCHING,25.994,1.000,0.00,0.00,-36.97,3.632,6.356,3.011,4.868,5.867,0.700,-0.021,0.026,0.051
2026-05-11 16:01:50.385725,SEARCHING,26.107,1.000,0.00,0.00,-36.39,3.575,6.730,3.051,4.767,5.085,0.700,-0.008,0.022,0.043
2026-05-11 16:01:50.603064,SEARCHING,26.220,1.000,0.00,0.00,-35.90,3.467,6.934,3.051,4.868,5.720,0.700,-0.018,0.018,0.035
2026-05-11 16:01:50.815457,SEARCHING,26.333,1.000,0.00,0.00,-35.48,3.467,6.934,3.092,4.868,5.720,0.700,-0.018,0.016,0.031
2026-05-11 16:01:51.028260,SEARCHING,26.448,1.000,0.00,0.00,-35.12,3.415,6.934,3.051,4.868,5.720,0.700,-0.018,0.016,0.031
2026-05-11 16:01:51.253083,SEARCHING,26.562,1.000,0.00,0.00,-34.75,3.365,6.934,3.092,4.868,5.867,0.700,-0.021,0.012,0.024
2026-05-11 16:01:51.456049,SEARCHING,26.678,1.000,0.00,0.00,-34.47,3.365,7.381,3.134,4.868,5.720,0.700,-0.018,0.010,0.020
2026-05-11 16:01:51.673500,SEARCHING,26.793,1.000,0.00,0.00,-34.25,3.269,7.151,3.134,4.868,5.867,0.700,-0.021,0.006,0.012
2026-05-11 16:01:51.867390,SEARCHING,26.909,1.000,0.00,0.00,-34.14,3.223,7.381,3.223,4.868,5.867,0.700,-0.021,0.000,0.000
2026-05-11 16:01:52.078032,SEARCHING,27.025,1.000,0.00,0.00,-34.15,3.178,6.934,3.269,4.868,5.720,0.700,-0.018,-0.004,-0.008
2026-05-11 16:01:52.285062,SEARCHING,27.141,1.000,0.00,0.00,-34.22,3.178,7.381,3.269,4.868,5.720,0.700,-0.018,-0.004,-0.008
2026-05-11 16:01:52.491499,SEARCHING,27.256,1.000,0.00,0.00,-34.32,3.178,7.381,3.316,4.868,5.448,0.700,-0.013,-0.006,-0.012
2026-05-11 16:01:52.718570,SEARCHING,27.372,1.000,0.00,0.00,-34.46,3.223,7.151,3.316,4.868,4.400,0.700,0.013,-0.004,-0.008
2026-05-11 16:01:52.924673,SEARCHING,27.487,1.000,0.00,0.00,-34.55,3.223,6.934,3.316,4.767,4.974,0.700,-0.005,-0.004,-0.008
2026-05-11 16:01:53.123383,SEARCHING,27.603,1.000,0.00,0.00,-34.66,3.223,7.151,3.269,4.868,5.720,0.700,-0.018,-0.002,-0.004
2026-05-11 16:01:53.346232,SEARCHING,27.718,1.000,0.00,0.00,-34.75,3.223,7.151,3.269,4.868,5.867,0.700,-0.021,-0.002,-0.004
2026-05-11 16:01:53.546054,SEARCHING,27.833,1.000,0.00,0.00,-34.81,3.223,7.151,3.269,4.868,5.867,0.700,-0.021,-0.002,-0.004
2026-05-11 16:01:53.751946,SEARCHING,27.948,1.000,0.00,0.00,-34.85,3.178,6.730,3.316,4.868,6.184,0.700,-0.026,-0.006,-0.012
2026-05-11 16:01:53.964413,SEARCHING,28.062,1.000,0.00,0.00,-34.96,3.134,6.934,3.223,4.868,6.184,0.700,-0.026,-0.004,-0.008
2026-05-11 16:01:54.186660,SEARCHING,28.177,1.000,0.00,0.00,-34.97,3.691,6.730,3.178,4.868,5.867,0.700,-0.021,0.020,0.039
2026-05-11 16:01:54.398619,SEARCHING,28.292,1.000,0.00,0.00,-34.55,4.086,6.934,3.092,4.868,5.867,0.700,-0.021,0.035,0.071
2026-05-11 16:01:54.613469,SEARCHING,28.408,1.000,0.00,0.00,-33.80,3.945,7.151,3.051,4.868,4.974,0.700,-0.003,0.033,0.067
2026-05-11 16:01:54.835193,SEARCHING,28.525,1.000,0.00,0.00,-33.02,3.945,7.381,3.011,4.868,6.184,0.700,-0.026,0.035,0.071
2026-05-11 16:01:55.042419,SEARCHING,28.642,1.000,0.00,0.00,-32.26,3.691,7.151,3.051,4.868,6.184,0.700,-0.026,0.026,0.051
2026-05-11 16:01:55.240725,SEARCHING,28.761,1.000,0.00,0.00,-31.61,3.575,7.151,3.051,4.767,5.867,0.700,-0.024,0.022,0.043
2026-05-11 16:01:55.449693,SEARCHING,28.881,1.000,0.00,0.00,-31.08,3.520,7.151,3.051,4.868,6.538,0.700,-0.031,0.020,0.039
2026-05-11 16:01:55.660356,SEARCHING,29.001,1.000,0.00,0.00,-30.64,3.365,6.934,3.051,4.868,7.151,0.700,-0.039,0.014,0.028
2026-05-11 16:01:55.871019,SEARCHING,29.122,1.000,0.00,0.00,-30.36,3.467,6.934,3.092,4.868,4.237,0.700,0.018,0.016,0.031
2026-05-11 16:01:56.092327,SEARCHING,29.243,1.000,0.00,0.00,-30.07,3.316,6.730,3.092,4.868,5.720,0.700,-0.018,0.010,0.020
2026-05-11 16:01:56.303265,SEARCHING,29.364,1.000,0.00,0.00,-29.84,3.223,6.538,3.092,4.767,5.720,0.700,-0.021,0.006,0.012
2026-05-11 16:01:56.527671,SEARCHING,29.485,1.000,0.00,0.00,-29.73,3.134,6.538,3.178,4.868,3.269,0.700,0.060,-0.002,-0.004
2026-05-11 16:01:56.718774,SEARCHING,29.607,1.000,0.00,0.00,-29.77,3.051,6.356,3.223,4.868,4.237,0.700,0.018,-0.008,-0.016
2026-05-11 16:01:56.936590,SEARCHING,29.728,1.000,0.00,0.00,-29.96,3.092,6.184,3.415,4.767,5.720,0.700,-0.021,-0.014,-0.028
2026-05-11 16:01:57.144219,SEARCHING,29.849,1.000,0.00,0.00,-30.27,3.092,6.184,3.415,4.868,5.720,0.700,-0.018,-0.014,-0.028
2026-05-11 16:01:57.356625,SEARCHING,29.970,1.000,0.00,0.00,-30.61,3.092,6.022,3.467,4.868,5.720,0.700,-0.018,-0.016,-0.031
2026-05-11 16:01:57.584004,SEARCHING,30.090,1.000,0.00,0.00,-30.96,3.092,5.867,3.415,4.868,5.581,0.700,-0.016,-0.014,-0.028
2026-05-11 16:01:57.783477,SEARCHING,30.210,1.000,0.00,0.00,-31.27,3.134,5.720,3.365,4.868,5.085,0.700,-0.005,-0.010,-0.020
2026-05-11 16:01:57.995662,SEARCHING,30.330,1.000,0.00,0.00,-31.50,3.134,5.581,3.365,4.868,5.085,0.700,-0.005,-0.010,-0.020
2026-05-11 16:01:58.206004,SEARCHING,30.449,1.000,0.00,0.00,-31.68,3.178,5.448,3.269,4.868,5.200,0.700,-0.008,-0.004,-0.008
2026-05-11 16:01:58.419275,SEARCHING,30.568,1.000,0.00,0.00,-31.76,3.178,5.321,3.269,4.974,4.974,0.700,0.000,-0.004,-0.008
2026-05-11 16:01:58.630018,SEARCHING,30.687,1.000,0.00,0.00,-31.83,3.178,5.200,3.269,4.868,4.767,0.700,0.003,-0.004,-0.008
2026-05-11 16:01:58.839861,SEARCHING,30.806,1.000,0.00,0.00,-31.93,3.223,5.085,3.269,4.868,4.868,0.700,0.000,-0.002,-0.004
2026-05-11 16:01:59.054190,SEARCHING,30.925,1.000,0.00,0.00,-31.99,3.223,4.868,3.316,4.868,4.767,0.700,0.003,-0.004,-0.008
2026-05-11 16:01:59.250354,SEARCHING,31.044,1.000,0.00,0.00,-32.04,3.223,4.767,3.223,4.767,4.670,0.700,0.003,0.000,0.000
2026-05-11 16:01:59.456354,SEARCHING,31.162,1.000,0.00,0.00,-32.04,3.223,4.670,3.269,4.670,4.487,0.700,0.005,-0.002,-0.004
2026-05-11 16:01:59.668091,SEARCHING,31.281,1.000,0.00,0.00,-32.08,3.269,4.576,3.269,4.576,4.576,0.700,0.000,0.000,0.000
2026-05-11 16:01:59.889713,SEARCHING,31.400,1.000,0.00,0.00,-32.06,3.223,4.400,3.223,4.400,4.317,0.700,0.003,0.000,0.000
2026-05-11 16:02:00.106873,SEARCHING,31.518,1.000,0.00,0.00,-32.04,3.269,4.317,3.223,4.317,3.945,0.700,0.013,0.002,0.004
2026-05-11 16:02:00.314310,SEARCHING,31.637,1.000,0.00,0.00,-32.03,3.269,4.160,3.316,4.160,4.086,0.700,0.003,-0.002,-0.004
2026-05-11 16:02:00.517024,SEARCHING,31.756,1.000,0.00,0.00,-32.10,3.316,4.014,3.316,4.014,3.814,0.700,0.008,0.000,0.000
2026-05-11 16:02:00.730305,SEARCHING,31.874,1.000,0.00,0.00,-32.11,3.365,3.878,3.223,3.878,3.575,0.700,0.013,0.006,0.012
2026-05-11 16:02:00.940758,SEARCHING,31.993,1.000,0.00,0.00,-31.99,3.415,3.691,3.269,3.751,3.467,0.700,0.013,0.006,0.012
2026-05-11 16:02:01.131317,SEARCHING,32.112,1.000,0.00,0.00,-31.81,3.467,3.575,3.092,3.632,3.520,0.700,0.005,0.016,0.031
2026-05-11 16:02:01.348420,SEARCHING,32.201,1.000,0.00,0.00,-31.56,3.365,3.520,3.051,3.520,3.467,0.700,0.003,0.014,0.028
2026-05-11 16:02:01.573242,SEARCHING,32.350,1.000,0.00,0.00,-31.16,3.223,3.365,2.972,3.365,3.269,0.700,0.005,0.012,0.024
2026-05-11 16:02:01.764679,SEARCHING,32.470,1.000,0.00,0.00,-30.91,3.092,3.269,3.011,3.269,3.269,0.700,0.000,0.004,0.008
2026-05-11 16:02:01.989573,SEARCHING,32.590,1.000,0.00,0.00,-30.83,2.934,3.051,2.972,3.092,3.011,0.700,0.005,-0.002,-0.004
2026-05-11 16:02:02.188341,SEARCHING,32.711,1.000,0.00,0.00,-30.89,2.825,2.972,2.934,2.934,2.896,0.700,0.003,-0.006,-0.012
2026-05-11 16:02:02.398552,SEARCHING,32.831,1.000,0.00,0.00,-31.03,2.724,2.825,2.896,2.825,2.825,0.700,0.000,-0.010,-0.020
2026-05-11 16:02:02.606852,SEARCHING,32.951,1.000,0.00,0.00,-31.27,2.600,2.724,2.860,2.724,2.724,0.700,0.000,-0.016,-0.031
2026-05-11 16:02:02.822546,SEARCHING,33.070,1.000,0.00,0.00,-31.64,2.434,2.571,2.692,2.542,2.542,0.700,0.000,-0.018,-0.035
2026-05-11 16:02:03.038650,SEARCHING,33.189,1.000,0.00,0.00,-32.06,2.311,2.434,2.571,2.409,2.409,0.700,0.000,-0.020,-0.039
2026-05-11 16:02:03.232670,SEARCHING,33.307,1.000,0.00,0.00,-32.51,2.200,2.311,2.434,2.311,2.311,0.700,0.000,-0.020,-0.039
2026-05-11 16:02:03.436858,SEARCHING,33.425,1.000,0.00,0.00,-32.97,2.119,2.243,2.359,2.243,2.222,0.700,0.003,-0.022,-0.043
2026-05-11 16:02:03.660654,SEARCHING,33.542,1.000,0.00,0.00,-33.48,1.923,2.043,2.159,2.043,2.043,0.700,0.000,-0.026,-0.051
2026-05-11 16:02:03.865972,SEARCHING,33.657,1.000,0.00,0.00,-34.08,1.788,1.907,2.025,1.907,1.907,0.667,0.000,-0.029,-0.059
2026-05-11 16:02:04.096605,SEARCHING,33.766,1.000,0.00,0.00,-34.75,1.634,1.760,1.876,1.760,1.760,0.616,0.000,-0.035,-0.071
2026-05-11 16:02:04.287684,SEARCHING,33.867,1.000,0.00,0.00,-35.54,1.557,1.658,1.774,1.658,1.658,0.580,0.000,-0.035,-0.071
2026-05-11 16:02:04.493220,SEARCHING,33.962,1.000,0.00,0.00,-36.35,1.430,1.546,1.658,1.546,1.536,0.541,0.003,-0.043,-0.087
2026-05-11 16:02:04.710153,SEARCHING,34.048,1.000,0.00,0.00,-37.35,1.330,1.439,1.567,1.439,1.439,0.504,0.000,-0.051,-0.102
2026-05-11 16:02:04.929771,SEARCHING,34.127,1.000,0.00,0.00,-38.51,1.224,1.330,1.448,1.330,1.330,0.466,0.000,-0.057,-0.114
2026-05-11 16:02:05.139067,SEARCHING,34.199,1.000,0.00,0.00,-39.84,1.173,1.278,1.404,1.278,1.278,0.447,0.000,-0.063,-0.126
2026-05-11 16:02:05.343149,SEARCHING,34.265,1.000,0.00,0.00,-41.35,1.064,1.167,1.300,1.173,1.167,0.409,0.003,-0.077,-0.153
2026-05-11 16:02:05.557460,SEARCHING,34.325,1.000,0.00,0.00,-43.17,0.974,1.084,1.211,1.084,1.084,0.380,0.000,-0.090,-0.181
2026-05-11 16:02:05.758239,SEARCHING,34.380,1.000,0.00,0.00,-45.28,0.930,1.040,1.186,1.040,1.040,0.364,0.000,-0.104,-0.208
2026-05-11 16:02:06.005718,INSPECTING,34.423,1.000,0.00,0.00,-47.28,0.867,0.982,1.127,0.982,0.978,0.350,0.550,-0.552,-0.850
2026-05-11 16:02:06.236075,INSPECTING,34.460,1.000,0.00,0.00,-55.56,0.806,0.942,1.127,0.942,0.942,0.350,0.550,-0.552,-0.850
2026-05-11 16:02:06.441564,INSPECTING,34.495,1.000,0.00,0.00,-65.30,0.773,0.953,1.250,0.957,0.953,0.350,0.550,-0.552,-0.850
2026-05-11 16:02:06.643163,INSPECTING,34.519,1.000,0.00,0.00,-75.04,0.770,0.982,1.237,0.982,0.986,0.350,-0.550,-0.552,-0.850
2026-05-11 16:02:06.833994,INSPECTING,34.532,1.000,0.00,0.00,-84.79,0.800,1.116,1.095,1.122,1.122,0.350,0.550,-0.552,-0.850
2026-05-11 16:02:07.054924,INSPECTING,34.533,1.000,0.00,0.00,-94.53,0.908,1.122,1.008,1.116,1.122,0.350,0.550,-0.552,-0.850
2026-05-11 16:02:07.267883,INSPECTING,34.523,1.000,0.00,0.00,-104.27,0.946,1.095,1.012,1.095,1.095,0.350,0.550,-0.552,-0.850
2026-05-11 16:02:07.619749,INSPECTING,34.500,1.000,0.00,0.00,-114.01,0.986,0.965,0.949,0.961,0.970,0.350,0.550,-0.552,-0.850
2026-05-11 16:02:07.813474,INSPECTING,34.485,1.000,0.00,0.00,-118.88,0.897,0.919,1.022,0.919,0.919,0.350,0.550,-0.552,-0.850
2026-05-11 16:02:07.969734,INSPECTING,34.467,1.000,0.00,0.00,-123.75,0.835,0.877,1.022,0.877,0.880,0.350,0.550,-0.552,-0.850
2026-05-11 16:02:08.362483,INSPECTING,34.424,1.000,0.00,0.00,-133.49,0.658,0.915,0.995,0.915,0.915,0.350,0.550,-0.552,-0.850
2026-05-11 16:02:08.506837,INSPECTING,34.399,1.000,0.00,0.00,-138.36,0.765,0.887,0.999,0.887,0.887,0.350,-0.550,0.552,0.850
2026-05-11 16:02:08.695793,INSPECTING,34.358,1.000,0.00,0.00,-145.66,0.773,0.867,1.026,0.867,0.863,0.350,-0.550,0.552,0.850
2026-05-11 16:02:08.910791,INSPECTING,34.297,1.000,0.00,0.00,-155.40,0.711,0.863,1.105,0.867,0.867,0.350,-0.550,0.552,0.850
2026-05-11 16:02:09.065398,INSPECTING,34.232,1.000,0.00,0.00,-165.14,0.698,0.894,1.217,0.890,0.894,0.350,-0.550,0.552,0.850
2026-05-11 16:02:09.420655,INSPECTING,34.133,1.000,0.00,0.00,-152.48,0.547,0.617,0.708,0.618,0.617,0.350,-0.550,-0.552,-0.850
2026-05-11 16:02:09.770440,INSPECTING,34.034,1.000,0.00,0.00,-135.43,0.497,0.530,0.566,0.530,0.528,0.350,-0.550,-0.552,-0.850
2026-05-11 16:02:09.945221,TURNING,33.998,1.000,0.00,0.00,-128.13,0.483,0.493,0.511,0.493,0.493,0.000,0.000,0.000,0.000
2026-05-11 16:02:10.114515,TURNING,33.933,1.000,0.00,0.00,-134.95,0.372,0.397,0.424,0.397,0.396,0.000,0.000,0.000,-0.800
2026-05-11 16:02:10.415757,TURNING,33.857,1.000,0.00,0.00,-148.58,0.270,0.311,0.367,0.310,0.311,0.000,0.000,0.000,-0.800
2026-05-11 16:02:11.060290,TURNING,33.857,1.000,0.00,0.00,-150.42,0.273,0.326,0.402,0.325,0.326,0.000,0.000,0.000,-0.800
2026-05-11 16:02:11.142371,TURNING,33.857,1.000,0.00,0.00,-155.00,0.277,0.335,0.424,0.336,0.333,0.000,0.000,0.000,-0.800
2026-05-11 16:02:11.990138,TURNING,33.857,1.000,0.00,0.00,-168.75,0.345,0.487,0.835,0.490,0.497,0.000,0.000,0.000,-0.800
2026-05-11 16:02:12.212661,TURNING,33.857,1.000,-0.00,0.00,166.04,0.390,0.590,1.346,0.607,0.594,0.000,0.000,0.000,-0.800
2026-05-11 16:02:12.395907,TURNING,33.857,1.000,-0.00,0.00,156.87,0.488,0.867,6.730,0.873,0.894,0.000,0.000,0.000,-0.800
2026-05-11 16:02:12.637187,TURNING,33.857,1.000,-0.00,0.00,147.70,0.639,1.658,6.356,1.634,1.646,0.000,0.000,0.000,-0.800
2026-05-11 16:02:12.820054,TURNING,33.857,1.000,-0.00,0.00,138.54,0.729,2.243,5.200,2.200,2.243,0.000,0.000,0.000,-0.800
2026-05-11 16:02:13.009278,TURNING,33.857,1.000,-0.00,0.00,129.37,1.012,8.475,4.317,4.868,5.448,0.000,0.000,0.000,-0.800
2026-05-11 16:02:13.237528,TURNING,33.857,1.000,-0.00,0.00,120.20,6.184,4.767,3.365,4.767,3.878,0.000,0.000,0.000,-0.800
2026-05-11 16:02:13.432860,TURNING,33.857,1.000,-0.00,0.00,111.03,6.934,4.400,2.934,4.400,3.178,0.000,0.000,0.000,-0.800
2026-05-11 16:02:13.642878,TURNING,33.857,1.000,-0.00,0.00,101.87,4.767,3.520,2.724,3.520,2.243,0.000,0.000,0.000,-0.800
2026-05-11 16:02:13.862838,TURNING,33.857,1.000,-0.00,0.00,92.71,4.767,3.520,2.724,3.520,2.243,0.000,0.000,0.000,-0.713
2026-05-11 16:02:14.054913,TURNING,33.857,1.000,-0.00,0.00,84.18,3.575,2.972,2.487,2.934,2.335,0.000,0.000,0.000,-0.564
2026-05-11 16:02:14.263553,TURNING,33.857,1.000,-0.00,0.00,77.54,3.269,2.790,2.487,2.825,2.790,0.000,0.000,0.000,-0.448
2026-05-11 16:02:14.471216,TURNING,33.857,1.000,-0.00,0.00,72.27,3.011,2.757,2.600,2.757,2.724,0.000,0.000,0.000,-0.356
2026-05-11 16:02:14.694808,TURNING,33.857,1.000,-0.00,0.00,68.04,2.934,2.724,2.692,2.724,2.724,0.000,0.000,0.000,-0.300
2026-05-11 16:02:14.883578,TURNING,33.857,1.000,-0.00,0.00,64.51,2.860,2.724,2.288,2.757,2.724,0.000,0.000,0.000,-0.300
2026-05-11 16:02:15.110445,TURNING,33.857,1.000,-0.00,0.00,61.07,2.825,2.724,2.061,2.757,2.724,0.000,0.000,0.000,-0.300
2026-05-11 16:02:15.326696,TURNING,33.857,1.000,-0.00,0.00,57.64,2.757,2.757,1.831,2.757,2.724,0.000,0.000,0.000,-0.300
2026-05-11 16:02:15.532617,RETURNING,33.857,1.000,-0.00,0.00,54.20,2.692,2.724,1.708,2.757,2.757,0.500,0.000,0.000,0.171
2026-05-11 16:02:15.726904,RETURNING,33.900,1.000,-0.00,0.00,55.46,2.661,2.724,1.646,2.724,2.724,0.500,0.000,0.000,0.185
2026-05-11 16:02:15.921812,RETURNING,33.956,1.000,-0.00,0.00,57.56,2.600,2.630,1.695,2.630,2.600,0.500,0.002,0.000,0.164
2026-05-11 16:02:16.138205,RETURNING,34.008,1.000,-0.00,0.00,59.43,2.514,2.514,1.802,2.514,2.514,0.500,0.000,0.000,0.126
2026-05-11 16:02:16.333327,RETURNING,34.058,1.000,-0.00,0.00,60.95,2.487,2.487,1.802,2.487,2.460,0.500,0.002,0.000,0.122
2026-05-11 16:02:16.564761,RETURNING,34.105,1.000,-0.00,0.00,62.35,2.359,2.335,1.876,2.335,2.335,0.500,0.000,0.000,0.087
2026-05-11 16:02:16.739499,RETURNING,34.151,1.000,-0.00,0.00,63.40,2.288,2.243,1.939,2.222,2.222,0.500,0.000,0.000,0.063
2026-05-11 16:02:16.967267,RETURNING,34.195,1.000,-0.00,0.00,64.15,2.200,2.119,2.007,2.119,2.119,0.500,0.000,0.000,0.035
2026-05-11 16:02:17.173632,RETURNING,34.239,1.000,-0.00,0.00,64.59,2.099,2.025,2.007,2.025,2.043,0.500,-0.002,0.000,0.017
2026-05-11 16:02:17.390733,RETURNING,34.281,1.000,-0.00,0.00,64.79,2.007,1.939,1.907,1.939,1.939,0.500,0.000,0.000,0.021
2026-05-11 16:02:17.598197,RETURNING,34.324,1.000,-0.00,0.00,65.00,1.923,1.816,1.802,1.831,1.831,0.500,0.000,0.000,0.028
2026-05-11 16:02:17.790689,RETURNING,34.366,1.000,-0.00,0.00,65.29,1.816,1.747,1.733,1.747,1.747,0.500,0.000,0.000,0.021
2026-05-11 16:02:17.986413,RETURNING,34.407,1.000,-0.00,0.00,65.54,1.747,1.670,1.646,1.658,1.682,0.500,-0.004,0.000,0.028
2026-05-11 16:02:18.232069,RETURNING,34.449,1.000,-0.00,0.00,65.86,1.611,1.557,1.515,1.557,1.557,0.500,0.000,0.000,0.031
2026-05-11 16:02:18.420371,RETURNING,34.489,1.000,-0.00,0.00,66.22,1.557,1.486,1.439,1.476,1.486,0.492,-0.002,0.000,0.042
2026-05-11 16:02:18.635456,RETURNING,34.529,1.000,-0.00,0.00,66.68,1.412,1.338,1.293,1.338,1.338,0.446,0.000,0.000,0.052
2026-05-11 16:02:18.867593,RETURNING,34.564,1.000,-0.00,0.00,67.23,1.346,1.278,1.217,1.271,1.278,0.424,-0.002,0.000,0.063
2026-05-11 16:02:19.048596,RETURNING,34.597,1.000,-0.00,0.00,67.96,1.264,1.198,1.133,1.198,1.192,0.397,0.002,0.000,0.073
2026-05-11 16:02:19.238648,RETURNING,34.627,1.000,-0.00,0.00,68.78,1.186,1.111,1.050,1.116,1.116,0.370,0.000,0.000,0.087
2026-05-11 16:02:19.462188,RETURNING,34.653,1.000,-0.00,0.00,69.77,1.100,1.035,0.970,1.031,1.035,0.344,-0.002,0.000,0.098
2026-05-11 16:02:19.674879,RETURNING,34.676,1.000,-0.00,0.00,70.89,1.031,0.961,0.897,0.961,0.957,0.319,0.002,0.000,0.115
2026-05-11 16:02:19.876462,RETURNING,34.697,1.000,-0.00,0.00,72.17,0.982,0.901,0.838,0.901,0.897,0.299,0.002,0.000,0.140
2026-05-11 16:02:20.096604,RETURNING,34.711,1.000,-0.00,0.00,73.30,0.942,0.860,0.795,0.860,0.860,0.287,0.000,0.000,0.157
2026-05-11 16:02:20.278150,RETURNING,34.731,1.000,-0.00,0.00,75.50,0.873,0.786,0.713,0.786,0.786,0.262,0.000,0.000,0.206
2026-05-11 16:02:20.499977,RETURNING,34.743,1.000,-0.00,0.00,77.76,0.844,0.753,0.683,0.753,0.753,0.251,0.000,0.000,0.224
2026-05-11 16:02:20.717001,RETURNING,34.753,1.000,-0.00,0.00,80.27,0.809,0.711,0.634,0.711,0.711,0.237,0.000,0.000,0.273
2026-05-11 16:02:20.898297,RETURNING,34.760,1.000,-0.00,0.00,83.30,0.781,0.673,0.591,0.675,0.673,0.224,0.002,0.000,0.329
2026-05-11 16:02:21.169902,RETURNING,34.764,1.000,-0.00,0.00,86.87,0.768,0.648,0.559,0.648,0.646,0.215,0.002,0.000,0.388
2026-05-11 16:02:21.352434,RETURNING,34.765,1.000,-0.00,0.00,91.25,0.768,0.623,0.525,0.623,0.622,0.207,0.002,0.000,0.482
2026-05-11 16:02:21.518595,RETURNING,34.762,1.000,-0.00,0.00,96.59,0.784,0.615,0.510,0.617,0.617,0.205,0.000,0.000,0.549
2026-05-11 16:02:21.736292,RETURNING,34.756,1.000,-0.00,0.00,102.73,0.857,0.629,0.497,0.627,0.629,0.209,-0.002,0.000,0.600
2026-05-11 16:02:21.931279,RETURNING,34.744,1.000,-0.00,0.00,109.40,0.904,0.645,0.496,0.643,0.643,0.214,0.000,0.000,0.600
2026-05-11 16:02:22.152568,RETURNING,34.733,1.000,-0.00,0.00,114.56,1.035,0.687,0.503,0.687,0.687,0.229,0.000,0.000,0.600
2026-05-11 16:02:22.369963,RETURNING,34.705,1.000,-0.00,0.00,123.15,1.546,0.800,0.536,0.792,0.797,0.264,-0.004,0.000,0.600
2026-05-11 16:02:22.605137,RETURNING,34.675,1.000,-0.00,0.00,130.03,1.923,0.817,0.561,0.844,0.841,0.272,0.002,0.000,0.600
2026-05-11 16:02:22.764411,RETURNING,34.648,1.000,-0.00,0.00,135.18,3.269,0.999,0.612,1.022,1.004,0.333,0.009,0.000,0.600
2026-05-11 16:02:22.965155,RETURNING,34.588,1.000,-0.00,0.00,143.78,3.269,0.999,0.612,1.022,1.004,0.333,0.009,0.000,0.600
2026-05-11 16:02:23.179155,RETURNING,34.528,1.000,-0.00,0.00,150.65,6.184,2.790,0.873,2.790,2.630,0.500,0.011,0.000,0.600
2026-05-11 16:02:23.388127,RETURNING,34.438,1.000,-0.00,0.00,157.53,4.670,4.237,1.257,4.237,2.600,0.500,0.074,0.000,0.465
2026-05-11 16:02:23.615594,RETURNING,34.344,1.000,-0.00,0.00,163.24,4.014,7.151,2.266,4.868,2.757,0.500,0.079,0.000,0.154
2026-05-11 16:02:23.831103,RETURNING,34.248,1.000,-0.00,0.00,166.18,3.520,6.022,2.757,4.868,3.178,0.500,0.055,0.000,0.063
2026-05-11 16:02:24.036262,RETURNING,34.151,1.000,-0.00,0.00,167.09,3.365,5.581,2.661,4.868,3.223,0.500,0.052,0.000,0.063
2026-05-11 16:02:24.253537,RETURNING,34.053,1.000,-0.00,0.00,167.78,3.269,5.321,3.178,4.868,4.974,0.500,-0.002,0.000,0.007
2026-05-11 16:02:24.459299,RETURNING,33.955,1.000,-0.00,0.00,168.05,3.134,5.085,4.160,4.974,2.514,0.500,0.098,0.000,-0.063
2026-05-11 16:02:24.648812,RETURNING,33.857,1.000,-0.00,0.00,167.60,3.134,5.085,4.317,4.868,2.434,0.500,0.103,0.000,-0.070
2026-05-11 16:02:24.846139,RETURNING,33.760,1.000,-0.00,0.00,166.84,3.134,5.085,4.237,4.868,2.335,0.500,0.111,0.000,-0.066
2026-05-11 16:02:25.080386,RETURNING,33.663,1.000,-0.00,0.00,166.10,3.269,5.200,4.160,4.974,2.790,0.500,0.079,0.000,-0.052
2026-05-11 16:02:25.293044,RETURNING,33.566,1.000,-0.00,0.00,165.50,3.365,5.321,4.086,4.868,2.724,0.500,0.081,0.000,-0.042
2026-05-11 16:02:25.472340,RETURNING,33.469,1.000,-0.00,0.00,164.96,3.415,5.448,3.945,4.868,2.335,0.500,0.111,0.000,-0.031
2026-05-11 16:02:25.674427,RETURNING,33.372,1.000,-0.00,0.00,164.54,3.365,5.448,4.014,4.868,5.085,0.500,-0.004,0.000,-0.038
2026-05-11 16:02:25.887657,RETURNING,33.276,1.000,-0.00,0.00,164.11,3.365,5.581,4.014,4.868,2.630,0.500,0.087,0.000,-0.038
2026-05-11 16:02:26.117008,RETURNING,33.180,1.000,-0.00,0.00,163.67,3.316,5.720,4.014,4.868,2.311,0.500,0.114,0.000,-0.042
2026-05-11 16:02:26.308830,RETURNING,33.084,1.000,-0.00,0.00,163.20,3.365,5.720,4.014,4.767,5.085,0.500,-0.007,0.000,-0.038
2026-05-11 16:02:26.504349,RETURNING,32.989,1.000,-0.00,0.00,162.75,3.316,5.720,3.945,4.868,5.085,0.500,-0.004,0.000,-0.038
2026-05-11 16:02:26.723906,RETURNING,32.893,1.000,-0.00,0.00,162.32,3.269,5.720,3.814,4.868,5.200,0.500,-0.007,0.000,-0.035
2026-05-11 16:02:26.928731,RETURNING,32.798,1.000,-0.00,0.00,161.92,3.316,5.867,3.878,4.868,4.974,0.500,-0.002,0.000,-0.035
2026-05-11 16:02:27.142721,RETURNING,32.703,1.000,-0.00,0.00,161.53,3.269,5.867,3.751,4.868,5.448,0.500,-0.011,0.000,-0.031
2026-05-11 16:02:27.366924,RETURNING,32.608,1.000,-0.00,0.00,161.16,3.269,5.867,3.691,4.974,5.321,0.500,-0.007,0.000,-0.028
2026-05-11 16:02:27.607960,RETURNING,32.514,1.000,-0.00,0.00,160.82,3.269,5.867,3.751,4.868,4.767,0.500,0.002,0.000,-0.031
2026-05-11 16:02:27.774714,RETURNING,32.419,1.000,-0.00,0.00,160.46,3.269,5.867,3.751,4.868,4.767,0.500,0.002,0.000,-0.031
2026-05-11 16:02:27.953916,RETURNING,32.325,1.000,-0.00,0.00,160.10,3.134,5.720,3.520,4.868,5.200,0.500,-0.007,0.000,-0.028
2026-05-11 16:02:28.171914,RETURNING,32.231,1.000,-0.00,0.00,159.77,3.051,5.720,3.575,4.868,5.448,0.500,-0.011,0.000,-0.038
2026-05-11 16:02:28.392368,RETURNING,32.138,1.000,-0.00,0.00,159.35,3.051,5.867,3.575,4.868,5.321,0.500,-0.009,0.000,-0.038
2026-05-11 16:02:28.583596,RETURNING,32.044,1.000,-0.00,0.00,158.92,3.092,5.867,3.467,4.868,5.581,0.500,-0.013,0.000,-0.028
2026-05-11 16:02:28.799316,RETURNING,31.951,1.000,-0.00,0.00,158.56,3.051,5.867,3.467,4.868,5.200,0.500,-0.007,0.000,-0.031
2026-05-11 16:02:29.004125,RETURNING,31.858,1.000,-0.00,0.00,158.21,3.092,5.867,3.415,4.868,5.581,0.500,-0.013,0.000,-0.024
2026-05-11 16:02:29.210231,RETURNING,31.765,1.000,-0.00,0.00,157.93,3.134,5.720,3.269,4.868,4.576,0.500,0.007,0.000,-0.010
2026-05-11 16:02:29.441233,RETURNING,31.673,1.000,-0.00,0.00,157.75,3.092,5.720,3.223,4.767,5.200,0.500,-0.009,0.000,-0.010
2026-05-11 16:02:29.631913,RETURNING,31.580,1.000,-0.00,0.00,157.64,3.092,5.581,3.178,4.868,5.321,0.500,-0.009,0.000,-0.007
2026-05-11 16:02:29.830155,RETURNING,31.488,1.000,-0.00,0.00,157.56,3.092,5.581,3.178,4.767,5.200,0.500,-0.009,0.000,-0.007
2026-05-11 16:02:30.026421,RETURNING,31.395,1.000,-0.00,0.00,157.46,3.051,5.448,3.520,4.868,5.321,0.500,-0.009,0.000,-0.035
2026-05-11 16:02:30.223392,RETURNING,31.303,1.000,-0.00,0.00,157.13,3.051,5.448,3.814,4.868,5.321,0.500,-0.009,0.000,-0.052
2026-05-11 16:02:30.446024,RETURNING,31.211,1.000,-0.00,0.00,156.57,3.051,5.581,3.751,4.868,4.974,0.500,-0.002,0.000,-0.049
2026-05-11 16:02:30.688063,RETURNING,31.119,1.000,-0.00,0.00,156.01,3.092,5.720,3.632,4.868,5.321,0.500,-0.009,0.000,-0.038
2026-05-11 16:02:30.922470,RETURNING,31.028,1.000,-0.00,0.00,155.55,3.223,5.720,3.520,4.868,5.448,0.500,-0.011,0.000,-0.021
2026-05-11 16:02:31.092131,RETURNING,30.937,1.000,-0.00,0.00,155.25,3.269,5.720,3.575,4.868,5.448,0.500,-0.011,0.000,-0.021
2026-05-11 16:02:31.297294,RETURNING,30.846,1.000,-0.00,0.00,155.04,3.269,5.867,3.520,4.868,5.321,0.500,-0.009,0.000,-0.017
2026-05-11 16:02:31.511229,RETURNING,30.756,1.000,-0.00,0.00,154.84,3.269,5.720,3.520,4.868,5.448,0.500,-0.011,0.000,-0.017
2026-05-11 16:02:31.715000,RETURNING,30.665,1.000,-0.00,0.00,154.64,3.316,5.720,3.520,4.868,5.581,0.500,-0.013,0.000,-0.014
2026-05-11 16:02:31.915191,RETURNING,30.575,1.000,-0.00,0.00,154.45,3.223,5.867,3.575,4.868,5.448,0.500,-0.011,0.000,-0.024
2026-05-11 16:02:32.114369,RETURNING,30.485,1.000,-0.00,0.00,154.16,3.223,5.867,3.632,4.868,5.448,0.500,-0.011,0.000,-0.028
2026-05-11 16:02:32.348629,RETURNING,30.395,1.000,-0.00,0.00,153.83,3.269,5.720,3.632,4.868,5.448,0.500,-0.011,0.000,-0.024
2026-05-11 16:02:32.541614,RETURNING,30.305,1.000,-0.00,0.00,153.48,3.223,5.867,3.814,4.868,5.448,0.500,-0.011,0.000,-0.038
2026-05-11 16:02:32.731159,RETURNING,30.216,1.000,-0.00,0.00,153.06,3.178,5.867,3.751,4.868,5.321,0.500,-0.009,0.000,-0.038
2026-05-11 16:02:32.963606,RETURNING,30.127,1.000,-0.00,0.00,152.60,3.178,5.867,3.814,4.868,5.581,0.500,-0.013,0.000,-0.042
2026-05-11 16:02:33.154277,RETURNING,30.039,1.000,-0.00,0.00,152.10,3.178,5.867,3.751,4.868,5.581,0.500,-0.013,0.000,-0.038
2026-05-11 16:02:33.363617,RETURNING,29.950,1.000,-0.00,0.00,151.67,3.223,5.867,3.691,4.868,5.581,0.500,-0.013,0.000,-0.031
2026-05-11 16:02:33.591292,RETURNING,29.862,1.000,-0.00,0.00,151.29,3.178,5.867,3.632,4.974,6.022,0.500,-0.017,0.000,-0.031
2026-05-11 16:02:33.785547,RETURNING,29.775,1.000,-0.00,0.00,150.93,3.178,6.022,3.632,4.868,5.867,0.500,-0.017,0.000,-0.031
2026-05-11 16:02:34.008297,RETURNING,29.688,1.000,-0.00,0.00,150.57,3.178,6.022,3.632,4.868,5.581,0.500,-0.013,0.000,-0.031
2026-05-11 16:02:34.232011,RETURNING,29.601,1.000,-0.00,0.00,150.21,3.134,6.022,3.467,4.974,5.448,0.500,-0.009,0.000,-0.024
2026-05-11 16:02:34.411742,RETURNING,29.514,1.000,-0.00,0.00,149.89,3.178,6.184,3.520,4.868,5.448,0.500,-0.011,0.000,-0.024
2026-05-11 16:02:34.627313,RETURNING,29.428,1.000,-0.00,0.00,149.60,3.178,6.022,3.691,4.868,5.448,0.500,-0.011,0.000,-0.035
2026-05-11 16:02:34.838088,RETURNING,29.342,1.000,-0.00,0.00,149.21,3.134,6.538,3.467,4.868,5.085,0.500,-0.004,0.000,-0.024
2026-05-11 16:02:35.061831,RETURNING,29.256,1.000,-0.00,0.00,148.91,3.178,6.356,3.467,4.767,5.085,0.500,-0.007,0.000,-0.021
2026-05-11 16:02:35.269230,RETURNING,29.170,1.000,-0.00,0.00,148.66,3.178,6.934,3.415,4.868,6.356,0.500,-0.024,0.000,-0.017
2026-05-11 16:02:35.455489,RETURNING,29.085,1.000,-0.00,0.00,148.48,3.178,6.934,3.415,4.767,5.720,0.500,-0.017,0.000,-0.017
2026-05-11 16:02:35.681607,RETURNING,29.000,1.000,-0.00,0.00,148.33,3.178,6.730,3.365,4.868,5.448,0.500,-0.011,0.000,-0.014
2026-05-11 16:02:35.890351,RETURNING,28.915,1.000,-0.00,0.00,148.17,3.178,7.151,3.365,4.868,5.448,0.500,-0.011,0.000,-0.014
2026-05-11 16:02:36.090384,RETURNING,28.830,1.000,-0.00,0.00,148.02,3.178,7.151,3.269,4.868,4.974,0.500,-0.002,0.000,-0.007
2026-05-11 16:02:36.299836,RETURNING,28.745,1.000,-0.00,0.00,147.96,3.178,7.151,3.269,4.868,6.730,0.500,-0.028,0.000,-0.007
2026-05-11 16:02:36.503092,RETURNING,28.660,1.000,-0.00,0.00,147.86,3.092,7.151,3.415,4.974,4.487,0.500,0.011,0.000,-0.024
2026-05-11 16:02:36.719753,RETURNING,28.576,1.000,-0.00,0.00,147.61,3.134,6.934,3.415,4.868,7.151,0.500,-0.033,0.000,-0.021
2026-05-11 16:02:36.926009,RETURNING,28.491,1.000,-0.00,0.00,147.35,3.134,7.151,3.415,4.868,3.575,0.500,0.037,0.000,-0.021
2026-05-11 16:02:37.114807,RETURNING,28.407,1.000,-0.00,0.00,147.11,3.178,6.934,3.415,4.868,6.730,0.500,-0.028,0.000,-0.017
2026-05-11 16:02:37.325995,RETURNING,28.323,1.000,-0.00,0.00,146.89,3.178,7.151,3.365,4.868,4.086,0.500,0.020,0.000,-0.014
2026-05-11 16:02:37.553135,RETURNING,28.240,1.000,-0.00,0.00,146.70,3.134,6.730,3.415,4.868,4.400,0.500,0.011,0.000,-0.021
2026-05-11 16:02:37.731191,RETURNING,28.156,1.000,-0.00,0.00,146.49,3.134,6.934,3.415,4.868,4.487,0.500,0.009,0.000,-0.021
2026-05-11 16:02:37.965161,RETURNING,28.073,1.000,-0.00,0.00,146.31,3.178,6.730,3.365,4.868,3.520,0.500,0.039,0.000,-0.014
2026-05-11 16:02:38.143168,RETURNING,27.990,1.000,-0.00,0.00,146.15,3.134,7.381,3.415,4.868,4.317,0.500,0.013,0.000,-0.021
2026-05-11 16:02:38.353409,RETURNING,27.907,1.000,-0.00,0.00,145.93,3.134,7.627,3.415,4.868,3.365,0.500,0.046,0.000,-0.021
2026-05-11 16:02:38.571719,RETURNING,27.824,1.000,-0.00,0.00,145.70,3.134,7.890,3.415,4.868,4.400,0.500,0.011,0.000,-0.021
2026-05-11 16:02:38.776202,RETURNING,27.742,1.000,-0.00,0.00,145.46,3.178,7.151,3.415,4.868,4.576,0.500,0.007,0.000,-0.017
2026-05-11 16:02:38.964446,RETURNING,27.659,1.000,-0.00,0.00,145.25,3.178,7.151,3.415,4.868,4.576,0.500,0.007,0.000,-0.017
2026-05-11 16:02:39.187049,RETURNING,27.577,1.000,-0.00,0.00,145.04,3.134,7.151,3.365,4.868,4.487,0.500,0.009,0.000,-0.017
2026-05-11 16:02:39.414068,RETURNING,27.495,1.000,-0.00,0.00,144.81,3.051,7.151,3.415,4.868,5.720,0.500,-0.015,0.000,-0.028
2026-05-11 16:02:39.588000,RETURNING,27.414,1.000,-0.00,0.00,144.49,3.051,7.381,3.415,4.868,4.400,0.500,0.011,0.000,-0.028
2026-05-11 16:02:39.799832,RETURNING,27.333,1.000,-0.00,0.00,144.16,2.972,7.151,3.415,4.868,4.237,0.500,0.015,0.000,-0.035
2026-05-11 16:02:40.008424,RETURNING,27.252,1.000,-0.00,0.00,143.76,3.051,7.381,3.415,4.868,3.269,0.500,0.050,0.000,-0.028
2026-05-11 16:02:40.222934,RETURNING,27.171,1.000,-0.00,0.00,143.43,3.134,7.890,3.365,4.868,4.400,0.500,0.011,0.000,-0.017
2026-05-11 16:02:40.418891,RETURNING,27.091,1.000,-0.00,0.00,143.18,3.178,7.627,3.365,4.868,3.365,0.500,0.046,0.000,-0.014
2026-05-11 16:02:40.617225,RETURNING,27.011,1.000,-0.00,0.00,143.02,3.223,7.381,3.316,4.868,3.011,0.500,0.063,0.000,-0.007
2026-05-11 16:02:40.804060,RETURNING,26.931,1.000,-0.00,0.00,142.95,3.269,7.627,3.223,4.868,3.011,0.500,0.063,0.000,0.003
2026-05-11 16:02:41.053762,RETURNING,26.851,1.000,-0.00,0.00,142.98,3.316,7.627,3.223,4.868,2.724,0.500,0.081,0.000,0.007
2026-05-11 16:02:41.237607,RETURNING,26.771,1.000,-0.00,0.00,143.05,3.365,7.627,3.223,4.868,0.823,0.274,0.400,0.000,0.010
2026-05-11 16:02:41.441066,RETURNING,26.713,1.000,-0.00,0.00,143.17,3.415,7.381,3.223,4.868,2.600,0.500,0.090,0.000,0.014
2026-05-11 16:02:41.654897,RETURNING,26.633,1.000,-0.00,0.00,143.34,3.467,7.381,3.223,4.868,2.757,0.500,0.079,0.000,0.017
2026-05-11 16:02:42.280719,RETURNING,26.553,1.000,-0.00,0.00,143.54,3.415,7.381,3.223,4.868,2.630,0.500,0.087,0.000,0.014
2026-05-11 16:02:43.066235,RETURNING,26.412,1.000,-0.00,0.00,143.82,3.415,7.381,3.223,4.868,2.630,0.500,0.087,0.000,0.014
2026-05-11 16:02:43.239977,RETURNING,26.270,1.000,-0.00,0.00,144.10,3.415,7.381,3.223,4.868,2.630,0.500,0.087,0.000,0.014
2026-05-11 16:02:43.433932,RETURNING,26.189,1.000,-0.00,0.00,144.30,3.575,7.381,3.011,4.868,4.576,0.500,0.007,0.000,0.042
2026-05-11 16:02:43.645094,RETURNING,26.108,1.000,-0.00,0.00,144.76,3.520,7.381,2.972,4.868,2.630,0.500,0.087,0.000,0.042
2026-05-11 16:02:43.870872,RETURNING,26.026,1.000,-0.00,0.00,145.24,3.467,7.381,3.011,4.868,2.384,0.500,0.107,0.000,0.035
2026-05-11 16:02:44.077784,RETURNING,25.943,1.000,-0.00,0.00,145.67,3.365,7.381,3.092,4.868,2.724,0.500,0.081,0.000,0.021
2026-05-11 16:02:44.265130,RETURNING,25.861,1.000,-0.00,0.00,145.97,3.316,7.381,3.134,4.868,2.692,0.500,0.083,0.000,0.014
2026-05-11 16:02:44.500642,RETURNING,25.778,1.000,-0.00,0.00,146.14,3.316,7.381,3.269,4.868,2.630,0.500,0.087,0.000,0.003
2026-05-11 16:02:44.733375,RETURNING,25.695,1.000,-0.00,0.00,146.21,3.223,7.381,3.269,4.767,2.661,0.500,0.083,0.000,-0.003
2026-05-11 16:02:44.910536,RETURNING,25.612,1.000,-0.00,0.00,146.19,3.269,7.381,3.316,4.767,2.384,0.500,0.105,0.000,-0.003
2026-05-11 16:02:45.097085,RETURNING,25.529,1.000,-0.00,0.00,146.15,3.223,7.381,3.316,4.868,2.460,0.500,0.101,0.000,-0.007
2026-05-11 16:02:45.323790,RETURNING,25.446,1.000,-0.00,0.00,146.07,3.178,7.381,3.316,4.767,4.400,0.500,0.009,0.000,-0.010
2026-05-11 16:02:45.523132,RETURNING,25.363,1.000,-0.00,0.00,145.96,3.178,7.381,3.316,4.767,5.321,0.500,-0.011,0.000,-0.010
2026-05-11 16:02:45.738846,RETURNING,25.280,1.000,-0.00,0.00,145.84,3.178,7.151,3.365,4.767,4.670,0.500,0.002,0.000,-0.014
2026-05-11 16:02:45.936341,RETURNING,25.197,1.000,-0.00,0.00,145.69,3.134,6.934,3.415,4.868,4.400,0.500,0.011,0.000,-0.021
2026-05-11 16:02:46.153458,RETURNING,25.115,1.000,-0.00,0.00,145.46,3.092,6.934,3.415,4.974,4.400,0.500,0.013,0.000,-0.024
2026-05-11 16:02:46.365211,RETURNING,25.032,1.000,-0.00,0.00,145.18,3.051,6.934,3.415,4.974,3.365,0.500,0.048,0.000,-0.028
2026-05-11 16:02:46.571472,RETURNING,24.950,1.000,-0.00,0.00,144.85,2.972,6.730,3.415,4.767,4.317,0.500,0.011,0.000,-0.035
2026-05-11 16:02:46.765694,RETURNING,24.869,1.000,-0.00,0.00,144.46,2.972,6.538,3.415,4.868,4.400,0.500,0.011,0.000,-0.035
2026-05-11 16:02:46.976720,RETURNING,24.788,1.000,-0.00,0.00,144.05,3.051,6.538,3.415,4.974,3.051,0.500,0.063,0.000,-0.028
2026-05-11 16:02:47.189560,RETURNING,24.707,1.000,-0.00,0.00,143.72,3.134,6.356,3.365,4.868,4.400,0.500,0.011,0.000,-0.017
2026-05-11 16:02:47.416460,RETURNING,24.626,1.000,-0.00,0.00,143.50,3.223,6.356,3.316,4.974,2.757,0.500,0.081,0.000,-0.007
2026-05-11 16:02:47.607844,RETURNING,24.546,1.000,-0.00,0.00,143.36,3.269,6.356,3.316,4.868,3.814,0.500,0.028,0.000,-0.003
2026-05-11 16:02:47.802985,RETURNING,24.466,1.000,-0.00,0.00,143.31,3.269,6.184,3.223,4.868,3.365,0.500,0.046,0.000,0.003
2026-05-11 16:02:48.023972,RETURNING,24.386,1.000,-0.00,0.00,143.33,3.269,6.022,3.223,4.974,2.860,0.500,0.074,0.000,0.003
2026-05-11 16:02:48.215577,RETURNING,24.305,1.000,-0.00,0.00,143.36,3.178,6.022,3.223,4.974,4.487,0.500,0.011,0.000,-0.003
2026-05-11 16:02:48.444197,RETURNING,24.225,1.000,-0.00,0.00,143.35,3.134,6.022,3.134,4.868,3.467,0.500,0.042,0.000,0.000
2026-05-11 16:02:48.642486,RETURNING,24.145,1.000,-0.00,0.00,143.33,3.092,6.022,3.134,4.868,4.400,0.500,0.011,0.000,-0.003
2026-05-11 16:02:48.860968,RETURNING,24.065,1.000,-0.00,0.00,143.28,3.011,5.720,3.092,4.868,3.051,0.500,0.061,0.000,-0.007
2026-05-11 16:02:49.037429,RETURNING,23.985,1.000,-0.00,0.00,143.19,3.134,5.720,3.092,4.868,2.288,0.500,0.116,0.000,0.003
2026-05-11 16:02:49.226877,RETURNING,23.905,1.000,-0.00,0.00,143.22,3.223,5.448,3.051,4.974,4.014,0.500,0.024,0.000,0.014
2026-05-11 16:02:49.439962,RETURNING,23.824,1.000,-0.00,0.00,143.38,3.365,5.581,3.011,4.868,3.011,0.500,0.063,0.000,0.028
2026-05-11 16:02:49.667542,RETURNING,23.744,1.000,-0.00,0.00,143.71,3.575,5.448,3.011,4.868,2.692,0.500,0.083,0.000,0.042
2026-05-11 16:02:49.846909,RETURNING,23.663,1.000,-0.00,0.00,144.20,3.575,5.448,3.051,4.868,3.178,0.500,0.055,0.000,0.038
2026-05-11 16:02:50.061635,RETURNING,23.582,1.000,-0.00,0.00,144.66,3.575,5.448,3.051,4.974,3.467,0.500,0.044,0.000,0.038
2026-05-11 16:02:50.268417,RETURNING,23.500,1.000,-0.00,0.00,145.08,3.520,5.448,3.134,4.974,2.661,0.500,0.087,0.000,0.028
2026-05-11 16:02:50.491862,RETURNING,23.418,1.000,-0.00,0.00,145.41,3.632,5.448,3.223,4.868,2.571,0.500,0.092,0.000,0.028
2026-05-11 16:02:50.684436,RETURNING,23.335,1.000,-0.00,0.00,145.73,3.365,5.448,3.316,4.974,2.600,0.500,0.092,0.000,0.003
2026-05-11 16:02:50.916570,RETURNING,23.253,1.000,-0.00,0.00,145.83,3.365,5.448,3.316,4.974,2.288,0.500,0.118,0.000,0.003
2026-05-11 16:02:51.122251,RETURNING,23.170,1.000,-0.00,0.00,145.91,3.467,5.321,3.269,4.974,2.266,0.500,0.120,0.000,0.014
2026-05-11 16:02:51.324261,RETURNING,23.087,1.000,-0.00,0.00,146.06,3.575,5.321,3.223,4.974,2.266,0.500,0.120,0.000,0.024
2026-05-11 16:02:51.526819,RETURNING,23.004,1.000,-0.00,0.00,146.29,3.945,5.200,3.178,4.974,3.520,0.500,0.042,0.000,0.049
2026-05-11 16:02:51.728158,RETURNING,22.921,1.000,-0.00,0.00,146.74,3.878,5.085,3.134,4.974,3.415,0.500,0.046,0.000,0.049
2026-05-11 16:02:51.943202,RETURNING,22.837,1.000,-0.00,0.00,147.20,3.751,5.321,3.134,4.974,3.365,0.500,0.048,0.000,0.042
2026-05-11 16:02:52.149210,RETURNING,22.753,1.000,-0.00,0.00,147.67,3.691,5.321,3.134,4.974,3.520,0.500,0.042,0.000,0.038
2026-05-11 16:02:52.355369,RETURNING,22.668,1.000,-0.00,0.00,148.11,3.632,5.200,3.134,4.974,3.878,0.500,0.028,0.000,0.035
2026-05-11 16:02:52.532751,RETURNING,22.583,1.000,-0.00,0.00,148.48,3.632,5.321,3.092,4.974,2.724,0.500,0.083,0.000,0.038
2026-05-11 16:02:52.776162,RETURNING,22.497,1.000,-0.00,0.00,148.87,3.520,5.200,3.092,4.974,2.288,0.500,0.118,0.000,0.031
