timestamp,state,x,z,roll_deg,pitch_deg,yaw_deg,left,center,right,top,bottom,cmd_vx,cmd_vz,cmd_roll,cmd_yaw
2026-05-11 16:06:18.022018,SEARCHING,0.000,1.000,0.00,0.00,0.00,10.000,10.000,10.000,10.000,10.000,0.700,0.000,0.000,0.000
2026-05-11 16:06:18.223048,SEARCHING,0.119,1.000,0.00,0.00,0.00,10.000,10.000,10.000,10.000,10.000,0.700,0.000,0.000,0.000
2026-05-11 16:06:18.449517,SEARCHING,0.259,1.000,0.00,0.00,0.00,6.934,4.576,2.692,4.487,4.086,0.700,0.013,0.102,0.205
2026-05-11 16:06:18.662122,SEARCHING,0.399,1.000,0.00,0.00,2.01,7.151,4.487,2.724,4.487,3.878,0.700,0.021,0.102,0.205
2026-05-11 16:06:18.858048,SEARCHING,0.539,1.000,0.00,0.00,4.36,7.381,4.868,2.825,4.767,4.160,0.700,0.018,0.098,0.197
2026-05-11 16:06:19.072190,SEARCHING,0.678,1.000,0.00,0.00,6.61,4.086,4.767,3.051,4.767,4.237,0.700,0.016,0.037,0.075
2026-05-11 16:06:19.264923,SEARCHING,0.817,1.000,0.00,0.00,7.59,4.014,4.767,3.134,4.767,4.237,0.700,0.016,0.031,0.063
2026-05-11 16:06:19.477137,SEARCHING,0.956,1.000,0.00,0.00,8.31,4.086,4.767,3.092,4.767,4.317,0.700,0.013,0.035,0.071
2026-05-11 16:06:20.169231,SEARCHING,1.094,1.000,0.00,0.00,9.13,3.878,4.868,2.934,4.868,4.317,0.700,0.016,0.037,0.075
2026-05-11 16:06:20.207866,SEARCHING,1.232,1.000,0.00,0.00,9.99,3.878,4.868,2.934,4.868,4.317,0.700,0.016,0.037,0.075
2026-05-11 16:06:21.012336,SEARCHING,1.370,1.000,0.00,0.00,11.30,8.801,4.868,2.972,4.767,4.317,0.700,0.013,0.100,0.201
2026-05-11 16:06:21.043440,SEARCHING,1.507,1.000,0.00,0.00,13.53,8.801,4.868,2.972,4.767,4.317,0.700,0.013,0.100,0.201
2026-05-11 16:06:21.223143,SEARCHING,1.642,1.000,0.00,0.00,15.83,3.051,5.200,3.365,4.868,4.317,0.700,0.016,-0.014,-0.028
2026-05-11 16:06:21.449738,SEARCHING,1.777,1.000,0.00,0.00,15.90,2.934,5.321,3.365,4.974,4.160,0.700,0.024,-0.020,-0.039
2026-05-11 16:06:21.666491,SEARCHING,1.911,1.000,0.00,0.00,15.54,3.092,5.200,3.269,4.868,4.237,0.700,0.018,-0.008,-0.016
2026-05-11 16:06:21.860750,SEARCHING,2.046,1.000,0.00,0.00,15.85,5.720,5.085,3.365,4.974,4.400,0.700,0.016,0.055,0.110
2026-05-11 16:06:22.085068,SEARCHING,2.181,1.000,0.00,0.00,17.11,6.538,4.974,3.365,4.868,4.400,0.700,0.013,0.065,0.130
2026-05-11 16:06:22.284438,SEARCHING,2.314,1.000,0.00,0.00,18.55,6.184,5.085,3.316,4.868,4.086,0.700,0.024,0.063,0.126
2026-05-11 16:06:22.512774,SEARCHING,2.446,1.000,0.00,0.00,19.99,5.085,5.200,3.178,4.868,4.317,0.700,0.016,0.053,0.106
2026-05-11 16:06:22.719897,SEARCHING,2.577,1.000,0.00,0.00,21.10,4.317,5.085,3.269,4.868,4.400,0.700,0.013,0.033,0.067
2026-05-11 16:06:22.929994,SEARCHING,2.708,1.000,0.00,0.00,21.71,3.751,5.448,3.223,4.868,4.487,0.700,0.010,0.020,0.039
2026-05-11 16:06:23.137740,SEARCHING,2.838,1.000,0.00,0.00,22.10,3.751,5.448,3.269,4.868,4.576,0.700,0.008,0.018,0.035
2026-05-11 16:06:23.346992,SEARCHING,2.967,1.000,0.00,0.00,22.46,3.945,5.321,3.223,4.868,4.576,0.700,0.008,0.026,0.051
2026-05-11 16:06:23.552554,SEARCHING,3.096,1.000,0.00,0.00,22.97,4.086,5.321,3.269,4.868,4.400,0.700,0.013,0.028,0.055
2026-05-11 16:06:23.760078,SEARCHING,3.225,1.000,0.00,0.00,23.60,4.160,4.974,3.269,4.767,4.317,0.700,0.013,0.029,0.059
2026-05-11 16:06:23.978725,SEARCHING,3.353,1.000,0.00,0.00,24.27,4.160,4.974,3.269,4.767,4.317,0.700,0.013,0.029,0.059
2026-05-11 16:06:24.184956,SEARCHING,3.480,1.000,0.00,0.00,24.89,3.878,5.321,3.269,4.868,4.400,0.700,0.013,0.022,0.043
2026-05-11 16:06:24.395438,SEARCHING,3.607,1.000,0.00,0.00,25.45,3.878,5.581,3.223,4.868,4.400,0.700,0.013,0.024,0.047
2026-05-11 16:06:24.620287,SEARCHING,3.733,1.000,0.00,0.00,26.02,3.878,5.720,3.178,4.868,4.400,0.700,0.013,0.026,0.051
2026-05-11 16:06:24.811718,SEARCHING,3.859,1.000,0.00,0.00,26.61,3.878,5.720,3.178,4.868,4.400,0.700,0.013,0.026,0.051
2026-05-11 16:06:25.032630,SEARCHING,3.984,1.000,0.00,0.00,27.18,3.751,6.022,3.134,4.868,4.317,0.700,0.016,0.024,0.047
2026-05-11 16:06:25.265259,SEARCHING,4.108,1.000,0.00,0.00,27.70,3.691,6.184,3.134,4.868,4.160,0.700,0.021,0.022,0.043
2026-05-11 16:06:25.467555,SEARCHING,4.231,1.000,0.00,0.00,28.20,3.691,6.184,3.134,4.868,4.160,0.700,0.021,0.022,0.043
2026-05-11 16:06:25.690633,SEARCHING,4.355,1.000,0.00,0.00,28.70,3.632,6.022,3.134,4.868,4.160,0.700,0.021,0.020,0.039
2026-05-11 16:06:25.881961,SEARCHING,4.477,1.000,0.00,0.00,29.15,3.632,6.022,3.134,4.868,4.160,0.700,0.021,0.020,0.039
2026-05-11 16:06:26.099416,SEARCHING,4.599,1.000,0.00,0.00,29.60,3.632,5.720,3.134,4.868,4.767,0.700,0.003,0.020,0.039
2026-05-11 16:06:26.307217,SEARCHING,4.721,1.000,0.00,0.00,30.05,3.632,6.184,3.134,4.974,4.767,0.700,0.005,0.020,0.039
2026-05-11 16:06:26.517423,SEARCHING,4.842,1.000,0.00,0.00,30.54,3.632,6.184,3.051,4.868,6.022,0.700,-0.024,0.024,0.047
2026-05-11 16:06:26.723858,SEARCHING,4.962,1.000,0.00,0.00,31.05,3.575,6.356,3.092,4.767,4.767,0.700,0.000,0.020,0.039
2026-05-11 16:06:26.936013,SEARCHING,5.082,1.000,0.00,0.00,31.50,3.575,6.356,3.092,4.767,4.767,0.700,0.000,0.020,0.039
2026-05-11 16:06:27.146778,SEARCHING,5.171,1.000,0.00,0.00,31.83,3.575,6.356,3.092,4.767,4.767,0.700,0.000,0.020,0.039
2026-05-11 16:06:27.350860,SEARCHING,5.319,1.000,0.00,0.00,32.37,3.467,6.184,3.092,4.767,4.487,0.700,0.008,0.016,0.031
2026-05-11 16:06:27.583710,SEARCHING,5.408,1.000,0.00,0.00,32.64,3.365,6.184,3.134,4.868,4.670,0.700,0.005,0.010,0.020
2026-05-11 16:06:27.806991,SEARCHING,5.555,1.000,0.00,0.00,32.97,3.365,6.184,3.134,4.868,4.670,0.700,0.005,0.010,0.020
2026-05-11 16:06:28.004235,SEARCHING,5.672,1.000,0.00,0.00,33.18,3.316,6.022,3.134,4.868,5.867,0.700,-0.021,0.008,0.016
2026-05-11 16:06:28.211476,SEARCHING,5.789,1.000,0.00,0.00,33.36,3.316,6.184,3.092,4.974,4.767,0.700,0.005,0.010,0.020
2026-05-11 16:06:28.421029,SEARCHING,5.906,1.000,0.00,0.00,33.58,3.223,6.356,3.092,4.868,4.767,0.700,0.003,0.006,0.012
2026-05-11 16:06:28.634720,SEARCHING,6.023,1.000,0.00,0.00,33.71,3.178,5.720,3.134,4.767,4.767,0.700,0.000,0.002,0.004
2026-05-11 16:06:28.851711,SEARCHING,6.139,1.000,0.00,0.00,33.77,3.178,6.730,3.178,4.868,5.448,0.700,-0.013,0.000,0.000
2026-05-11 16:06:29.065930,SEARCHING,6.255,1.000,0.00,0.00,33.76,3.134,5.867,3.269,4.868,5.200,0.700,-0.008,-0.006,-0.012
2026-05-11 16:06:29.275364,SEARCHING,6.372,1.000,0.00,0.00,33.62,3.178,6.356,3.316,4.868,4.974,0.700,-0.003,-0.006,-0.012
2026-05-11 16:06:29.480989,SEARCHING,6.489,1.000,0.00,0.00,33.46,3.178,6.184,3.365,4.868,4.576,0.700,0.008,-0.008,-0.016
2026-05-11 16:06:29.691023,SEARCHING,6.605,1.000,0.00,0.00,33.28,3.134,7.381,3.316,4.868,4.974,0.700,-0.003,-0.008,-0.016
2026-05-11 16:06:29.892020,SEARCHING,6.723,1.000,0.00,0.00,33.13,3.178,7.151,3.316,4.868,4.670,0.700,0.005,-0.006,-0.012
2026-05-11 16:06:30.111674,SEARCHING,6.840,1.000,0.00,0.00,33.00,3.178,7.151,3.269,4.868,4.400,0.700,0.013,-0.004,-0.008
2026-05-11 16:06:30.308136,SEARCHING,6.957,1.000,0.00,0.00,32.90,3.178,6.934,3.269,4.868,4.974,0.700,-0.003,-0.004,-0.008
2026-05-11 16:06:30.520386,SEARCHING,7.075,1.000,0.00,0.00,32.79,3.223,6.356,3.269,4.868,4.767,0.700,0.003,-0.002,-0.004
2026-05-11 16:06:30.736225,SEARCHING,7.193,1.000,0.00,0.00,32.69,3.134,7.151,3.316,4.868,5.867,0.700,-0.021,-0.008,-0.016
2026-05-11 16:06:30.928805,SEARCHING,7.311,1.000,0.00,0.00,32.52,3.178,5.720,3.316,4.868,4.767,0.700,0.003,-0.006,-0.012
2026-05-11 16:06:31.142560,SEARCHING,7.429,1.000,0.00,0.00,32.39,3.223,6.730,3.316,4.868,6.538,0.700,-0.031,-0.004,-0.008
2026-05-11 16:06:31.345857,SEARCHING,7.547,1.000,0.00,0.00,32.27,3.178,6.934,3.269,4.868,6.356,0.700,-0.029,-0.004,-0.008
2026-05-11 16:06:31.555516,SEARCHING,7.666,1.000,0.00,0.00,32.18,3.223,6.730,3.269,4.868,6.184,0.700,-0.026,-0.002,-0.004
2026-05-11 16:06:31.769555,SEARCHING,7.784,1.000,0.00,0.00,32.11,3.223,6.934,3.269,4.868,6.184,0.700,-0.026,-0.002,-0.004
2026-05-11 16:06:31.972375,SEARCHING,7.903,1.000,0.00,0.00,32.06,3.223,6.934,3.269,4.868,6.356,0.700,-0.029,-0.002,-0.004
2026-05-11 16:06:32.183291,SEARCHING,8.021,1.000,0.00,0.00,32.01,3.223,6.730,3.269,4.868,6.538,0.700,-0.031,-0.002,-0.004
2026-05-11 16:06:32.396050,SEARCHING,8.140,1.000,0.00,0.00,31.97,3.223,6.730,3.269,4.868,6.022,0.700,-0.024,-0.002,-0.004
2026-05-11 16:06:32.626222,SEARCHING,8.259,1.000,0.00,0.00,31.92,3.269,6.538,3.269,4.868,5.867,0.700,-0.021,0.000,0.000
2026-05-11 16:06:32.819190,SEARCHING,8.378,1.000,0.00,0.00,31.88,3.269,6.538,3.269,4.868,6.022,0.700,-0.024,0.000,0.000
2026-05-11 16:06:33.040032,SEARCHING,8.497,1.000,0.00,0.00,31.87,3.223,6.356,3.269,4.767,4.576,0.700,0.005,-0.002,-0.004
2026-05-11 16:06:33.246825,SEARCHING,8.616,1.000,0.00,0.00,31.81,3.223,6.356,3.316,4.868,6.022,0.700,-0.024,-0.004,-0.008
2026-05-11 16:06:33.450663,SEARCHING,8.735,1.000,0.00,0.00,31.75,3.269,6.184,3.223,4.868,5.581,0.700,-0.016,0.002,0.004
2026-05-11 16:06:33.662660,SEARCHING,8.854,1.000,0.00,0.00,31.79,3.269,6.022,3.223,4.868,5.720,0.700,-0.018,0.002,0.004
2026-05-11 16:06:33.882960,SEARCHING,8.973,1.000,0.00,0.00,31.84,3.269,6.184,3.269,4.868,5.581,0.700,-0.016,0.000,0.000
2026-05-11 16:06:34.080290,SEARCHING,9.091,1.000,0.00,0.00,31.84,3.269,6.022,3.269,4.868,5.581,0.700,-0.016,0.000,0.000
2026-05-11 16:06:34.294592,SEARCHING,9.210,1.000,0.00,0.00,31.84,3.223,5.867,3.223,4.868,5.448,0.700,-0.013,0.000,0.000
2026-05-11 16:06:34.503425,SEARCHING,9.329,1.000,0.00,0.00,31.84,3.223,5.720,3.269,4.868,5.448,0.700,-0.013,-0.002,-0.004
2026-05-11 16:06:34.698998,SEARCHING,9.448,1.000,0.00,0.00,31.84,3.269,5.720,3.223,4.868,5.200,0.700,-0.008,0.002,0.004
2026-05-11 16:06:34.917448,SEARCHING,9.567,1.000,0.00,0.00,31.85,3.134,5.581,3.365,4.868,5.448,0.700,-0.013,-0.010,-0.020
2026-05-11 16:06:35.130468,SEARCHING,9.686,1.000,0.00,0.00,31.65,3.178,5.581,3.365,4.868,5.321,0.700,-0.010,-0.008,-0.016
2026-05-11 16:06:35.337834,SEARCHING,9.806,1.000,0.00,0.00,31.46,3.178,5.581,3.365,4.868,5.321,0.700,-0.010,-0.008,-0.016
2026-05-11 16:06:35.543199,SEARCHING,9.925,1.000,0.00,0.00,31.16,3.092,5.581,3.945,4.868,5.200,0.700,-0.008,-0.031,-0.063
2026-05-11 16:06:35.736344,SEARCHING,10.045,1.000,0.00,0.00,30.45,3.051,5.581,3.945,4.868,5.085,0.700,-0.005,-0.033,-0.067
2026-05-11 16:06:35.951359,SEARCHING,10.166,1.000,0.00,0.00,29.68,2.972,6.184,3.878,4.767,4.974,0.700,-0.005,-0.035,-0.071
2026-05-11 16:06:36.171171,SEARCHING,10.288,1.000,0.00,0.00,28.89,2.972,6.538,3.751,4.868,5.085,0.700,-0.005,-0.031,-0.063
2026-05-11 16:06:36.368988,SEARCHING,10.411,1.000,0.00,0.00,28.20,3.011,6.730,3.632,4.868,5.448,0.700,-0.013,-0.026,-0.051
2026-05-11 16:06:36.589818,SEARCHING,10.535,1.000,0.00,0.00,27.60,3.011,6.934,3.575,4.868,4.974,0.700,-0.003,-0.024,-0.047
2026-05-11 16:06:36.787330,SEARCHING,10.659,1.000,0.00,0.00,27.06,3.011,5.200,3.575,4.868,5.867,0.700,-0.021,-0.024,-0.047
2026-05-11 16:06:36.997516,SEARCHING,10.784,1.000,0.00,0.00,26.53,3.092,7.381,3.575,4.868,5.867,0.700,-0.021,-0.020,-0.039
2026-05-11 16:06:37.213629,SEARCHING,10.910,1.000,0.00,0.00,26.09,3.092,7.627,3.575,4.868,5.085,0.700,-0.005,-0.020,-0.039
2026-05-11 16:06:37.415368,SEARCHING,11.036,1.000,0.00,0.00,25.67,3.092,7.890,3.520,4.868,4.767,0.700,0.003,-0.018,-0.035
2026-05-11 16:06:37.627253,SEARCHING,11.162,1.000,0.00,0.00,25.28,3.051,8.475,3.467,4.868,4.487,0.700,0.010,-0.018,-0.035
2026-05-11 16:06:37.819904,SEARCHING,11.289,1.000,0.00,0.00,24.91,3.092,7.890,3.467,4.868,5.085,0.700,-0.005,-0.016,-0.031
2026-05-11 16:06:38.034503,SEARCHING,11.416,1.000,0.00,0.00,24.59,3.178,8.475,3.415,4.868,5.867,0.700,-0.021,-0.010,-0.020
2026-05-11 16:06:38.246723,SEARCHING,11.543,1.000,0.00,0.00,24.32,3.134,8.801,3.415,4.868,4.317,0.700,0.016,-0.012,-0.024
2026-05-11 16:06:38.453530,SEARCHING,11.671,1.000,0.00,0.00,24.05,3.134,8.475,3.365,4.868,4.868,0.700,0.000,-0.010,-0.020
2026-05-11 16:06:38.667235,SEARCHING,11.799,1.000,0.00,0.00,23.81,3.134,8.475,3.316,4.868,5.200,0.700,-0.008,-0.008,-0.016
2026-05-11 16:06:38.884035,SEARCHING,11.927,1.000,0.00,0.00,23.63,3.134,8.475,3.316,4.868,4.868,0.700,0.000,-0.008,-0.016
2026-05-11 16:06:39.093663,SEARCHING,12.056,1.000,0.00,0.00,23.43,3.178,8.475,3.365,4.868,5.200,0.700,-0.008,-0.008,-0.016
2026-05-11 16:06:39.330844,SEARCHING,12.184,1.000,0.00,0.00,23.24,3.134,8.475,3.269,4.868,4.767,0.700,0.003,-0.006,-0.012
2026-05-11 16:06:39.550998,SEARCHING,12.313,1.000,0.00,0.00,23.09,3.134,8.475,3.269,4.868,4.868,0.700,0.000,-0.006,-0.012
2026-05-11 16:06:39.745774,SEARCHING,12.442,1.000,0.00,0.00,23.01,3.316,8.172,3.178,4.868,4.487,0.700,0.010,0.006,0.012
2026-05-11 16:06:39.953948,SEARCHING,12.571,1.000,0.00,0.00,23.18,3.365,8.172,3.051,4.868,4.767,0.700,0.003,0.014,0.028
2026-05-11 16:06:40.146943,SEARCHING,12.699,1.000,0.00,0.00,23.48,3.415,8.475,3.134,4.868,4.767,0.700,0.003,0.012,0.024
2026-05-11 16:06:40.370882,SEARCHING,12.827,1.000,0.00,0.00,23.80,3.415,8.475,3.092,4.868,4.868,0.700,0.000,0.014,0.028
2026-05-11 16:06:40.586398,SEARCHING,12.955,1.000,0.00,0.00,24.12,3.415,7.151,3.134,4.767,5.321,0.700,-0.013,0.012,0.024
2026-05-11 16:06:40.796174,SEARCHING,13.083,1.000,0.00,0.00,24.40,3.365,7.890,3.134,4.868,5.867,0.700,-0.021,0.010,0.020
2026-05-11 16:06:40.996631,SEARCHING,13.210,1.000,0.00,0.00,24.62,3.365,7.381,3.134,4.868,5.200,0.700,-0.008,0.010,0.020
2026-05-11 16:06:41.221314,SEARCHING,13.338,1.000,0.00,0.00,24.82,3.316,7.151,3.134,4.767,5.085,0.700,-0.008,0.008,0.016
2026-05-11 16:06:41.421682,SEARCHING,13.465,1.000,0.00,0.00,24.97,3.316,8.172,3.134,4.868,4.974,0.700,-0.003,0.008,0.016
2026-05-11 16:06:41.635090,SEARCHING,13.591,1.000,0.00,0.00,25.11,3.269,7.381,3.178,4.868,5.867,0.700,-0.021,0.004,0.008
2026-05-11 16:06:41.839987,SEARCHING,13.718,1.000,0.00,0.00,25.16,3.223,7.627,3.223,4.868,5.200,0.700,-0.008,0.000,0.000
2026-05-11 16:06:42.047223,SEARCHING,13.845,1.000,0.00,0.00,25.13,3.178,7.151,3.269,4.868,4.487,0.700,0.010,-0.004,-0.008
2026-05-11 16:06:42.289705,SEARCHING,13.972,1.000,0.00,0.00,25.06,3.178,4.767,3.365,4.868,5.867,0.700,-0.021,-0.008,-0.016
2026-05-11 16:06:42.500218,SEARCHING,14.099,1.000,0.00,0.00,24.88,3.134,8.172,3.365,4.868,5.867,0.700,-0.021,-0.010,-0.020
2026-05-11 16:06:42.709948,SEARCHING,14.226,1.000,0.00,0.00,24.67,3.178,7.381,3.316,4.868,5.867,0.700,-0.021,-0.006,-0.012
2026-05-11 16:06:42.932404,SEARCHING,14.353,1.000,0.00,0.00,24.55,3.178,7.890,3.316,4.767,5.720,0.700,-0.021,-0.006,-0.012
2026-05-11 16:06:43.137488,SEARCHING,14.480,1.000,0.00,0.00,24.42,3.178,7.890,3.316,4.767,4.487,0.700,0.008,-0.006,-0.012
2026-05-11 16:06:43.345101,SEARCHING,14.608,1.000,0.00,0.00,24.27,3.178,7.890,3.316,4.868,5.720,0.700,-0.018,-0.006,-0.012
2026-05-11 16:06:43.554690,SEARCHING,14.736,1.000,0.00,0.00,24.14,3.223,7.890,3.316,4.868,4.576,0.700,0.008,-0.004,-0.008
2026-05-11 16:06:43.782894,SEARCHING,14.863,1.000,0.00,0.00,24.03,3.223,7.890,3.316,4.868,4.576,0.700,0.008,-0.004,-0.008
2026-05-11 16:06:43.980102,SEARCHING,14.991,1.000,0.00,0.00,23.95,3.223,7.627,3.269,4.868,4.576,0.700,0.008,-0.002,-0.004
2026-05-11 16:06:44.180397,SEARCHING,15.119,1.000,0.00,0.00,23.92,3.223,7.627,3.223,4.868,4.767,0.700,0.003,0.000,0.000
2026-05-11 16:06:44.396281,SEARCHING,15.247,1.000,0.00,0.00,23.91,3.223,7.381,3.269,4.868,4.767,0.700,0.003,-0.002,-0.004
2026-05-11 16:06:44.617791,SEARCHING,15.375,1.000,0.00,0.00,23.88,3.269,7.381,3.316,4.767,4.576,0.700,0.005,-0.002,-0.004
2026-05-11 16:06:44.818088,SEARCHING,15.503,1.000,0.00,0.00,23.89,3.223,7.381,3.269,4.868,5.321,0.700,-0.010,-0.002,-0.004
2026-05-11 16:06:45.027750,SEARCHING,15.631,1.000,0.00,0.00,23.89,3.269,7.381,3.223,4.868,4.400,0.700,0.013,0.002,0.004
2026-05-11 16:06:45.238204,SEARCHING,15.759,1.000,0.00,0.00,23.94,3.269,7.381,3.269,4.868,3.575,0.700,0.045,0.000,0.000
2026-05-11 16:06:45.441160,SEARCHING,15.887,1.000,0.00,0.00,23.96,3.269,7.151,3.223,4.868,4.767,0.700,0.003,0.002,0.004
2026-05-11 16:06:45.654096,SEARCHING,16.015,1.000,0.00,0.00,23.99,3.269,6.934,3.269,4.868,5.448,0.700,-0.013,0.000,0.000
2026-05-11 16:06:45.867751,SEARCHING,16.143,1.000,0.00,0.00,23.98,3.269,6.934,3.269,4.868,5.867,0.700,-0.021,0.000,0.000
2026-05-11 16:06:46.081579,SEARCHING,16.271,1.000,0.00,0.00,23.97,3.223,6.934,3.269,4.974,4.974,0.700,0.000,-0.002,-0.004
2026-05-11 16:06:46.289811,SEARCHING,16.399,1.000,0.00,0.00,23.95,3.223,6.934,3.269,4.868,5.720,0.700,-0.018,-0.002,-0.004
2026-05-11 16:06:46.510834,SEARCHING,16.527,1.000,0.00,0.00,23.91,3.223,6.934,3.269,4.868,3.575,0.700,0.045,-0.002,-0.004
2026-05-11 16:06:46.718158,SEARCHING,16.655,1.000,0.00,0.00,23.85,3.223,6.730,3.316,4.868,5.867,0.700,-0.021,-0.004,-0.008
2026-05-11 16:06:46.926063,SEARCHING,16.783,1.000,0.00,0.00,23.74,3.223,6.730,3.269,4.767,5.321,0.700,-0.013,-0.002,-0.004
2026-05-11 16:06:47.122947,SEARCHING,16.911,1.000,0.00,0.00,23.68,3.223,6.730,3.316,4.868,4.576,0.700,0.008,-0.004,-0.008
2026-05-11 16:06:47.329963,SEARCHING,17.039,1.000,0.00,0.00,23.60,3.223,6.538,3.269,4.868,5.448,0.700,-0.013,-0.002,-0.004
2026-05-11 16:06:47.547310,SEARCHING,17.168,1.000,0.00,0.00,23.55,3.223,6.356,3.269,4.868,5.200,0.700,-0.008,-0.002,-0.004
2026-05-11 16:06:47.747941,SEARCHING,17.296,1.000,0.00,0.00,23.52,3.269,6.356,3.269,4.868,5.321,0.700,-0.010,0.000,0.000
2026-05-11 16:06:47.955678,SEARCHING,17.424,1.000,0.00,0.00,23.52,3.223,6.356,3.269,4.974,4.767,0.700,0.005,-0.002,-0.004
2026-05-11 16:06:48.177088,SEARCHING,17.553,1.000,0.00,0.00,23.46,3.223,6.184,3.269,4.868,4.576,0.700,0.008,-0.002,-0.004
2026-05-11 16:06:48.391135,SEARCHING,17.681,1.000,0.00,0.00,23.41,3.269,5.867,3.269,4.868,4.767,0.700,0.003,0.000,0.000
2026-05-11 16:06:48.602801,SEARCHING,17.810,1.000,0.00,0.00,23.44,3.316,5.867,3.178,4.868,4.400,0.700,0.013,0.006,0.012
2026-05-11 16:06:48.819012,SEARCHING,17.938,1.000,0.00,0.00,23.59,3.467,6.022,3.178,4.868,4.400,0.700,0.013,0.012,0.024
2026-05-11 16:06:49.026010,SEARCHING,18.066,1.000,0.00,0.00,23.86,3.520,5.720,3.051,4.868,4.487,0.700,0.010,0.020,0.039
2026-05-11 16:06:49.216571,SEARCHING,18.194,1.000,0.00,0.00,24.29,3.575,5.867,3.051,4.767,4.400,0.700,0.010,0.022,0.043
2026-05-11 16:06:49.439885,SEARCHING,18.321,1.000,0.00,0.00,24.75,3.520,5.720,3.092,4.868,4.317,0.700,0.016,0.018,0.035
2026-05-11 16:06:49.682893,SEARCHING,18.448,1.000,0.00,0.00,25.17,3.520,5.867,3.051,4.868,4.400,0.700,0.013,0.020,0.039
2026-05-11 16:06:49.873105,SEARCHING,18.575,1.000,0.00,0.00,25.58,3.467,5.867,3.134,4.868,4.487,0.700,0.010,0.014,0.028
2026-05-11 16:06:50.098834,SEARCHING,18.701,1.000,0.00,0.00,25.90,3.520,6.022,3.092,4.868,4.400,0.700,0.013,0.018,0.035
2026-05-11 16:06:50.301092,SEARCHING,18.827,1.000,0.00,0.00,26.29,3.467,6.184,3.134,4.868,4.487,0.700,0.010,0.014,0.028
2026-05-11 16:06:50.515037,SEARCHING,18.952,1.000,0.00,0.00,26.62,3.520,6.184,3.134,4.868,4.487,0.700,0.010,0.016,0.031
2026-05-11 16:06:50.719022,SEARCHING,19.077,1.000,0.00,0.00,26.98,3.520,6.022,3.178,4.868,4.400,0.700,0.013,0.014,0.028
2026-05-11 16:06:51.294133,SEARCHING,19.202,1.000,0.00,0.00,27.30,3.520,6.022,3.178,4.868,4.487,0.700,0.010,0.014,0.028
2026-05-11 16:06:51.380245,SEARCHING,19.326,1.000,0.00,0.00,27.61,3.575,6.184,3.178,4.868,4.487,0.700,0.010,0.016,0.031
2026-05-11 16:06:52.134018,SEARCHING,19.450,1.000,0.00,0.00,28.00,3.575,6.184,3.092,4.868,4.400,0.700,0.013,0.020,0.039
2026-05-11 16:06:52.208207,SEARCHING,19.573,1.000,0.00,0.00,28.45,3.575,6.184,3.092,4.868,4.400,0.700,0.013,0.020,0.039
2026-05-11 16:06:52.386514,SEARCHING,19.696,1.000,0.00,0.00,28.90,3.575,6.356,3.092,4.868,4.487,0.700,0.010,0.020,0.039
2026-05-11 16:06:52.598588,SEARCHING,19.818,1.000,0.00,0.00,29.35,3.575,6.538,3.134,4.868,4.487,0.700,0.010,0.018,0.035
2026-05-11 16:06:52.808013,SEARCHING,19.940,1.000,0.00,0.00,29.75,3.520,6.184,3.134,4.767,4.767,0.700,0.000,0.016,0.031
2026-05-11 16:06:53.001328,SEARCHING,20.062,1.000,0.00,0.00,30.11,3.467,6.356,3.134,4.868,4.767,0.700,0.003,0.014,0.028
2026-05-11 16:06:53.206067,SEARCHING,20.183,1.000,0.00,0.00,30.46,3.520,6.022,3.134,4.868,5.720,0.700,-0.018,0.016,0.031
2026-05-11 16:06:53.426986,SEARCHING,20.303,1.000,0.00,0.00,30.81,3.520,6.356,3.134,4.868,4.767,0.700,0.003,0.016,0.031
2026-05-11 16:06:53.629425,SEARCHING,20.423,1.000,0.00,0.00,31.15,3.467,6.356,3.178,4.868,5.200,0.700,-0.008,0.012,0.024
2026-05-11 16:06:53.833261,SEARCHING,20.543,1.000,0.00,0.00,31.44,3.467,6.538,3.178,4.868,4.767,0.700,0.003,0.012,0.024
2026-05-11 16:06:54.036179,SEARCHING,20.662,1.000,0.00,0.00,31.75,3.415,6.356,3.134,4.868,5.720,0.700,-0.018,0.012,0.024
2026-05-11 16:06:54.243670,SEARCHING,20.781,1.000,0.00,0.00,32.05,3.467,6.356,3.134,4.868,5.720,0.700,-0.018,0.014,0.028
2026-05-11 16:06:54.447901,SEARCHING,20.899,1.000,0.00,0.00,32.35,3.415,6.538,3.134,4.868,4.767,0.700,0.003,0.012,0.024
2026-05-11 16:06:54.661694,SEARCHING,21.017,1.000,0.00,0.00,32.64,3.415,5.321,3.134,4.868,5.200,0.700,-0.008,0.012,0.024
2026-05-11 16:06:54.853365,SEARCHING,21.135,1.000,0.00,0.00,32.92,3.415,6.184,3.134,4.767,5.085,0.700,-0.008,0.012,0.024
2026-05-11 16:06:55.071253,SEARCHING,21.252,1.000,0.00,0.00,33.19,3.415,6.184,3.178,4.868,5.581,0.700,-0.016,0.010,0.020
2026-05-11 16:06:55.286916,SEARCHING,21.370,1.000,0.00,0.00,33.45,3.316,6.022,3.134,4.868,4.576,0.700,0.008,0.008,0.016
2026-05-11 16:06:55.487229,SEARCHING,21.486,1.000,0.00,0.00,33.69,3.316,5.720,3.134,4.868,4.767,0.700,0.003,0.008,0.016
2026-05-11 16:06:55.698203,SEARCHING,21.603,1.000,0.00,0.00,33.88,3.365,5.720,3.134,4.868,5.085,0.700,-0.005,0.010,0.020
2026-05-11 16:06:55.906099,SEARCHING,21.719,1.000,0.00,0.00,34.03,3.223,5.448,3.178,4.974,4.868,0.700,0.003,0.002,0.004
2026-05-11 16:06:56.120006,SEARCHING,21.835,1.000,0.00,0.00,34.09,3.269,6.538,3.134,4.868,4.576,0.700,0.008,0.006,0.012
2026-05-11 16:06:56.324429,SEARCHING,21.951,1.000,0.00,0.00,34.20,3.269,7.381,3.223,4.868,5.720,0.700,-0.018,0.002,0.004
2026-05-11 16:06:56.528194,SEARCHING,22.066,1.000,0.00,0.00,34.25,3.269,7.151,3.269,4.868,5.321,0.700,-0.010,0.000,0.000
2026-05-11 16:06:56.740175,SEARCHING,22.182,1.000,0.00,0.00,34.27,3.269,7.627,3.223,4.868,3.945,0.700,0.029,0.002,0.004
2026-05-11 16:06:56.937008,SEARCHING,22.298,1.000,0.00,0.00,34.30,3.269,7.890,3.223,4.868,5.867,0.700,-0.021,0.002,0.004
2026-05-11 16:06:57.144719,SEARCHING,22.413,1.000,0.00,0.00,34.34,3.269,7.627,3.269,4.868,5.448,0.700,-0.013,0.000,0.000
2026-05-11 16:06:57.353106,SEARCHING,22.529,1.000,0.00,0.00,34.37,3.269,7.890,3.223,4.868,5.448,0.700,-0.013,0.002,0.004
2026-05-11 16:06:57.559646,SEARCHING,22.644,1.000,0.00,0.00,34.39,3.223,7.890,3.269,4.868,5.321,0.700,-0.010,-0.002,-0.004
2026-05-11 16:06:57.774338,SEARCHING,22.760,1.000,0.00,0.00,34.37,3.223,8.172,3.269,4.868,5.720,0.700,-0.018,-0.002,-0.004
2026-05-11 16:06:57.984655,SEARCHING,22.876,1.000,0.00,0.00,34.33,3.223,7.890,3.269,4.868,4.767,0.700,0.003,-0.002,-0.004
2026-05-11 16:06:58.187236,SEARCHING,22.991,1.000,0.00,0.00,34.29,3.223,8.172,3.223,4.974,5.448,0.700,-0.010,0.000,0.000
2026-05-11 16:06:58.396860,SEARCHING,23.107,1.000,0.00,0.00,34.25,3.269,7.890,3.223,4.868,4.767,0.700,0.003,0.002,0.004
2026-05-11 16:06:58.610358,SEARCHING,23.223,1.000,0.00,0.00,34.25,3.269,8.801,3.269,4.868,4.767,0.700,0.003,0.000,0.000
2026-05-11 16:06:58.813988,SEARCHING,23.338,1.000,0.00,0.00,34.25,3.223,7.890,3.269,4.868,5.720,0.700,-0.018,-0.002,-0.004
2026-05-11 16:06:59.016786,SEARCHING,23.454,1.000,0.00,0.00,34.23,3.223,7.627,3.223,4.767,4.487,0.700,0.008,0.000,0.000
2026-05-11 16:06:59.225856,SEARCHING,23.570,1.000,0.00,0.00,34.23,3.269,8.172,3.269,4.868,4.767,0.700,0.003,0.000,0.000
2026-05-11 16:06:59.446367,SEARCHING,23.686,1.000,0.00,0.00,34.22,3.269,8.172,3.223,4.868,4.400,0.700,0.013,0.002,0.004
2026-05-11 16:06:59.647562,SEARCHING,23.801,1.000,0.00,0.00,34.26,3.269,7.890,3.269,4.868,6.022,0.700,-0.024,0.000,0.000
2026-05-11 16:06:59.862722,SEARCHING,23.917,1.000,0.00,0.00,34.28,3.223,8.172,3.269,4.868,4.767,0.700,0.003,-0.002,-0.004
2026-05-11 16:07:00.066161,SEARCHING,24.033,1.000,0.00,0.00,34.24,3.316,7.890,3.223,4.868,4.767,0.700,0.003,0.004,0.008
2026-05-11 16:07:00.275032,SEARCHING,24.148,1.000,0.00,0.00,34.28,3.365,7.890,3.223,4.868,5.720,0.700,-0.018,0.006,0.012
2026-05-11 16:07:00.506351,SEARCHING,24.264,1.000,0.00,0.00,34.41,3.415,7.890,3.178,4.868,5.200,0.700,-0.008,0.010,0.020
2026-05-11 16:07:00.716914,SEARCHING,24.379,1.000,0.00,0.00,34.63,3.415,7.627,3.134,4.767,6.022,0.700,-0.026,0.012,0.024
2026-05-11 16:07:00.906639,SEARCHING,24.494,1.000,0.00,0.00,34.92,3.467,7.151,3.092,4.868,4.767,0.700,0.003,0.016,0.031
2026-05-11 16:07:01.128621,SEARCHING,24.609,1.000,0.00,0.00,35.28,3.467,7.151,3.092,4.868,5.321,0.700,-0.010,0.016,0.031
2026-05-11 16:07:01.330958,SEARCHING,24.723,1.000,0.00,0.00,35.63,3.467,7.151,3.092,4.868,4.767,0.700,0.003,0.016,0.031
2026-05-11 16:07:01.533807,SEARCHING,24.837,1.000,0.00,0.00,35.98,3.415,7.151,3.134,4.974,4.868,0.700,0.003,0.012,0.024
2026-05-11 16:07:01.751155,SEARCHING,24.950,1.000,0.00,0.00,36.25,3.365,6.934,3.134,4.868,6.356,0.700,-0.029,0.010,0.020
2026-05-11 16:07:01.950209,SEARCHING,25.062,1.000,0.00,0.00,36.46,3.316,6.934,3.134,4.868,6.356,0.700,-0.029,0.008,0.016
2026-05-11 16:07:02.168217,SEARCHING,25.175,1.000,0.00,0.00,36.64,3.316,6.730,3.134,4.868,6.356,0.700,-0.029,0.008,0.016
2026-05-11 16:07:02.378535,SEARCHING,25.287,1.000,0.00,0.00,36.82,3.365,6.538,3.178,4.868,6.022,0.700,-0.024,0.008,0.016
2026-05-11 16:07:02.580758,SEARCHING,25.399,1.000,0.00,0.00,36.99,3.269,6.356,3.134,4.868,6.184,0.700,-0.026,0.006,0.012
2026-05-11 16:07:02.776174,SEARCHING,25.511,1.000,0.00,0.00,37.13,3.269,6.356,3.269,4.868,5.867,0.700,-0.021,0.000,0.000
2026-05-11 16:07:02.979007,SEARCHING,25.622,1.000,0.00,0.00,37.00,3.178,5.867,3.632,4.868,5.720,0.700,-0.018,-0.018,-0.035
2026-05-11 16:07:03.196008,SEARCHING,25.735,1.000,0.00,0.00,36.48,3.011,6.356,3.814,4.868,5.581,0.700,-0.016,-0.031,-0.063
2026-05-11 16:07:03.400808,SEARCHING,25.848,1.000,0.00,0.00,35.74,2.934,6.184,3.751,4.868,6.022,0.700,-0.024,-0.033,-0.067
2026-05-11 16:07:03.612821,SEARCHING,25.962,1.000,0.00,0.00,34.99,2.972,6.022,3.691,4.868,5.581,0.700,-0.016,-0.029,-0.059
2026-05-11 16:07:03.814035,SEARCHING,26.077,1.000,0.00,0.00,34.34,2.972,6.184,3.575,4.868,5.720,0.700,-0.018,-0.026,-0.051
2026-05-11 16:07:04.015597,SEARCHING,26.193,1.000,0.00,0.00,33.76,3.051,6.356,3.575,4.868,5.867,0.700,-0.021,-0.022,-0.043
2026-05-11 16:07:04.228101,SEARCHING,26.310,1.000,0.00,0.00,33.26,3.051,6.356,3.467,4.868,5.867,0.700,-0.021,-0.018,-0.035
2026-05-11 16:07:04.439371,SEARCHING,26.427,1.000,0.00,0.00,32.85,3.092,6.356,3.415,4.868,5.581,0.700,-0.016,-0.014,-0.028
2026-05-11 16:07:04.647689,SEARCHING,26.545,1.000,0.00,0.00,32.54,3.051,6.356,3.316,4.868,6.184,0.700,-0.026,-0.012,-0.024
2026-05-11 16:07:04.838373,SEARCHING,26.663,1.000,0.00,0.00,32.28,3.051,6.538,3.269,4.868,5.581,0.700,-0.016,-0.010,-0.020
2026-05-11 16:07:05.050151,SEARCHING,26.781,1.000,0.00,0.00,32.09,3.092,6.538,3.223,4.868,6.022,0.700,-0.024,-0.006,-0.012
2026-05-11 16:07:05.260746,SEARCHING,26.900,1.000,0.00,0.00,31.97,3.223,6.356,3.223,4.767,6.022,0.700,-0.026,0.000,0.000
2026-05-11 16:07:05.456139,SEARCHING,27.019,1.000,0.00,0.00,31.94,3.269,6.356,3.178,4.868,5.867,0.700,-0.021,0.004,0.008
2026-05-11 16:07:05.687609,SEARCHING,27.138,1.000,0.00,0.00,32.01,3.316,6.184,3.223,4.868,5.581,0.700,-0.016,0.004,0.008
2026-05-11 16:07:05.874376,SEARCHING,27.256,1.000,0.00,0.00,32.08,3.316,6.184,3.178,4.868,5.581,0.700,-0.016,0.006,0.012
2026-05-11 16:07:06.075689,SEARCHING,27.375,1.000,0.00,0.00,32.21,3.316,6.022,3.178,4.868,5.448,0.700,-0.013,0.006,0.012
2026-05-11 16:07:06.282438,SEARCHING,27.493,1.000,0.00,0.00,32.34,3.269,5.720,3.223,4.868,5.321,0.700,-0.010,0.002,0.004
2026-05-11 16:07:06.495901,SEARCHING,27.611,1.000,0.00,0.00,32.38,3.223,5.867,3.223,4.868,5.321,0.700,-0.010,0.000,0.000
2026-05-11 16:07:06.712160,SEARCHING,27.730,1.000,0.00,0.00,32.37,3.178,5.720,3.223,4.868,5.321,0.700,-0.010,-0.002,-0.004
2026-05-11 16:07:06.927228,SEARCHING,27.848,1.000,0.00,0.00,32.31,3.269,5.581,3.223,4.868,5.448,0.700,-0.013,0.002,0.004
2026-05-11 16:07:07.129593,SEARCHING,27.966,1.000,0.00,0.00,32.30,3.316,5.581,3.467,4.868,5.321,0.700,-0.010,-0.006,-0.012
2026-05-11 16:07:07.339643,SEARCHING,28.085,1.000,0.00,0.00,32.07,3.269,5.448,3.814,4.868,5.200,0.700,-0.008,-0.020,-0.039
2026-05-11 16:07:07.544235,SEARCHING,28.204,1.000,0.00,0.00,31.49,3.011,5.448,3.945,4.868,5.321,0.700,-0.010,-0.035,-0.071
2026-05-11 16:07:07.758985,SEARCHING,28.323,1.000,0.00,0.00,30.68,2.972,5.581,3.814,4.868,5.321,0.700,-0.010,-0.033,-0.067
2026-05-11 16:07:07.958870,SEARCHING,28.444,1.000,0.00,0.00,29.93,2.972,5.867,3.751,4.868,4.487,0.700,0.010,-0.031,-0.063
2026-05-11 16:07:08.162812,SEARCHING,28.566,1.000,0.00,0.00,29.22,3.011,5.867,3.691,4.868,4.767,0.700,0.003,-0.028,-0.055
2026-05-11 16:07:08.365085,SEARCHING,28.688,1.000,0.00,0.00,28.60,3.011,5.867,3.575,4.868,5.200,0.700,-0.008,-0.024,-0.047
2026-05-11 16:07:08.575566,SEARCHING,28.812,1.000,0.00,0.00,28.05,3.051,5.581,3.575,4.868,4.086,0.700,0.024,-0.022,-0.043
2026-05-11 16:07:08.772118,SEARCHING,28.936,1.000,0.00,0.00,27.55,3.051,5.448,3.575,4.767,5.448,0.700,-0.016,-0.022,-0.043
2026-05-11 16:07:09.025543,SEARCHING,29.060,1.000,0.00,0.00,27.07,3.051,5.321,3.520,4.868,4.576,0.700,0.008,-0.020,-0.039
2026-05-11 16:07:09.249468,SEARCHING,29.185,1.000,0.00,0.00,26.62,3.092,5.200,3.520,4.868,4.400,0.700,0.013,-0.018,-0.035
2026-05-11 16:07:09.442978,SEARCHING,29.310,1.000,0.00,0.00,26.22,3.092,5.085,3.520,4.868,4.576,0.700,0.008,-0.018,-0.035
2026-05-11 16:07:09.652389,SEARCHING,29.436,1.000,0.00,0.00,25.84,3.092,4.868,3.467,4.868,4.237,0.700,0.018,-0.016,-0.031
2026-05-11 16:07:09.853193,SEARCHING,29.562,1.000,0.00,0.00,25.49,3.092,4.767,3.415,4.767,4.317,0.700,0.013,-0.014,-0.028
2026-05-11 16:07:10.068315,SEARCHING,29.689,1.000,0.00,0.00,25.20,3.134,4.767,3.415,4.670,4.160,0.700,0.016,-0.012,-0.024
2026-05-11 16:07:10.260867,SEARCHING,29.815,1.000,0.00,0.00,24.91,3.092,4.670,3.415,4.576,4.487,0.700,0.003,-0.014,-0.028
2026-05-11 16:07:10.473774,SEARCHING,29.911,1.000,0.00,0.00,24.68,3.134,4.487,3.415,4.487,4.487,0.700,0.000,-0.012,-0.024
2026-05-11 16:07:10.701221,SEARCHING,30.070,1.000,0.00,0.00,24.35,3.134,4.317,3.316,4.317,4.317,0.700,0.000,-0.008,-0.016
2026-05-11 16:07:10.936493,SEARCHING,30.198,1.000,0.00,0.00,24.18,3.223,4.237,3.365,4.237,4.086,0.700,0.005,-0.006,-0.012
2026-05-11 16:07:11.142843,SEARCHING,30.325,1.000,0.00,0.00,24.03,3.134,4.014,3.365,4.086,3.691,0.700,0.016,-0.010,-0.020
2026-05-11 16:07:11.357640,SEARCHING,30.453,1.000,0.00,0.00,23.83,3.223,3.945,3.365,3.945,3.365,0.700,0.026,-0.006,-0.012
2026-05-11 16:07:11.568057,SEARCHING,30.581,1.000,0.00,0.00,23.64,3.134,3.751,3.467,3.691,3.365,0.700,0.016,-0.014,-0.028
2026-05-11 16:07:11.776210,SEARCHING,30.710,1.000,0.00,0.00,23.32,3.092,3.632,3.467,3.632,3.365,0.700,0.013,-0.016,-0.031
2026-05-11 16:07:12.009944,SEARCHING,30.839,1.000,0.00,0.00,22.97,3.051,3.520,3.365,3.467,3.365,0.700,0.005,-0.014,-0.028
2026-05-11 16:07:12.191507,SEARCHING,30.968,1.000,0.00,0.00,22.66,3.011,3.467,3.316,3.415,2.934,0.700,0.029,-0.014,-0.028
2026-05-11 16:07:12.394642,SEARCHING,31.097,1.000,0.00,0.00,22.37,2.972,3.316,3.134,3.316,2.860,0.700,0.029,-0.008,-0.016
2026-05-11 16:07:12.613924,SEARCHING,31.226,1.000,0.00,0.00,22.18,3.011,3.134,2.972,3.134,2.860,0.700,0.018,0.002,0.004
2026-05-11 16:07:12.831776,SEARCHING,31.356,1.000,0.00,0.00,22.21,3.011,3.011,2.896,2.972,2.972,0.700,0.000,0.006,0.012
2026-05-11 16:07:13.042924,SEARCHING,31.486,1.000,0.00,0.00,22.34,2.972,2.860,2.757,2.860,2.860,0.700,0.000,0.012,0.024
2026-05-11 16:07:13.251303,SEARCHING,31.615,1.000,0.00,0.00,22.59,2.896,2.790,2.661,2.757,2.790,0.700,-0.003,0.014,0.028
