timestamp,state,x,z,roll_deg,pitch_deg,yaw_deg,left,center,right,top,bottom,cmd_vx,cmd_vz,cmd_roll,cmd_yaw
2026-05-10 20:14:03.895662,SEARCHING,0.000,1.000,0.00,0.00,0.00,10.000,10.000,10.000,10.000,10.000,0.700,0.000,0.000,0.000
2026-05-10 20:14:04.093812,SEARCHING,0.105,1.000,0.00,0.00,0.00,10.000,10.000,10.000,10.000,10.000,0.700,0.000,0.000,0.000
2026-05-10 20:14:04.310472,SEARCHING,0.245,1.000,0.00,0.00,0.00,10.000,10.000,10.000,10.000,10.000,0.700,0.000,0.000,0.000
2026-05-10 20:14:04.560584,INSPECTING,0.378,1.000,0.00,0.00,0.00,0.755,0.835,1.845,0.829,0.835,0.350,-0.550,-0.552,-0.850
2026-05-10 20:14:04.789884,INSPECTING,0.437,1.000,0.00,0.00,-8.28,0.706,0.786,1.831,0.786,0.792,0.350,-0.550,-0.552,-0.850
2026-05-10 20:14:05.033429,SEARCHING,0.506,1.000,0.00,0.00,-18.02,0.617,2.222,1.467,2.243,2.222,0.350,0.000,0.000,0.000
2026-05-10 20:14:05.176997,SEARCHING,0.599,1.000,0.00,0.00,-27.74,2.138,1.611,1.211,1.611,1.600,0.564,0.003,0.161,0.323
2026-05-10 20:14:05.401423,SEARCHING,0.702,1.000,0.00,0.00,-27.32,2.061,1.496,1.150,1.496,1.505,0.523,-0.003,0.173,0.346
2026-05-10 20:14:05.631478,SEARCHING,0.796,1.000,0.00,0.00,-23.35,1.907,1.404,1.054,1.404,1.387,0.491,0.005,0.191,0.382
2026-05-10 20:14:05.835162,SEARCHING,0.889,1.000,0.00,0.00,-19.08,1.907,1.404,1.054,1.404,1.387,0.491,0.005,0.191,0.382
2026-05-10 20:14:06.054898,SEARCHING,0.983,1.000,0.00,0.00,-14.66,1.907,1.421,1.031,1.421,1.439,0.497,-0.005,0.201,0.401
2026-05-10 20:14:06.259770,SEARCHING,1.082,1.000,0.00,0.00,-10.02,1.973,1.515,1.035,1.496,1.505,0.530,-0.003,0.206,0.413
2026-05-10 20:14:06.461438,SEARCHING,1.187,1.000,0.00,0.00,-5.29,1.973,1.515,1.035,1.496,1.505,0.530,-0.003,0.206,0.413
2026-05-10 20:14:06.670057,SEARCHING,1.293,1.000,0.00,0.00,-0.56,2.335,1.486,1.122,1.486,1.496,0.520,-0.003,0.208,0.417
2026-05-10 20:14:06.908404,SEARCHING,1.397,1.000,0.00,0.00,4.21,2.790,1.589,1.211,1.578,1.578,0.556,0.000,0.210,0.421
2026-05-10 20:14:07.109124,SEARCHING,1.506,1.000,0.00,0.00,9.02,3.691,1.658,1.144,1.658,1.670,0.580,-0.003,0.271,0.543
2026-05-10 20:14:07.329087,SEARCHING,1.618,1.000,0.00,0.00,14.89,5.867,1.747,1.144,1.733,1.760,0.611,-0.005,0.317,0.633
2026-05-10 20:14:07.533021,SEARCHING,1.737,1.000,0.00,0.00,21.68,4.974,1.973,1.211,1.973,1.990,0.690,-0.003,0.281,0.562
2026-05-10 20:14:07.742474,SEARCHING,1.863,1.000,0.00,0.00,27.90,4.317,2.514,1.300,2.514,2.409,0.700,0.010,0.242,0.484
2026-05-10 20:14:07.952316,SEARCHING,1.984,1.000,0.00,0.00,33.12,3.814,4.014,1.486,3.691,2.460,0.700,0.081,0.185,0.370
2026-05-10 20:14:08.179749,SEARCHING,2.098,1.000,0.00,0.00,37.06,3.691,5.085,1.891,4.974,2.434,0.700,0.126,0.116,0.232
2026-05-10 20:14:08.382756,SEARCHING,2.208,1.000,0.00,0.00,39.83,3.691,5.085,1.891,4.974,2.434,0.700,0.126,0.116,0.232
2026-05-10 20:14:08.588961,SEARCHING,2.314,1.000,0.00,0.00,42.48,3.691,5.085,1.891,4.974,2.434,0.700,0.126,0.116,0.232
2026-05-10 20:14:08.816474,SEARCHING,2.415,1.000,0.00,0.00,44.02,2.934,3.814,6.184,3.814,2.359,0.700,0.097,-0.081,-0.161
2026-05-10 20:14:09.021680,SEARCHING,2.517,1.000,0.00,0.00,42.17,2.860,3.691,6.022,3.691,2.409,0.700,0.087,-0.083,-0.165
2026-05-10 20:14:09.245642,SEARCHING,2.622,1.000,0.00,0.00,40.29,2.896,3.751,6.356,3.751,2.409,0.700,0.089,-0.085,-0.169
2026-05-10 20:14:09.453684,SEARCHING,2.730,1.000,0.00,0.00,38.36,2.934,3.751,6.538,3.751,2.222,0.700,0.110,-0.085,-0.169
2026-05-10 20:14:09.668609,SEARCHING,2.842,1.000,0.00,0.00,36.42,2.790,3.945,6.934,3.878,2.460,0.700,0.089,-0.096,-0.193
2026-05-10 20:14:09.889195,SEARCHING,2.956,1.000,0.00,0.00,34.24,2.724,3.945,7.627,3.878,2.571,0.700,0.079,-0.106,-0.212
2026-05-10 20:14:10.104108,SEARCHING,3.073,1.000,0.00,0.00,31.81,2.724,3.945,7.627,3.878,2.571,0.700,0.079,-0.106,-0.212
2026-05-10 20:14:10.334496,SEARCHING,3.193,1.000,0.00,0.00,29.37,2.724,4.317,8.172,4.317,2.434,0.700,0.108,-0.110,-0.220
2026-05-10 20:14:10.537876,SEARCHING,3.316,1.000,0.00,0.00,26.86,2.790,4.400,1.990,4.487,2.434,0.700,0.113,0.065,0.130
2026-05-10 20:14:10.739157,SEARCHING,3.441,1.000,0.00,0.00,27.34,2.790,4.400,1.990,4.487,2.434,0.700,0.113,0.065,0.130
2026-05-10 20:14:10.945707,SEARCHING,3.565,1.000,0.00,0.00,28.83,2.790,4.400,1.990,4.487,2.434,0.700,0.113,0.065,0.130
2026-05-10 20:14:11.158080,SEARCHING,3.687,1.000,0.00,0.00,30.32,2.790,4.400,1.990,4.487,2.434,0.700,0.113,0.065,0.130
2026-05-10 20:14:11.387904,SEARCHING,3.807,1.000,0.00,0.00,31.80,2.790,4.400,1.990,4.487,2.434,0.700,0.113,0.065,0.130
2026-05-10 20:14:11.588664,SEARCHING,3.925,1.000,0.00,0.00,32.14,2.384,3.632,8.475,3.691,2.384,0.700,0.089,-0.136,-0.271
2026-05-10 20:14:11.793809,SEARCHING,4.045,1.000,0.00,0.00,29.03,2.384,3.632,8.475,3.691,2.384,0.700,0.089,-0.136,-0.271
2026-05-10 20:14:12.014722,SEARCHING,4.169,1.000,0.00,0.00,25.95,2.384,3.751,7.381,3.814,2.460,0.700,0.087,-0.128,-0.256
2026-05-10 20:14:12.228826,SEARCHING,4.297,1.000,0.00,0.00,23.01,2.434,4.014,7.151,4.014,2.460,0.700,0.094,-0.122,-0.244
2026-05-10 20:14:12.450273,SEARCHING,4.427,1.000,0.00,0.00,20.19,2.514,4.487,5.867,4.487,2.460,0.700,0.110,-0.102,-0.205
2026-05-10 20:14:12.671262,SEARCHING,4.559,1.000,0.00,0.00,17.73,2.514,4.487,5.867,4.487,2.460,0.700,0.110,-0.102,-0.205
2026-05-10 20:14:12.889247,SEARCHING,4.693,1.000,0.00,0.00,15.39,2.514,4.487,5.867,4.487,2.460,0.700,0.110,-0.102,-0.205
2026-05-10 20:14:13.092866,SEARCHING,4.829,1.000,0.00,0.00,13.04,2.825,7.890,3.316,6.184,2.460,0.700,0.147,-0.024,-0.047
2026-05-10 20:14:13.296133,SEARCHING,4.966,1.000,0.00,0.00,12.05,2.825,7.890,3.316,6.184,2.460,0.700,0.147,-0.024,-0.047
2026-05-10 20:14:13.514242,SEARCHING,5.103,1.000,0.00,0.00,11.51,3.011,7.381,2.896,6.022,2.460,0.700,0.144,0.006,0.012
2026-05-10 20:14:13.734175,SEARCHING,5.240,1.000,0.00,0.00,11.48,3.011,7.381,2.896,6.022,2.460,0.700,0.144,0.006,0.012
2026-05-10 20:14:13.933959,SEARCHING,5.377,1.000,0.00,0.00,11.59,3.011,7.627,2.972,6.184,2.630,0.700,0.131,0.002,0.004
2026-05-10 20:14:14.145450,SEARCHING,5.514,1.000,0.00,0.00,11.63,3.011,7.627,2.972,6.184,2.630,0.700,0.131,0.002,0.004
2026-05-10 20:14:14.362861,SEARCHING,5.651,1.000,0.00,0.00,11.64,2.972,7.381,3.051,6.022,2.487,0.700,0.142,-0.004,-0.008
2026-05-10 20:14:14.584482,SEARCHING,5.788,1.000,0.00,0.00,11.55,2.972,7.381,3.051,6.022,2.487,0.700,0.142,-0.004,-0.008
2026-05-10 20:14:14.796764,SEARCHING,5.926,1.000,0.00,0.00,11.44,2.896,7.381,3.134,5.867,2.460,0.700,0.142,-0.012,-0.024
2026-05-10 20:14:15.006331,SEARCHING,6.063,1.000,0.00,0.00,11.17,2.896,6.934,3.178,5.867,2.434,0.700,0.144,-0.014,-0.028
2026-05-10 20:14:15.216116,SEARCHING,6.200,1.000,0.00,0.00,10.86,2.896,6.934,3.178,5.867,2.434,0.700,0.144,-0.014,-0.028
2026-05-10 20:14:15.436824,SEARCHING,6.338,1.000,0.00,0.00,10.32,2.896,6.730,4.487,5.448,2.460,0.700,0.134,-0.055,-0.110
2026-05-10 20:14:15.631831,SEARCHING,6.476,1.000,0.00,0.00,9.07,2.896,6.356,4.576,4.086,2.359,0.700,0.108,-0.057,-0.114
2026-05-10 20:14:15.858674,SEARCHING,6.614,1.000,0.00,0.00,7.80,6.022,6.356,4.487,4.974,2.434,0.700,0.126,0.026,0.051
2026-05-10 20:14:16.073326,SEARCHING,6.753,1.000,0.00,0.00,7.93,6.022,6.356,4.487,4.974,2.434,0.700,0.126,0.026,0.051
2026-05-10 20:14:16.293159,SEARCHING,6.892,1.000,0.00,0.00,8.56,6.538,6.184,4.487,4.868,2.311,0.700,0.136,0.031,0.063
2026-05-10 20:14:16.490971,SEARCHING,7.030,1.000,0.00,0.00,9.28,6.730,6.184,4.487,4.767,2.460,0.700,0.118,0.033,0.067
2026-05-10 20:14:16.717135,SEARCHING,7.168,1.000,0.00,0.00,10.01,6.356,6.356,4.487,4.487,2.434,0.700,0.113,0.029,0.059
2026-05-10 20:14:16.931982,SEARCHING,7.306,1.000,0.00,0.00,10.67,6.356,6.356,4.487,4.487,2.460,0.700,0.110,0.029,0.059
2026-05-10 20:14:17.133875,SEARCHING,7.443,1.000,0.00,0.00,11.32,6.184,6.356,4.487,4.400,2.409,0.700,0.113,0.028,0.055
2026-05-10 20:14:17.367871,SEARCHING,7.580,1.000,0.00,0.00,11.96,5.867,6.184,4.576,4.237,2.409,0.700,0.108,0.022,0.043
2026-05-10 20:14:17.552444,SEARCHING,7.717,1.000,0.00,0.00,12.50,5.867,6.184,4.400,4.160,2.384,0.700,0.108,0.026,0.051
2026-05-10 20:14:17.771214,SEARCHING,7.854,1.000,0.00,0.00,13.05,5.448,6.022,4.237,4.014,2.311,0.700,0.110,0.024,0.047
2026-05-10 20:14:17.973882,SEARCHING,7.990,1.000,0.00,0.00,13.58,5.448,6.022,4.237,4.014,2.311,0.700,0.110,0.024,0.047
2026-05-10 20:14:18.187655,SEARCHING,8.126,1.000,0.00,0.00,14.12,5.448,6.022,4.237,4.014,2.311,0.700,0.110,0.024,0.047
2026-05-10 20:14:18.392781,SEARCHING,8.261,1.000,0.00,0.00,14.70,5.321,5.321,3.878,3.575,2.487,0.700,0.073,0.031,0.063
2026-05-10 20:14:18.595818,SEARCHING,8.397,1.000,0.00,0.00,15.43,5.321,5.321,3.878,3.575,2.487,0.700,0.073,0.031,0.063
2026-05-10 20:14:18.802691,SEARCHING,8.531,1.000,0.00,0.00,16.15,4.868,4.974,3.878,3.223,2.571,0.700,0.047,0.024,0.047
2026-05-10 20:14:19.008525,SEARCHING,8.666,1.000,0.00,0.00,16.73,4.868,4.974,3.878,3.223,2.571,0.700,0.047,0.024,0.047
2026-05-10 20:14:19.230396,SEARCHING,8.800,1.000,0.00,0.00,17.26,4.868,4.576,3.878,3.092,2.460,0.700,0.050,0.024,0.047
2026-05-10 20:14:19.431747,SEARCHING,8.933,1.000,0.00,0.00,17.80,4.767,4.576,3.751,2.972,2.460,0.700,0.042,0.026,0.051
2026-05-10 20:14:19.680705,SEARCHING,9.066,1.000,0.00,0.00,18.39,4.670,4.317,3.814,2.825,2.409,0.700,0.037,0.022,0.043
2026-05-10 20:14:19.850078,SEARCHING,9.199,1.000,0.00,0.00,18.91,4.670,4.317,3.814,2.825,2.409,0.700,0.037,0.022,0.043
2026-05-10 20:14:20.069300,SEARCHING,9.331,1.000,0.00,0.00,19.44,4.767,4.014,3.691,2.724,2.460,0.700,0.024,0.028,0.055
2026-05-10 20:14:20.273090,SEARCHING,9.463,1.000,0.00,0.00,20.07,4.576,3.878,3.575,2.661,2.311,0.700,0.034,0.028,0.055
2026-05-10 20:14:20.479054,SEARCHING,9.594,1.000,0.00,0.00,20.70,4.400,3.691,3.269,2.600,2.359,0.700,0.024,0.035,0.071
2026-05-10 20:14:20.692580,SEARCHING,9.725,1.000,0.00,0.00,21.47,4.317,3.575,3.178,2.630,2.434,0.700,0.018,0.037,0.075
2026-05-10 20:14:20.907425,SEARCHING,9.855,1.000,0.00,0.00,22.31,4.317,3.575,3.178,2.630,2.434,0.700,0.018,0.037,0.075
2026-05-10 20:14:21.123656,SEARCHING,9.984,1.000,0.00,0.00,23.17,4.160,3.316,2.972,2.630,2.514,0.700,0.010,0.043,0.087
2026-05-10 20:14:21.332474,SEARCHING,10.112,1.000,0.00,0.00,24.12,4.160,3.316,2.972,2.630,2.514,0.700,0.010,0.043,0.087
2026-05-10 20:14:21.548946,SEARCHING,10.240,1.000,0.00,0.00,25.03,3.814,3.223,2.972,2.630,2.434,0.700,0.018,0.033,0.067
2026-05-10 20:14:21.738824,SEARCHING,10.366,1.000,0.00,0.00,25.76,3.814,3.223,2.972,2.630,2.434,0.700,0.018,0.033,0.067
2026-05-10 20:14:21.954420,SEARCHING,10.492,1.000,0.00,0.00,26.46,3.316,2.934,2.724,2.600,2.434,0.700,0.016,0.029,0.059
2026-05-10 20:14:22.169790,SEARCHING,10.617,1.000,0.00,0.00,27.09,3.316,2.972,2.542,2.542,2.487,0.700,0.005,0.041,0.083
2026-05-10 20:14:22.375864,SEARCHING,10.741,1.000,0.00,0.00,27.98,3.316,2.825,2.487,2.542,2.460,0.700,0.008,0.045,0.090
2026-05-10 20:14:22.581836,SEARCHING,10.864,1.000,0.00,0.00,29.00,3.134,2.571,2.311,2.514,2.266,0.700,0.026,0.051,0.102
2026-05-10 20:14:22.788215,SEARCHING,10.986,1.000,0.00,0.00,30.06,3.134,2.571,2.487,2.542,2.243,0.700,0.031,0.037,0.075
2026-05-10 20:14:22.997002,SEARCHING,11.107,1.000,0.00,0.00,30.92,3.134,2.487,2.311,2.434,2.119,0.700,0.037,0.051,0.102
2026-05-10 20:14:23.210688,SEARCHING,11.226,1.000,0.00,0.00,32.00,3.011,2.571,2.266,2.409,1.990,0.700,0.052,0.049,0.098
2026-05-10 20:14:23.419876,SEARCHING,11.344,1.000,0.00,0.00,33.13,3.011,2.571,2.266,2.409,1.990,0.700,0.052,0.049,0.098
2026-05-10 20:14:23.634404,SEARCHING,11.461,1.000,0.00,0.00,34.12,2.600,2.359,2.200,2.434,1.733,0.700,0.100,0.031,0.063
2026-05-10 20:14:23.849213,SEARCHING,11.576,1.000,0.00,0.00,34.84,2.692,2.409,2.200,2.460,1.670,0.700,0.115,0.037,0.075
2026-05-10 20:14:24.062185,SEARCHING,11.691,1.000,0.00,0.00,35.65,2.434,2.179,2.179,2.434,1.589,0.700,0.131,0.022,0.043
2026-05-10 20:14:24.281591,SEARCHING,11.804,1.000,0.00,0.00,36.16,2.311,2.222,2.692,2.409,1.525,0.700,0.144,-0.028,-0.055
2026-05-10 20:14:24.493175,SEARCHING,11.917,1.000,0.00,0.00,35.78,2.311,2.724,2.630,2.384,1.412,0.700,0.173,-0.024,-0.047
2026-05-10 20:14:24.716621,SEARCHING,12.031,1.000,0.00,0.00,35.39,2.159,2.692,2.043,2.384,1.315,0.700,0.205,0.012,0.024
2026-05-10 20:14:24.914852,SEARCHING,12.145,1.000,0.00,0.00,35.63,2.025,2.630,1.939,2.384,1.186,0.700,0.254,0.010,0.020
2026-05-10 20:14:25.112641,SEARCHING,12.259,1.000,0.00,0.00,35.85,2.025,2.630,1.939,2.384,1.186,0.700,0.254,0.010,0.020
2026-05-10 20:14:25.354440,SEARCHING,12.372,1.000,0.00,0.00,35.61,1.708,2.311,2.514,2.335,0.919,0.700,0.396,-0.085,-0.169
2026-05-10 20:14:25.555107,SEARCHING,12.487,1.000,0.00,0.00,33.76,1.658,2.266,2.460,2.266,0.867,0.700,0.427,-0.088,-0.177
2026-05-10 20:14:25.789914,SEARCHING,12.605,1.000,0.00,0.00,31.79,1.611,2.266,2.434,2.222,0.880,0.700,0.412,-0.094,-0.189
2026-05-10 20:14:26.003007,SEARCHING,12.725,1.000,0.00,0.00,29.70,1.611,2.266,2.434,2.222,0.880,0.700,0.412,-0.094,-0.189
2026-05-10 20:14:26.216901,SEARCHING,12.848,1.000,0.00,0.00,27.53,1.611,2.266,2.434,2.222,0.880,0.700,0.412,-0.094,-0.189
2026-05-10 20:14:26.416314,SEARCHING,12.973,1.000,0.00,0.00,25.45,1.525,2.243,2.099,1.990,0.880,0.700,0.380,-0.081,-0.161
2026-05-10 20:14:26.637944,SEARCHING,13.100,1.000,0.00,0.00,23.67,1.486,2.007,1.923,1.682,0.860,0.700,0.341,-0.069,-0.138
2026-05-10 20:14:26.831485,SEARCHING,13.229,1.000,0.00,0.00,22.09,1.486,2.007,1.923,1.682,0.860,0.700,0.341,-0.069,-0.138
2026-05-10 20:14:27.081584,SEARCHING,13.358,1.000,0.00,0.00,20.42,1.439,1.891,2.460,1.404,0.870,0.662,0.262,-0.130,-0.260
2026-05-10 20:14:27.264887,SEARCHING,13.483,1.000,0.00,0.00,17.81,1.439,1.891,2.460,1.404,0.870,0.662,0.262,-0.130,-0.260
2026-05-10 20:14:27.497059,SEARCHING,13.609,1.000,0.00,0.00,14.84,1.439,1.891,2.460,1.404,0.870,0.662,0.262,-0.130,-0.260
2026-05-10 20:14:27.719900,SEARCHING,13.738,1.000,0.00,0.00,11.86,1.278,2.061,2.159,1.012,0.873,0.700,0.094,-0.144,-0.287
2026-05-10 20:14:27.940717,SEARCHING,13.874,1.000,0.00,0.00,8.65,1.278,2.061,2.159,1.012,0.873,0.700,0.094,-0.144,-0.287
2026-05-10 20:14:28.151471,SEARCHING,14.013,1.000,0.00,0.00,5.36,1.278,2.061,2.159,1.012,0.873,0.700,0.094,-0.144,-0.287
2026-05-10 20:14:28.358754,SEARCHING,14.153,1.000,0.00,0.00,2.07,1.278,2.061,2.159,1.012,0.873,0.700,0.094,-0.144,-0.287
2026-05-10 20:14:28.569044,SEARCHING,14.292,1.000,0.00,0.00,-1.22,1.278,2.061,2.159,1.012,0.873,0.700,0.094,-0.144,-0.287
2026-05-10 20:14:28.792889,SEARCHING,14.432,1.000,0.00,0.00,-4.51,1.278,2.061,2.159,1.012,0.873,0.700,0.094,-0.144,-0.287
2026-05-10 20:14:28.996639,SEARCHING,14.572,1.000,0.00,0.00,-7.80,1.257,1.387,3.134,0.778,1.354,0.485,-0.328,-0.214,-0.429
2026-05-10 20:14:29.218208,SEARCHING,14.678,1.000,0.00,0.00,-12.31,1.257,1.387,3.134,0.778,1.354,0.485,-0.328,-0.214,-0.429
2026-05-10 20:14:29.444625,SEARCHING,14.772,1.000,0.00,0.00,-17.22,1.257,1.387,3.134,0.778,1.354,0.485,-0.328,-0.214,-0.429
2026-05-10 20:14:30.432013,SEARCHING,14.863,1.000,0.00,0.00,-22.13,1.026,2.790,2.600,0.770,1.646,0.700,-0.414,-0.265,-0.531
2026-05-10 20:14:30.499352,SEARCHING,14.988,1.000,0.00,0.00,-28.16,1.026,2.790,2.600,0.770,1.646,0.700,-0.414,-0.265,-0.531
2026-05-10 20:14:32.100929,SEARCHING,15.108,1.000,0.00,0.00,-34.25,1.026,2.790,2.600,0.770,1.646,0.700,-0.414,-0.265,-0.531
2026-05-10 20:14:32.312848,SEARCHING,15.220,1.000,0.00,0.00,-40.33,2.384,2.460,2.025,0.784,1.682,0.700,-0.409,0.033,0.067
2026-05-10 20:14:32.505349,SEARCHING,15.325,1.000,0.00,0.00,-41.28,2.222,2.138,1.907,0.778,1.670,0.700,-0.412,0.033,0.067
2026-05-10 20:14:32.739572,SEARCHING,15.431,1.000,0.00,0.00,-40.50,2.099,2.043,1.802,0.768,1.695,0.700,-0.427,0.035,0.071
2026-05-10 20:14:32.945724,SEARCHING,15.538,1.000,0.00,0.00,-39.64,2.119,1.990,1.760,0.776,1.831,0.696,-0.446,0.043,0.087
2026-05-10 20:14:33.162017,SEARCHING,15.644,1.000,0.00,0.00,-38.54,1.990,1.876,1.557,0.776,1.876,0.656,-0.454,0.063,0.126
2026-05-10 20:14:33.360345,SEARCHING,15.748,1.000,0.00,0.00,-37.10,1.907,1.760,1.387,0.781,1.760,0.616,-0.427,0.088,0.177
2026-05-10 20:14:33.569982,SEARCHING,15.848,1.000,0.00,0.00,-35.14,1.939,1.682,1.323,0.770,1.695,0.589,-0.425,0.108,0.216
2026-05-10 20:14:33.780957,SEARCHING,15.946,1.000,0.00,0.00,-32.69,1.939,1.682,1.323,0.770,1.695,0.589,-0.425,0.108,0.216
2026-05-10 20:14:34.021279,SEARCHING,16.070,1.000,0.00,0.00,-29.48,1.747,1.567,1.186,1.578,1.578,0.549,0.000,0.122,0.244
2026-05-10 20:14:34.216969,SEARCHING,16.142,1.000,0.00,0.00,-27.39,1.760,1.567,1.156,1.557,1.546,0.549,0.003,0.134,0.267
2026-05-10 20:14:34.429258,SEARCHING,16.240,1.000,0.00,0.00,-24.40,1.733,1.546,1.122,1.546,1.467,0.541,0.021,0.142,0.283
2026-05-10 20:14:34.639557,SEARCHING,16.340,1.000,0.00,0.00,-21.20,1.708,1.557,1.111,1.557,1.395,0.545,0.045,0.142,0.283
2026-05-10 20:14:34.857296,SEARCHING,16.443,1.000,0.00,0.00,-17.95,1.708,1.557,1.111,1.557,1.395,0.545,0.045,0.142,0.283
2026-05-10 20:14:35.047762,SEARCHING,16.547,1.000,0.00,0.00,-14.70,1.708,1.557,1.111,1.557,1.395,0.545,0.045,0.142,0.283
2026-05-10 20:14:35.276860,SEARCHING,16.653,1.000,0.00,0.00,-11.46,1.831,1.670,1.095,1.670,1.017,0.585,0.231,0.165,0.330
2026-05-10 20:14:35.495911,SEARCHING,16.766,1.000,0.00,0.00,-7.81,1.860,1.774,1.122,2.542,0.854,0.621,0.467,0.159,0.319
2026-05-10 20:14:35.713536,SEARCHING,16.888,1.000,0.00,0.00,-4.12,1.860,1.774,1.122,2.542,0.854,0.621,0.467,0.159,0.319
2026-05-10 20:14:35.905339,SEARCHING,17.012,1.000,0.00,0.00,-0.47,1.860,1.774,1.122,2.542,0.854,0.621,0.467,0.159,0.319
2026-05-10 20:14:36.146624,SEARCHING,17.136,1.000,0.00,0.00,3.18,1.733,1.845,1.670,2.487,0.671,0.646,0.653,0.010,0.020
2026-05-10 20:14:36.350193,SEARCHING,17.264,1.000,0.00,0.00,4.26,1.695,1.708,1.733,2.514,0.659,0.598,0.671,-0.006,-0.012
2026-05-10 20:14:36.586476,SEARCHING,17.385,1.000,0.00,0.00,4.21,1.720,1.747,1.682,2.542,0.677,0.611,0.650,0.006,0.012
2026-05-10 20:14:36.772955,SEARCHING,17.507,1.000,0.00,0.00,4.28,1.720,1.747,1.682,2.542,0.677,0.611,0.650,0.006,0.012
2026-05-10 20:14:36.996941,SEARCHING,17.629,1.000,0.00,0.00,4.42,1.720,1.747,1.682,2.542,0.677,0.611,0.650,0.006,0.012
2026-05-10 20:14:37.198682,SEARCHING,17.750,1.000,0.00,0.00,4.55,1.720,1.747,1.682,2.542,0.677,0.611,0.650,0.006,0.012
2026-05-10 20:14:37.439557,SEARCHING,17.872,1.000,0.00,0.00,4.69,1.237,1.244,1.211,2.514,0.665,0.435,0.663,0.008,0.016
2026-05-10 20:14:37.650180,SEARCHING,17.968,1.000,0.00,0.00,4.86,1.237,1.244,1.211,2.514,0.665,0.435,0.663,0.008,0.016
2026-05-10 20:14:37.863382,SEARCHING,18.052,1.000,0.00,0.00,5.01,1.054,1.090,1.045,2.514,0.661,0.381,0.669,0.004,0.008
2026-05-10 20:14:38.078809,SEARCHING,18.128,1.000,0.00,0.00,5.10,1.054,1.090,1.045,2.514,0.661,0.381,0.669,0.004,0.008
2026-05-10 20:14:38.282694,SEARCHING,18.204,1.000,0.00,0.00,5.19,1.054,1.090,1.045,2.514,0.661,0.381,0.669,0.004,0.008
2026-05-10 20:14:38.487506,SEARCHING,18.280,1.000,0.00,0.00,5.28,1.054,1.090,1.045,2.514,0.661,0.381,0.669,0.004,0.008
2026-05-10 20:14:38.710607,SEARCHING,18.356,1.000,0.00,0.00,5.37,1.054,1.090,1.045,2.514,0.661,0.381,0.669,0.004,0.008
2026-05-10 20:14:38.924870,SEARCHING,18.432,1.000,0.00,0.00,5.46,1.054,1.090,1.045,2.514,0.661,0.381,0.669,0.004,0.008
2026-05-10 20:14:39.136909,SEARCHING,18.508,1.000,0.00,0.00,5.55,1.054,1.090,1.045,2.514,0.661,0.381,0.669,0.004,0.008
2026-05-10 20:14:39.357018,SEARCHING,18.584,1.000,0.00,0.00,5.65,1.054,1.090,1.045,2.514,0.661,0.381,0.669,0.004,0.008
2026-05-10 20:14:39.587308,SEARCHING,18.659,1.000,0.00,0.00,5.74,1.054,1.090,1.045,2.514,0.661,0.381,0.669,0.004,0.008
2026-05-10 20:14:39.804955,SEARCHING,18.735,1.000,0.00,0.00,5.83,1.054,1.090,1.045,2.514,0.661,0.381,0.669,0.004,0.008
2026-05-10 20:14:40.025091,SEARCHING,18.811,1.000,0.00,0.00,5.92,1.054,1.090,1.045,2.514,0.661,0.381,0.669,0.004,0.008
2026-05-10 20:14:40.221846,SEARCHING,18.887,1.000,0.00,0.00,6.01,1.054,1.090,1.045,2.514,0.661,0.381,0.669,0.004,0.008
2026-05-10 20:14:40.453632,SEARCHING,18.963,1.000,0.00,0.00,6.10,1.054,1.090,1.045,2.514,0.661,0.381,0.669,0.004,0.008
2026-05-10 20:14:40.658349,INSPECTING,19.055,1.000,0.00,0.00,6.40,2.825,6.538,2.243,5.448,10.000,-0.150,-0.450,0.600,0.800
2026-05-10 20:14:40.893898,SEARCHING,19.044,1.000,0.06,0.01,7.82,2.790,2.434,2.179,5.448,1.448,0.700,0.304,0.045,0.090
2026-05-10 20:14:41.147825,SEARCHING,19.058,1.000,0.16,0.00,3.86,2.896,2.243,2.222,2.288,1.421,0.350,0.550,0.552,0.850
2026-05-10 20:14:41.321114,INSPECTING,19.066,1.000,0.24,-0.00,0.57,2.692,6.356,2.119,5.581,10.000,-0.150,-0.450,0.600,0.800
2026-05-10 20:14:41.554727,INSPECTING,19.065,1.000,0.21,0.11,1.55,3.134,2.311,2.222,2.288,1.430,-0.150,0.450,0.600,0.800
2026-05-10 20:14:41.757145,INSPECTING,19.054,1.000,0.23,-0.00,5.66,2.860,2.384,2.200,2.384,1.421,-0.150,0.450,0.600,0.800
2026-05-10 20:14:41.977600,INSPECTING,19.058,0.999,0.53,-1.18,5.16,2.724,2.384,2.159,5.448,1.439,-0.150,0.450,0.600,0.800
2026-05-10 20:14:42.191331,SEARCHING,19.043,1.000,0.21,0.10,8.91,2.630,6.934,2.099,5.448,10.000,0.700,-0.050,0.043,0.087
2026-05-10 20:14:42.447176,SEARCHING,19.057,1.000,0.07,-0.23,3.77,2.630,6.934,2.099,5.448,10.000,0.350,0.000,0.000,0.000
2026-05-10 20:14:42.614678,INSPECTING,19.065,1.000,0.12,-0.00,0.54,2.630,6.934,2.099,5.448,10.000,-0.150,-0.450,0.600,0.800
2026-05-10 20:14:42.821021,SEARCHING,19.042,1.000,0.16,-0.00,6.95,2.630,6.934,2.099,5.448,10.000,0.700,-0.050,0.043,0.087
2026-05-10 20:14:43.082023,SEARCHING,19.057,1.000,0.27,0.00,3.81,2.630,0.227,2.080,5.448,0.227,0.350,0.550,0.552,0.850
2026-05-10 20:14:43.310389,SEARCHING,19.054,1.000,0.29,-0.03,7.72,2.630,0.227,2.080,5.448,0.227,0.350,0.550,0.552,0.850
2026-05-10 20:14:43.504301,INSPECTING,19.055,1.000,0.31,-0.02,6.52,2.630,0.227,2.080,5.448,0.227,0.000,0.000,0.000,0.000
2026-05-10 20:14:43.707053,INSPECTING,19.047,1.000,0.35,-0.03,9.27,2.487,6.022,2.119,5.321,1.476,-0.150,0.450,0.600,0.800
2026-05-10 20:14:43.893657,INSPECTING,19.057,1.001,0.42,-0.03,5.92,2.487,6.022,2.119,5.321,1.476,-0.150,0.450,0.600,0.800
2026-05-10 20:14:44.153203,INSPECTING,19.042,1.001,0.47,-0.00,7.25,2.896,2.335,2.222,2.359,1.439,-0.150,0.450,0.600,0.800
2026-05-10 20:14:44.337606,SEARCHING,19.042,1.001,0.56,-0.11,8.82,2.434,7.151,0.227,5.448,10.000,0.700,-0.050,1.798,3.595
2026-05-10 20:14:44.599857,SEARCHING,19.048,1.001,0.67,-0.05,8.47,2.434,5.720,2.119,5.200,1.467,0.350,0.000,0.000,0.000
2026-05-10 20:14:44.815234,SEARCHING,19.053,1.001,0.76,-0.05,6.39,2.434,5.720,2.119,5.200,1.467,0.350,0.000,0.000,0.000
2026-05-10 20:14:45.005297,SEARCHING,19.058,1.001,0.85,-0.03,4.27,2.487,6.538,2.138,5.448,1.486,0.350,0.000,0.000,0.000
2026-05-10 20:14:45.239616,SEARCHING,19.059,1.002,0.92,0.01,1.84,2.630,6.184,2.179,5.448,1.467,0.350,0.000,0.000,0.000
2026-05-10 20:14:45.455750,SEARCHING,19.060,1.002,1.01,-0.00,2.14,2.630,6.184,2.179,5.448,1.467,0.350,0.000,0.000,0.000
2026-05-10 20:14:45.664170,SEARCHING,19.058,1.000,0.99,-0.80,2.71,2.630,6.184,2.179,5.448,1.467,0.350,0.000,0.000,0.000
2026-05-10 20:14:45.815609,INSPECTING,19.063,1.001,0.87,-0.24,1.05,2.630,6.184,2.179,5.448,1.467,-0.150,0.450,0.600,0.800
2026-05-10 20:14:46.029500,SEARCHING,19.040,1.002,0.54,-0.00,8.40,2.757,6.022,2.222,5.448,1.439,0.700,0.307,0.039,0.079
2026-05-10 20:14:46.294879,SEARCHING,19.054,1.002,0.53,-0.00,3.94,2.757,6.022,2.222,5.448,1.439,0.350,0.000,0.000,0.000
2026-05-10 20:14:46.462166,INSPECTING,19.063,1.002,0.61,0.00,0.59,2.600,6.022,2.200,5.448,1.476,-0.150,0.450,0.600,0.800
2026-05-10 20:14:46.669003,SEARCHING,19.040,1.001,0.48,-0.04,6.93,2.692,5.867,2.222,5.448,1.457,0.700,0.302,0.035,0.071
2026-05-10 20:14:46.984310,SEARCHING,19.054,1.002,0.52,-0.01,3.81,2.460,6.184,2.179,5.448,1.486,0.350,0.000,0.000,0.000
2026-05-10 20:14:47.103369,INSPECTING,19.052,1.002,0.55,-0.06,7.41,2.384,6.538,2.138,5.448,1.496,-0.150,0.450,0.600,0.800
2026-05-10 20:14:47.308326,SEARCHING,19.039,1.002,0.61,0.01,8.21,2.384,6.538,2.138,5.448,1.496,0.700,0.291,0.022,0.043
2026-05-10 20:14:47.608435,SEARCHING,19.057,1.002,0.72,-0.00,2.85,2.630,6.022,2.222,5.448,1.476,0.350,0.000,0.000,0.000
2026-05-10 20:14:47.739539,INSPECTING,19.060,1.002,0.81,-0.02,2.55,2.630,6.022,2.222,5.448,1.476,-0.150,0.450,0.600,0.800
2026-05-10 20:14:47.945257,SEARCHING,19.039,1.002,0.85,-0.01,8.35,2.571,5.867,2.222,5.581,1.476,0.700,0.299,0.028,0.055
2026-05-10 20:14:48.209288,SEARCHING,19.054,1.001,0.78,-0.82,3.42,2.571,5.867,2.222,5.581,1.476,0.350,0.000,0.000,0.000
2026-05-10 20:14:48.455300,SEARCHING,19.057,1.002,0.77,0.20,1.75,2.434,6.184,2.200,5.448,1.448,0.350,0.000,0.000,0.000
2026-05-10 20:14:48.599536,INSPECTING,19.062,1.002,0.88,-0.00,1.01,2.514,5.867,2.222,5.581,1.476,-0.150,0.450,0.600,0.800
2026-05-10 20:14:48.835137,INSPECTING,19.047,1.002,0.91,-0.01,7.93,2.514,5.867,2.222,5.581,1.476,-0.150,0.450,0.600,0.800
2026-05-10 20:14:49.027966,SEARCHING,19.036,1.002,0.97,-0.02,9.38,2.514,5.867,2.222,5.581,1.476,0.700,0.299,0.024,0.047
2026-05-10 20:14:49.307146,SEARCHING,19.053,1.002,1.20,-0.10,2.51,2.288,6.356,2.159,5.448,1.467,0.350,0.000,0.000,0.000
2026-05-10 20:14:49.477047,INSPECTING,19.061,1.002,1.25,-0.33,0.90,2.288,6.356,2.159,5.448,1.467,-0.150,0.450,0.600,0.800
2026-05-10 20:14:49.690109,INSPECTING,19.038,1.001,1.16,-0.63,8.24,2.288,6.356,2.159,5.448,1.467,-0.150,0.450,0.600,0.800
2026-05-10 20:14:49.887228,SEARCHING,19.037,1.002,1.15,-0.14,9.56,2.288,6.356,2.159,5.448,1.467,0.700,0.299,0.012,0.024
2026-05-10 20:14:50.097856,SEARCHING,19.042,1.002,1.22,-0.02,7.32,2.288,6.356,2.138,5.448,1.496,0.700,0.291,0.014,0.028
2026-05-10 20:14:50.405288,SEARCHING,19.052,1.003,1.35,-0.01,3.78,2.288,6.356,2.138,5.448,1.496,0.350,0.000,0.000,0.000
2026-05-10 20:14:50.551043,INSPECTING,19.056,1.002,1.42,-0.44,3.68,2.138,6.934,1.457,4.086,10.000,-0.150,-0.450,0.600,0.800
2026-05-10 20:14:50.779454,INSPECTING,19.058,1.003,1.14,-0.03,1.93,1.990,3.316,2.119,3.415,10.000,-0.150,-0.450,-0.600,-0.800
2026-05-10 20:14:50.969927,SEARCHING,19.040,1.003,1.16,0.01,-5.73,1.990,3.316,2.119,3.415,10.000,0.700,-0.116,-0.014,-0.028
2026-05-10 20:14:51.240244,SEARCHING,19.052,1.002,1.27,0.02,2.40,2.724,5.321,2.243,5.448,1.505,0.350,0.000,0.000,0.000
2026-05-10 20:14:51.410054,INSPECTING,19.060,1.002,1.33,-0.31,0.87,2.384,6.022,2.222,5.448,1.496,-0.150,0.450,0.600,0.800
2026-05-10 20:14:51.605939,SEARCHING,19.037,1.002,1.28,-0.57,8.25,2.384,6.022,2.222,5.448,1.496,0.700,0.291,0.014,0.028
2026-05-10 20:14:51.910290,SEARCHING,19.052,1.003,1.31,0.02,2.35,2.384,6.022,2.222,5.448,1.496,0.350,0.000,0.000,0.000
2026-05-10 20:14:52.045753,INSPECTING,19.057,1.003,1.26,0.24,2.62,2.359,6.022,2.179,5.448,1.505,-0.150,0.450,0.600,0.800
2026-05-10 20:14:52.263509,INSPECTING,19.045,1.003,1.20,-0.13,7.91,2.359,6.022,2.179,5.448,1.505,-0.150,0.450,0.600,0.800
2026-05-10 20:14:52.497061,INSPECTING,19.053,1.003,1.15,0.44,4.67,2.159,6.538,2.179,5.448,1.505,-0.150,0.450,-0.600,-0.800
2026-05-10 20:14:52.676414,SEARCHING,19.042,1.003,1.21,0.15,-4.71,2.179,6.356,2.159,5.448,1.505,0.700,0.288,0.002,0.004
2026-05-10 20:14:52.958638,SEARCHING,19.051,1.003,1.26,0.02,2.36,2.514,5.867,2.061,5.448,1.505,0.350,0.000,0.000,0.000
2026-05-10 20:14:53.102037,INSPECTING,19.059,1.003,1.33,-0.26,0.84,2.514,5.867,2.061,5.448,1.505,-0.150,0.450,0.600,0.800
2026-05-10 20:14:53.318942,INSPECTING,19.044,1.002,1.31,-0.46,7.88,2.514,5.867,2.061,5.448,1.505,-0.150,0.450,0.600,0.800
2026-05-10 20:14:53.514673,SEARCHING,19.034,1.003,1.32,-0.03,9.41,2.514,5.867,2.061,5.448,1.505,0.700,0.288,0.039,0.079
2026-05-10 20:14:53.744927,INSPECTING,19.048,1.003,1.42,-0.03,7.11,1.907,3.365,2.138,3.316,1.557,-0.150,0.450,-0.600,-0.800
2026-05-10 20:14:53.997522,INSPECTING,19.058,1.003,1.57,0.01,-0.07,2.487,5.720,2.200,5.321,1.505,-0.150,0.450,0.600,0.800
2026-05-10 20:14:54.166778,SEARCHING,19.042,1.003,1.59,0.02,5.07,2.487,5.720,2.200,5.321,1.505,0.700,0.286,0.024,0.047
2026-05-10 20:14:54.466067,SEARCHING,19.050,1.005,1.75,0.94,3.68,2.487,5.720,2.200,5.321,1.505,0.350,0.000,0.000,0.000
2026-05-10 20:14:54.595817,INSPECTING,19.059,1.004,2.17,0.01,0.47,2.487,5.720,2.200,5.321,1.505,-0.150,0.450,0.600,0.800
2026-05-10 20:14:54.807887,SEARCHING,19.035,1.003,2.01,0.02,6.91,2.487,5.720,2.200,5.321,1.505,0.700,0.286,0.024,0.047
2026-05-10 20:14:55.108971,SEARCHING,19.050,1.002,1.99,-0.75,3.89,2.179,6.022,2.080,5.321,1.496,0.350,0.000,0.000,0.000
2026-05-10 20:14:55.328253,SEARCHING,19.056,1.004,1.99,-0.02,1.90,2.080,5.720,2.061,5.321,1.496,0.350,0.000,0.000,0.000
2026-05-10 20:14:55.584222,SEARCHING,19.056,1.004,2.07,-0.01,0.42,2.080,5.720,2.061,5.321,1.496,0.350,0.000,0.000,0.000
2026-05-10 20:14:55.703953,INSPECTING,19.057,1.004,2.09,0.22,1.34,2.080,5.720,2.061,5.321,1.496,-0.150,0.450,0.600,0.800
2026-05-10 20:14:55.917893,SEARCHING,19.035,1.004,1.63,-0.00,7.18,2.080,5.720,2.061,5.321,1.496,0.700,0.288,0.002,0.004
2026-05-10 20:14:56.189567,SEARCHING,19.051,1.004,1.71,-0.12,3.05,2.080,5.720,2.061,5.321,1.496,0.350,0.000,0.000,0.000
2026-05-10 20:14:56.341947,INSPECTING,19.057,1.004,1.68,-0.09,1.26,2.080,5.720,2.061,5.321,1.496,-0.150,0.450,0.600,0.800
2026-05-10 20:14:56.564554,SEARCHING,19.034,1.004,1.57,-0.02,8.40,2.080,5.720,2.061,5.321,1.496,0.700,0.288,0.002,0.004
2026-05-10 20:14:56.857789,SEARCHING,19.049,1.004,1.48,-0.02,3.91,1.845,3.134,2.138,3.269,1.525,0.350,0.000,0.000,0.000
2026-05-10 20:14:57.055416,SEARCHING,19.048,1.004,1.55,-0.07,5.04,1.860,3.269,4.487,3.269,10.000,0.350,-0.550,-0.552,-0.850
2026-05-10 20:14:57.221757,INSPECTING,19.057,1.004,1.65,0.00,0.60,1.860,3.269,4.487,3.269,10.000,-0.150,-0.450,-0.600,-0.800
2026-05-10 20:14:57.474406,INSPECTING,19.054,1.005,2.14,0.85,-0.80,2.119,4.400,2.222,5.321,1.546,-0.150,0.450,-0.600,-0.800
2026-05-10 20:14:57.692790,INSPECTING,19.057,1.003,1.94,-0.01,0.97,2.119,4.400,2.222,5.321,1.546,-0.150,0.450,-0.600,-0.800
2026-05-10 20:14:57.888861,SEARCHING,19.037,1.002,2.01,-0.73,-5.68,2.119,4.400,2.222,5.321,1.546,0.700,0.275,-0.010,-0.020
2026-05-10 20:14:58.152277,SEARCHING,19.049,1.002,2.19,-0.63,-2.13,2.119,4.400,2.222,5.321,1.546,0.350,0.000,0.000,0.000
2026-05-10 20:14:58.369490,SEARCHING,19.048,1.002,2.26,-0.48,-3.43,2.119,4.400,2.222,5.321,1.546,0.350,0.000,0.000,0.000
2026-05-10 20:14:58.520803,INSPECTING,19.058,1.003,2.45,0.36,0.58,2.630,5.321,2.243,5.200,10.000,-0.150,-0.450,0.600,0.800
2026-05-10 20:14:58.745475,SEARCHING,19.034,1.004,2.66,0.56,8.34,2.119,6.184,2.179,5.321,1.515,0.700,0.283,-0.006,-0.012
2026-05-10 20:14:59.060788,SEARCHING,19.049,1.002,2.88,-0.66,-2.19,2.119,6.022,2.138,5.448,1.505,0.350,0.000,0.000,0.000
2026-05-10 20:14:59.176762,INSPECTING,19.053,1.003,3.19,0.16,-2.12,2.119,6.022,2.138,5.448,1.505,-0.150,0.450,-0.600,-0.800
2026-05-10 20:14:59.421715,INSPECTING,19.050,1.003,3.58,0.60,-4.12,2.222,6.022,2.159,5.448,1.525,-0.150,0.450,0.600,0.800
2026-05-10 20:14:59.609073,SEARCHING,19.034,1.001,3.35,-0.59,4.32,2.222,6.022,2.159,5.448,1.525,0.700,0.283,0.006,0.012
2026-05-10 20:14:59.899302,SEARCHING,19.050,1.002,3.02,0.04,2.36,2.222,6.022,2.159,5.448,1.525,0.350,0.000,0.000,0.000
2026-05-10 20:15:00.033303,INSPECTING,19.055,1.002,3.12,-0.16,2.62,2.222,6.022,2.159,5.448,1.525,-0.150,0.450,0.600,0.800
2026-05-10 20:15:00.241268,SEARCHING,19.033,1.001,3.05,-0.61,8.78,2.222,6.022,2.159,5.448,1.525,0.700,0.283,0.006,0.012
2026-05-10 20:15:00.502541,SEARCHING,19.048,1.002,2.90,-0.13,4.11,2.222,6.022,2.159,5.448,1.525,0.350,0.000,0.000,0.000
2026-05-10 20:15:00.670884,INSPECTING,19.057,1.002,3.03,0.01,0.56,1.876,3.365,2.243,3.520,1.546,-0.150,0.450,-0.600,-0.800
2026-05-10 20:15:00.868775,SEARCHING,19.034,1.002,3.04,0.04,-6.83,1.876,3.365,2.243,3.520,1.546,0.700,0.218,-0.039,-0.079
2026-05-10 20:15:01.134417,SEARCHING,19.050,1.001,3.08,-0.64,-1.78,1.876,3.365,2.243,3.520,1.546,0.350,0.000,0.000,0.000
2026-05-10 20:15:01.358003,SEARCHING,19.056,1.000,3.18,-0.78,0.14,2.061,6.184,2.243,5.448,1.546,0.350,0.000,0.000,0.000
2026-05-10 20:15:01.609835,SEARCHING,19.054,1.001,3.30,-0.47,2.15,2.600,5.200,2.222,5.200,1.536,0.350,0.000,0.000,0.000
2026-05-10 20:15:01.722894,INSPECTING,19.056,1.002,3.37,-0.06,1.84,2.600,5.200,2.222,5.200,1.536,-0.150,0.450,0.600,0.800
2026-05-10 20:15:02.847188,SEARCHING,19.042,1.003,3.30,0.85,4.74,1.907,0.227,4.576,3.316,0.227,0.350,0.550,-0.552,-0.850
2026-05-10 20:15:04.405689,SEARCHING,19.014,1.003,3.29,0.84,15.63,1.907,0.227,4.576,3.316,0.227,0.350,0.550,-0.552,-0.850
2026-05-10 20:15:04.734254,SEARCHING,19.040,1.003,3.29,0.79,11.65,1.907,0.227,4.576,3.316,0.227,0.350,0.550,-0.552,-0.850
2026-05-10 20:15:04.881751,SEARCHING,19.045,1.001,3.24,-0.01,8.45,1.907,0.227,4.576,3.316,0.227,0.350,0.550,-0.552,-0.850
2026-05-10 20:15:05.103288,SEARCHING,19.044,1.001,3.24,-0.29,3.41,1.907,0.227,4.576,3.316,0.227,0.350,0.550,-0.552,-0.850
2026-05-10 20:15:05.312570,INSPECTING,19.058,1.001,3.29,-0.22,0.68,1.907,0.227,4.576,3.316,0.227,0.000,0.000,0.000,0.000
2026-05-10 20:15:05.512397,SEARCHING,19.057,1.001,3.47,-0.19,0.21,1.907,0.227,4.576,3.316,0.227,0.350,0.550,-0.552,-0.850
2026-05-10 20:15:05.758827,SEARCHING,19.048,1.001,3.66,0.18,-2.85,1.907,0.227,4.576,3.316,0.227,0.350,0.550,-0.552,-0.850
2026-05-10 20:15:06.008923,SEARCHING,19.051,1.001,3.73,0.27,-3.47,1.907,0.227,4.576,3.316,0.227,0.350,0.550,-0.552,-0.850
2026-05-10 20:15:06.076694,INSPECTING,19.057,1.000,3.78,0.02,0.32,2.311,5.867,2.222,5.321,1.536,-0.150,0.450,0.600,0.800
2026-05-10 20:15:06.277263,SEARCHING,19.046,1.000,3.78,0.04,5.70,2.311,5.867,2.222,5.321,1.536,0.700,0.278,0.008,0.016
2026-05-10 20:15:06.567940,SEARCHING,19.049,0.999,3.67,-0.58,-0.87,1.876,3.365,2.200,3.415,1.546,0.350,0.000,0.000,0.000
2026-05-10 20:15:06.716892,INSPECTING,19.058,1.000,4.03,0.15,0.77,1.876,3.365,2.200,3.415,1.546,-0.150,0.450,-0.600,-0.800
2026-05-10 20:15:06.965044,SEARCHING,19.050,1.000,4.11,0.13,-3.85,1.876,3.365,2.200,3.415,1.546,0.700,0.212,-0.035,-0.071
2026-05-10 20:15:07.222399,SEARCHING,19.049,1.000,4.16,0.06,-2.28,1.876,3.365,2.200,3.415,1.546,0.350,0.000,0.000,0.000
2026-05-10 20:15:07.361744,INSPECTING,19.053,1.000,4.20,-0.05,-2.29,1.876,3.365,2.200,3.415,1.546,-0.150,0.450,-0.600,-0.800
2026-05-10 20:15:07.558732,SEARCHING,19.035,1.000,4.18,0.07,-6.98,2.335,5.867,2.243,5.321,1.536,0.700,0.278,0.008,0.016
2026-05-10 20:15:07.835749,SEARCHING,19.050,1.000,4.20,0.07,2.21,2.335,5.867,2.243,5.321,1.536,0.350,0.000,0.000,0.000
2026-05-10 20:15:07.970873,INSPECTING,19.055,0.999,4.43,-0.34,2.52,10.000,0.227,0.227,3.575,0.227,-0.150,0.450,0.600,0.800
2026-05-10 20:15:08.252973,SEARCHING,19.035,0.999,4.31,-0.08,8.27,10.000,0.227,0.227,3.575,0.227,0.350,0.550,0.552,0.850
2026-05-10 20:15:08.469151,INSPECTING,19.045,0.999,4.57,-0.49,8.10,1.891,3.011,2.288,3.178,1.557,-0.150,0.450,-0.600,-0.800
2026-05-10 20:15:08.647196,INSPECTING,19.047,0.999,4.57,-0.56,7.78,1.891,3.011,2.288,3.178,1.557,-0.150,0.450,-0.600,-0.800
2026-05-10 20:15:08.878151,INSPECTING,19.051,1.001,4.91,1.00,-3.46,1.891,3.011,2.288,3.178,1.557,-0.150,0.450,-0.600,-0.800
2026-05-10 20:15:09.074888,SEARCHING,19.055,1.000,4.78,0.10,-1.36,1.891,3.011,2.288,3.178,1.557,0.700,0.197,-0.041,-0.083
2026-05-10 20:15:09.352357,SEARCHING,19.050,1.000,4.31,-0.05,-0.86,1.891,3.011,2.288,3.178,1.557,0.350,0.000,0.000,0.000
2026-05-10 20:15:09.480888,INSPECTING,19.055,1.000,4.45,0.24,-1.24,1.891,3.011,2.288,3.178,1.557,-0.150,0.450,-0.600,-0.800
2026-05-10 20:15:09.695197,INSPECTING,19.052,1.000,4.41,0.32,-3.41,2.359,5.867,2.200,5.448,1.536,-0.150,0.450,0.600,0.800
2026-05-10 20:15:09.942433,INSPECTING,19.050,1.000,4.52,-0.12,6.10,2.359,5.867,2.200,5.448,1.536,-0.150,0.450,0.600,0.800
2026-05-10 20:15:10.146339,INSPECTING,19.054,1.000,4.72,-0.21,3.48,2.359,5.867,2.200,5.448,1.536,-0.150,0.450,0.600,0.800
2026-05-10 20:15:10.353577,INSPECTING,19.057,1.001,4.84,0.06,0.06,2.359,5.867,2.200,5.448,1.536,-0.150,0.450,0.600,0.800
2026-05-10 20:15:10.560651,SEARCHING,19.051,1.000,4.97,-0.26,4.86,2.359,5.867,2.200,5.448,1.536,0.700,0.281,0.014,0.028
2026-05-10 20:15:10.822157,SEARCHING,19.050,1.000,4.91,-0.61,3.65,2.359,5.867,2.200,5.448,1.536,0.350,0.000,0.000,0.000
2026-05-10 20:15:10.961614,INSPECTING,19.053,1.000,5.00,-0.25,3.63,0.227,3.178,2.288,3.316,10.000,-0.150,-0.450,-0.600,-0.800
2026-05-10 20:15:11.196878,INSPECTING,19.043,0.999,4.95,-0.83,-7.41,0.227,3.178,2.288,3.316,10.000,-0.150,-0.450,-0.600,-0.800
2026-05-10 20:15:11.377999,SEARCHING,19.029,1.000,5.56,0.30,-11.04,0.227,3.178,2.288,3.316,10.000,0.700,-0.121,-1.786,-3.571
2026-05-10 20:15:11.648835,SEARCHING,19.032,1.001,6.14,1.19,-13.59,0.227,3.178,2.288,3.316,10.000,0.350,0.000,0.000,0.000
2026-05-10 20:15:11.843448,SEARCHING,19.024,1.001,6.20,1.58,-21.98,0.227,3.178,2.288,3.316,10.000,0.350,0.000,0.000,0.000
2026-05-10 20:15:12.096178,SEARCHING,19.022,1.003,7.44,3.83,-26.80,2.266,2.243,2.080,2.434,10.000,0.350,0.550,0.552,0.850
2026-05-10 20:15:12.219745,INSPECTING,19.023,1.003,7.86,4.22,-27.27,2.266,2.243,2.080,2.434,10.000,-0.150,-0.450,0.600,0.800
2026-05-10 20:15:12.454155,SEARCHING,19.038,0.999,7.90,2.05,-12.58,2.266,2.243,2.080,2.434,10.000,0.700,-0.186,0.018,0.035
2026-05-10 20:15:12.680245,SEARCHING,19.049,0.995,8.05,0.18,1.75,2.266,2.243,2.080,2.434,10.000,0.350,0.550,0.552,0.850
2026-05-10 20:15:12.832973,INSPECTING,19.059,0.995,8.28,-0.32,0.97,2.266,2.243,2.080,2.434,10.000,-0.150,-0.450,0.600,0.800
2026-05-10 20:15:13.062351,INSPECTING,19.050,0.994,8.15,-0.50,6.34,2.179,6.022,2.159,5.085,1.546,-0.150,0.450,0.600,0.800
2026-05-10 20:15:13.267461,SEARCHING,19.034,0.995,8.19,-0.25,9.89,2.179,6.022,2.159,5.085,1.546,0.700,0.270,0.002,0.004
2026-05-10 20:15:13.518391,SEARCHING,19.050,0.996,8.54,0.12,2.35,2.179,6.022,2.159,5.085,1.546,0.350,0.000,0.000,0.000
2026-05-10 20:15:13.747429,SEARCHING,19.050,0.996,8.84,-0.41,3.55,2.179,6.022,2.159,5.085,1.546,0.350,0.000,0.000,0.000
2026-05-10 20:15:13.958480,SEARCHING,19.049,0.997,8.85,0.15,4.89,2.179,6.022,2.159,5.085,1.546,0.350,0.000,0.000,0.000
2026-05-10 20:15:14.152115,SEARCHING,19.054,0.997,9.25,-0.21,2.55,2.179,6.022,2.159,5.085,1.546,0.350,0.000,0.000,0.000
2026-05-10 20:15:14.398291,SEARCHING,19.051,0.998,9.44,0.02,2.96,2.179,6.022,2.159,5.085,1.546,0.350,0.000,0.000,0.000
2026-05-10 20:15:14.542713,INSPECTING,19.055,0.998,9.77,-0.33,2.71,2.025,3.011,2.200,5.200,1.536,-0.150,0.450,-0.600,-0.800
2026-05-10 20:15:14.775217,INSPECTING,19.043,0.998,9.77,-0.12,-4.98,2.025,3.011,2.200,5.200,1.536,-0.150,0.450,-0.600,-0.800
2026-05-10 20:15:15.012887,INSPECTING,19.053,1.000,10.08,1.08,-2.13,2.025,3.011,2.200,5.200,1.536,-0.150,0.450,-0.600,-0.800
2026-05-10 20:15:15.182171,SEARCHING,19.040,0.998,10.12,0.08,-3.50,2.025,3.011,2.200,5.200,1.536,0.700,0.275,-0.018,-0.035
2026-05-10 20:15:15.460755,SEARCHING,19.049,0.998,10.33,0.08,-0.25,2.025,3.011,2.200,5.200,1.536,0.350,0.000,0.000,0.000
2026-05-10 20:15:15.600881,INSPECTING,19.056,0.998,10.58,0.29,-0.83,2.025,3.011,2.200,5.200,1.536,-0.150,0.450,-0.600,-0.800
2026-05-10 20:15:15.829254,INSPECTING,19.050,0.999,10.90,1.16,-4.37,2.025,3.011,2.200,5.200,1.536,-0.150,0.450,-0.600,-0.800
2026-05-10 20:15:16.062571,INSPECTING,19.048,0.998,11.04,1.00,-5.31,2.661,2.825,2.200,4.670,1.525,-0.150,0.450,0.600,0.800
2026-05-10 20:15:16.302970,INSPECTING,19.059,0.997,11.32,0.01,0.72,2.222,2.972,2.119,5.085,1.525,-0.150,0.450,0.600,0.800
2026-05-10 20:15:16.500483,INSPECTING,19.048,0.997,11.31,-0.00,6.28,2.222,2.972,2.119,5.085,1.525,-0.150,0.450,0.600,0.800
2026-05-10 20:15:16.728550,SEARCHING,19.036,0.998,11.38,0.48,7.49,1.973,3.011,2.200,5.200,1.546,0.700,0.273,-0.024,-0.047
2026-05-10 20:15:16.983576,SEARCHING,19.050,0.997,11.38,-0.17,-0.81,1.973,3.011,2.200,5.200,1.546,0.350,0.000,0.000,0.000
2026-05-10 20:15:17.152877,INSPECTING,19.056,0.998,11.78,0.74,-0.82,2.359,4.974,2.159,5.200,1.536,-0.150,0.450,0.600,0.800
2026-05-10 20:15:17.369328,INSPECTING,19.044,0.997,11.66,0.14,6.55,2.061,2.896,2.099,5.085,1.546,-0.150,0.450,-0.600,-0.800
2026-05-10 20:15:17.636113,INSPECTING,19.051,0.998,12.28,0.67,-3.47,1.907,3.316,2.266,3.751,10.000,-0.150,-0.450,-0.600,-0.800
2026-05-10 20:15:17.785431,SEARCHING,19.045,0.996,12.32,-0.48,-3.62,1.907,3.316,2.266,3.751,10.000,0.700,-0.100,-0.037,-0.075
2026-05-10 20:15:18.062641,SEARCHING,19.050,0.996,12.59,-0.15,3.72,2.288,2.825,2.007,5.200,1.505,0.350,0.550,0.552,0.850
2026-05-10 20:15:18.278384,SEARCHING,19.056,0.997,12.97,-0.09,1.64,2.288,2.825,2.007,5.200,1.505,0.350,0.550,0.552,0.850
2026-05-10 20:15:18.427482,INSPECTING,19.058,0.998,13.33,-0.06,0.98,2.025,2.934,2.061,4.974,1.546,-0.150,0.450,-0.600,-0.800
2026-05-10 20:15:18.639529,INSPECTING,19.035,0.999,13.25,0.99,-6.60,2.138,2.860,2.025,4.974,1.525,-0.150,0.450,0.600,0.800
2026-05-10 20:15:18.872551,INSPECTING,19.058,0.997,13.46,-0.35,0.23,2.138,2.860,2.025,4.974,1.525,-0.150,0.450,0.600,0.800
2026-05-10 20:15:19.087696,INSPECTING,19.046,0.998,13.33,0.11,7.16,2.138,2.860,2.025,4.974,1.525,-0.150,0.450,0.600,0.800
2026-05-10 20:15:19.284506,SEARCHING,19.035,0.998,13.72,-0.24,8.17,1.876,3.365,4.974,3.415,10.000,0.700,-0.116,-0.149,-0.299
2026-05-10 20:15:19.527832,SEARCHING,19.050,0.999,13.90,-0.15,-0.91,1.876,3.365,4.974,3.415,10.000,0.350,-0.550,-0.552,-0.850
2026-05-10 20:15:19.776703,SEARCHING,19.049,0.999,14.25,0.26,-2.54,1.876,3.365,4.974,3.415,10.000,0.350,-0.550,-0.552,-0.850
2026-05-10 20:15:19.935587,INSPECTING,19.052,1.000,14.77,1.27,-2.76,2.460,2.757,10.000,5.200,1.457,-0.150,0.450,-0.600,-0.800
2026-05-10 20:15:20.195156,INSPECTING,19.035,0.996,14.54,-0.80,-5.94,2.460,2.757,10.000,5.200,1.457,-0.150,0.450,-0.600,-0.800
2026-05-10 20:15:20.360588,SEARCHING,19.042,0.996,15.16,0.05,-4.36,2.460,2.757,10.000,5.200,1.457,0.700,0.296,-0.138,-0.276
2026-05-10 20:15:20.617405,SEARCHING,19.050,0.995,15.50,-0.16,-0.95,2.460,2.757,10.000,5.200,1.457,0.350,0.550,-0.552,-0.850
2026-05-10 20:15:20.879949,SEARCHING,19.051,0.997,16.12,1.24,-2.53,10.000,10.000,10.000,10.000,10.000,0.350,0.550,0.552,0.850
2026-05-10 20:15:20.992327,INSPECTING,19.054,0.995,16.27,0.61,-2.24,10.000,10.000,10.000,10.000,10.000,-0.150,-0.450,-0.600,-0.800
2026-05-10 20:15:21.233635,INSPECTING,19.050,0.995,16.51,0.98,-4.39,10.000,10.000,10.000,10.000,10.000,-0.150,-0.450,-0.600,-0.800
2026-05-10 20:15:21.451971,INSPECTING,19.049,0.997,17.07,2.36,-4.99,10.000,10.000,10.000,10.000,10.000,-0.150,-0.450,-0.600,-0.800
2026-05-10 20:15:21.633959,SEARCHING,19.034,0.995,16.88,1.13,-8.80,2.571,2.661,1.802,4.487,1.536,0.700,0.257,0.075,0.149
2026-05-10 20:15:21.953417,SEARCHING,19.051,0.992,17.10,-0.31,3.68,2.934,2.288,2.043,2.311,1.536,0.350,0.550,0.552,0.850
2026-05-10 20:15:22.069021,INSPECTING,19.052,0.990,17.70,-1.62,5.21,2.061,2.724,1.733,4.767,1.557,-0.150,0.450,0.600,0.800
2026-05-10 20:15:22.312156,INSPECTING,19.052,0.993,17.75,-0.31,4.97,2.311,2.630,1.720,5.200,1.525,-0.150,0.450,0.600,0.800
2026-05-10 20:15:22.524024,INSPECTING,19.051,0.992,18.37,-1.63,5.76,2.311,2.630,1.720,5.200,1.525,-0.150,0.450,0.600,0.800
2026-05-10 20:15:22.722312,INSPECTING,19.035,0.993,18.40,-0.92,9.47,2.311,2.630,1.720,5.200,1.525,-0.150,0.450,0.600,0.800
2026-05-10 20:15:22.929705,INSPECTING,19.035,0.993,18.73,-1.65,13.36,2.311,2.630,1.720,5.200,1.525,-0.150,0.450,0.600,0.800
2026-05-10 20:15:23.140844,INSPECTING,19.033,0.992,19.30,-2.94,14.34,2.311,2.630,1.720,5.200,1.525,-0.150,0.450,0.600,0.800
2026-05-10 20:15:23.372540,INSPECTING,19.042,0.991,20.18,-4.21,10.02,10.000,10.000,10.000,10.000,0.310,-0.150,0.450,-0.600,-0.800
2026-05-10 20:15:23.575801,INSPECTING,19.059,0.997,19.47,-0.11,0.72,10.000,10.000,10.000,10.000,10.000,-0.150,-0.450,-0.600,-0.800
2026-05-10 20:15:23.776750,SEARCHING,19.048,0.998,19.46,-0.00,-4.74,10.000,10.000,10.000,10.000,10.000,0.700,0.000,0.000,0.000
2026-05-10 20:15:24.055897,SEARCHING,19.050,0.997,19.64,0.25,-2.23,2.159,2.630,1.658,5.085,1.546,0.350,0.550,0.552,0.850
2026-05-10 20:15:24.298109,SEARCHING,19.050,0.998,20.19,1.25,-0.06,2.159,2.630,1.658,5.085,1.546,0.350,0.550,0.552,0.850
2026-05-10 20:15:24.464963,INSPECTING,19.058,0.996,20.73,-0.43,0.97,2.138,2.630,1.634,4.974,1.567,-0.150,0.450,0.600,0.800
2026-05-10 20:15:24.680150,SEARCHING,19.035,0.997,20.71,0.22,7.05,2.222,2.571,1.646,5.200,1.536,0.700,0.275,0.071,0.142
2026-05-10 20:15:24.958932,SEARCHING,19.049,0.998,21.52,-0.30,4.38,2.222,2.571,1.646,5.200,1.536,0.350,0.550,0.552,0.850
2026-05-10 20:15:25.136355,SEARCHING,19.048,0.997,22.11,-1.19,5.40,2.119,6.538,1.623,4.974,1.546,0.350,0.000,0.000,0.000
2026-05-10 20:15:25.329365,SEARCHING,19.052,1.000,22.36,-0.00,3.22,2.119,6.538,1.623,4.974,1.546,0.350,0.000,0.000,0.000
2026-05-10 20:15:25.569478,SEARCHING,19.053,1.003,22.84,0.85,1.90,2.119,6.538,1.623,4.974,1.546,0.350,0.000,0.000,0.000
2026-05-10 20:15:25.702746,INSPECTING,19.057,1.002,23.61,-0.24,0.99,2.119,6.538,1.623,4.974,1.546,-0.150,0.450,0.600,0.800
2026-05-10 20:15:25.929242,SEARCHING,19.031,1.003,23.56,0.54,8.05,2.080,6.356,5.321,5.085,10.000,0.700,-0.058,-0.132,-0.264
2026-05-10 20:15:26.231311,SEARCHING,19.050,1.004,24.34,-0.00,-1.53,1.939,6.538,5.867,4.974,10.000,0.350,-0.550,-0.552,-0.850
2026-05-10 20:15:26.381972,INSPECTING,19.054,1.003,24.96,0.30,-1.51,1.939,6.538,5.867,4.974,10.000,-0.150,-0.450,-0.600,-0.800
2026-05-10 20:15:26.574343,INSPECTING,19.043,1.003,24.94,0.48,-6.50,1.939,6.538,5.867,4.974,10.000,-0.150,-0.450,-0.600,-0.800
2026-05-10 20:15:26.809397,INSPECTING,19.032,1.003,25.57,1.10,-7.71,1.939,6.538,5.867,4.974,10.000,-0.150,-0.450,-0.600,-0.800
2026-05-10 20:15:26.989166,SEARCHING,19.025,1.003,25.88,1.42,-12.41,1.939,6.538,5.867,4.974,10.000,0.700,-0.061,-0.155,-0.311
2026-05-10 20:15:27.260838,SEARCHING,19.045,1.001,26.92,1.78,-4.41,1.939,6.538,5.867,4.974,10.000,0.350,-0.550,-0.552,-0.850
2026-05-10 20:15:27.504466,SEARCHING,19.050,1.000,27.49,1.50,-2.42,1.939,6.538,5.867,4.974,10.000,0.350,-0.550,-0.552,-0.850
2026-05-10 20:15:27.633926,SEARCHING,19.053,0.999,28.06,1.58,-2.27,1.939,6.538,5.867,4.974,10.000,0.700,-0.061,-0.155,-0.311
2026-05-10 20:15:27.881956,SEARCHING,19.050,0.995,28.51,-0.40,-0.58,2.243,2.434,1.496,4.868,1.546,0.350,0.550,0.552,0.850
2026-05-10 20:15:28.089841,SEARCHING,19.054,0.994,29.01,-0.35,1.79,2.243,2.434,1.496,4.868,1.546,0.350,0.550,0.552,0.850
2026-05-10 20:15:28.325763,SEARCHING,19.049,0.994,29.44,-0.52,4.25,2.179,2.571,1.476,4.974,1.557,0.350,0.550,0.552,0.850
2026-05-10 20:15:28.529836,SEARCHING,19.054,0.996,30.27,-0.47,1.66,2.179,2.571,1.476,4.974,1.557,0.350,0.550,0.552,0.850
2026-05-10 20:15:28.785749,SEARCHING,19.049,0.996,30.82,-0.72,4.18,2.025,3.575,1.467,4.868,1.589,0.350,0.000,0.000,0.000
2026-05-10 20:15:28.988595,SEARCHING,19.056,0.998,31.63,-0.65,1.75,2.025,3.575,1.467,4.868,1.589,0.350,0.000,0.000,0.000
2026-05-10 20:15:29.199827,SEARCHING,19.046,0.999,31.98,-0.58,5.65,2.007,3.520,1.430,4.974,1.611,0.350,0.000,0.000,0.000
2026-05-10 20:15:29.405740,SEARCHING,19.038,0.999,32.25,-0.49,10.30,2.007,3.520,1.430,4.974,1.611,0.350,0.000,0.000,0.000
2026-05-10 20:15:29.655779,SEARCHING,19.037,1.001,32.81,-0.28,11.40,10.000,9.534,8.172,6.022,10.000,0.350,-0.550,0.552,0.850
2026-05-10 20:15:29.819932,SEARCHING,19.047,1.004,33.73,0.26,7.43,10.000,9.534,8.172,6.022,10.000,0.350,-0.550,0.552,0.850
2026-05-10 20:15:30.062702,SEARCHING,19.052,1.005,35.03,0.24,0.46,1.923,3.092,7.151,5.085,10.000,0.350,-0.550,-0.552,-0.850
2026-05-10 20:15:30.258731,SEARCHING,19.052,1.006,35.53,1.07,-1.04,2.311,6.184,10.000,4.400,10.000,0.350,-0.550,-0.552,-0.850
2026-05-10 20:15:30.429504,INSPECTING,19.057,1.004,36.49,0.52,1.45,2.514,5.581,10.000,2.384,1.695,-0.150,0.450,-0.600,-0.800
2026-05-10 20:15:30.635902,INSPECTING,19.043,1.003,37.07,-0.23,-5.32,2.514,5.581,10.000,2.384,1.695,-0.150,0.450,-0.600,-0.800
2026-05-10 20:15:30.897409,INSPECTING,19.052,1.000,37.86,-0.64,-2.79,2.514,5.720,10.000,2.359,10.000,-0.150,-0.450,-0.600,-0.800
2026-05-10 20:15:31.091387,INSPECTING,19.057,0.998,38.34,-1.19,0.27,2.514,5.720,10.000,2.359,10.000,-0.150,-0.450,-0.600,-0.800
2026-05-10 20:15:31.332506,INSPECTING,19.058,0.999,38.91,-0.28,0.41,2.571,5.867,10.000,2.335,1.670,-0.150,0.450,-0.600,-0.800
2026-05-10 20:15:31.535736,INSPECTING,19.053,0.998,39.42,-0.20,-2.62,2.571,5.867,10.000,2.335,1.670,-0.150,0.450,-0.600,-0.800
2026-05-10 20:15:31.727565,INSPECTING,19.049,0.997,39.56,-0.29,-3.15,2.384,6.356,1.378,2.409,1.567,-0.150,0.450,0.600,0.800
2026-05-10 20:15:31.943264,INSPECTING,19.053,0.999,40.14,0.60,4.28,2.384,6.356,1.378,2.409,1.567,-0.150,0.450,0.600,0.800
2026-05-10 20:15:32.149970,INSPECTING,19.047,1.000,40.36,1.10,7.47,2.288,3.751,1.476,4.767,1.611,-0.150,0.450,0.600,0.800
2026-05-10 20:15:32.360641,INSPECTING,19.047,1.001,40.90,0.85,6.92,2.288,3.751,1.476,4.767,1.611,-0.150,0.450,0.600,0.800
2026-05-10 20:15:32.570016,SEARCHING,19.035,1.004,41.45,2.04,8.00,2.335,6.184,1.395,4.317,10.000,0.700,-0.079,0.130,0.260
2026-05-10 20:15:32.846997,SEARCHING,19.050,1.003,42.13,1.15,3.88,2.311,3.751,0.227,4.670,3.691,0.350,0.000,0.000,0.000
2026-05-10 20:15:33.045808,SEARCHING,19.047,1.007,41.89,3.76,8.29,2.311,3.751,0.227,4.670,3.691,0.350,0.000,0.000,0.000
2026-05-10 20:15:33.267784,SEARCHING,19.043,1.013,41.64,6.98,12.67,2.311,3.751,0.227,4.670,3.691,0.350,0.000,0.000,0.000
2026-05-10 20:15:33.448641,SEARCHING,19.036,1.017,41.45,9.50,19.86,2.311,3.751,0.227,4.670,3.691,0.350,0.000,0.000,0.000
2026-05-10 20:15:33.688959,SEARCHING,19.033,1.023,41.25,13.93,24.91,2.311,3.751,0.227,4.670,3.691,0.350,0.000,0.000,0.000
2026-05-10 20:15:33.935658,SEARCHING,19.029,1.028,41.10,17.09,33.41,2.311,3.751,0.227,4.670,3.691,0.350,0.000,0.000,0.000
2026-05-10 20:15:34.077435,INSPECTING,19.032,1.033,40.97,20.43,44.21,2.311,3.751,0.227,4.670,3.691,-0.150,0.450,0.600,0.800
2026-05-10 20:15:35.019499,SEARCHING,19.021,1.039,40.86,25.12,49.43,2.311,3.751,0.227,4.670,3.691,0.700,0.034,1.788,3.575
2026-05-10 20:15:36.561885,SEARCHING,19.039,1.039,40.35,24.89,83.63,2.311,3.751,0.227,4.670,3.691,0.700,0.034,1.788,3.575
2026-05-10 20:15:36.573345,SEARCHING,19.010,1.039,39.59,24.56,124.27,2.311,3.751,0.227,4.670,3.691,0.700,0.034,1.788,3.575
2026-05-10 20:15:36.684179,SEARCHING,18.902,1.039,38.83,24.22,164.92,2.311,3.751,0.227,4.670,3.691,0.700,0.034,1.788,3.575
2026-05-10 20:15:36.900731,SEARCHING,18.765,1.039,38.08,23.88,-154.42,2.311,3.751,0.227,4.670,3.691,0.700,0.034,1.788,3.575
2026-05-10 20:15:37.084028,SEARCHING,18.666,1.039,37.33,23.53,-113.76,2.311,3.751,0.227,4.670,3.691,0.700,0.034,1.788,3.575
2026-05-10 20:15:37.348673,INSPECTING,18.653,1.039,36.59,23.19,-73.09,1.525,0.974,0.575,1.300,0.587,0.000,0.000,0.000,0.000
2026-05-10 20:15:37.567669,INSPECTING,18.682,1.039,36.30,23.05,-55.95,1.144,0.978,0.582,1.354,0.579,0.350,0.550,0.552,0.850
2026-05-10 20:15:37.811314,INSPECTING,18.719,1.039,36.26,23.03,-47.68,0.572,0.695,0.584,0.776,0.572,0.350,0.550,-0.552,-0.850
2026-05-10 20:15:37.992696,INSPECTING,18.769,1.039,36.22,23.01,-44.78,0.399,0.438,0.588,0.550,0.411,0.350,0.550,-0.552,-0.850
2026-05-10 20:15:38.187234,INSPECTING,18.815,1.039,36.18,22.99,-54.53,0.399,0.438,0.588,0.550,0.411,0.350,0.550,-0.552,-0.850
2026-05-10 20:15:38.404394,INSPECTING,18.851,1.039,36.14,22.97,-64.29,0.750,0.584,0.582,0.620,0.520,0.350,0.550,0.552,0.850
2026-05-10 20:15:38.670723,INSPECTING,18.880,1.039,36.10,22.95,-61.39,0.590,0.722,0.582,0.890,0.576,0.350,0.550,-0.552,-0.850
2026-05-10 20:15:38.919495,INSPECTING,18.925,1.039,36.05,22.92,-62.87,0.518,0.573,0.604,0.776,0.562,0.350,0.550,-0.552,-0.850
2026-05-10 20:15:39.187448,INSPECTING,18.946,1.039,36.02,22.91,-70.18,0.518,0.573,0.604,0.776,0.562,0.350,0.550,-0.552,-0.850
2026-05-10 20:15:39.310770,INSPECTING,18.957,1.039,35.99,22.90,-75.06,1.100,0.982,0.581,1.105,0.582,0.350,0.550,-0.552,-0.850
2026-05-10 20:15:39.531743,INSPECTING,18.972,1.039,35.93,22.87,-89.70,1.017,0.991,0.593,1.059,0.587,0.350,0.550,-0.552,-0.850
2026-05-10 20:15:39.812962,INSPECTING,18.964,1.039,35.88,22.84,-99.94,0.961,0.978,0.582,1.040,0.579,0.350,-0.550,0.552,0.850
2026-05-10 20:15:40.045494,INSPECTING,18.957,1.039,35.84,22.82,-90.22,0.887,0.974,0.601,0.982,0.579,0.350,-0.550,0.552,0.850
2026-05-10 20:15:40.428637,INSPECTING,18.965,1.039,35.79,22.80,-78.06,0.857,0.946,0.587,0.934,0.582,0.350,-0.550,0.552,0.850
2026-05-10 20:15:40.659638,INSPECTING,18.985,1.039,35.75,22.78,-68.34,0.781,0.800,0.591,0.784,0.582,0.350,-0.550,-0.552,-0.850
2026-05-10 20:15:40.951350,TURNING,19.015,1.039,35.71,22.76,-58.62,0.291,0.298,0.587,0.667,0.227,0.000,0.000,0.000,0.000
2026-05-10 20:15:41.098624,INSPECTING,19.026,1.050,37.20,29.94,-43.21,0.381,0.381,0.309,0.381,0.331,0.000,0.000,0.000,0.000
2026-05-10 20:15:41.286567,INSPECTING,19.018,1.050,37.19,29.93,-46.42,0.381,0.381,0.309,0.381,0.331,0.000,0.000,0.000,0.000
2026-05-10 20:15:41.511097,INSPECTING,19.018,1.050,37.19,29.93,-46.42,0.237,0.227,0.379,0.227,0.227,0.000,0.000,0.000,0.000
2026-05-10 20:15:41.741973,INSPECTING,19.018,1.050,37.19,29.93,-46.42,0.237,0.227,0.379,0.227,0.227,0.000,0.000,0.000,0.000
2026-05-10 20:15:41.925405,INSPECTING,19.018,1.050,37.19,29.93,-46.42,0.237,0.227,0.379,0.227,0.227,0.000,0.000,0.000,0.000
2026-05-10 20:15:42.171857,INSPECTING,19.018,1.050,37.19,29.93,-46.42,0.237,0.227,0.379,0.227,0.227,0.000,0.000,0.000,0.000
2026-05-10 20:15:42.422730,INSPECTING,19.018,1.050,37.19,29.93,-46.42,0.237,0.227,0.379,0.227,0.227,0.000,0.000,0.000,0.000
2026-05-10 20:15:42.630324,INSPECTING,19.018,1.050,37.19,29.93,-46.42,0.237,0.227,0.379,0.227,0.227,0.000,0.000,0.000,0.000
2026-05-10 20:15:42.874865,INSPECTING,19.018,1.050,37.19,29.93,-46.42,0.237,0.227,0.379,0.227,0.227,0.000,0.000,0.000,0.000
2026-05-10 20:15:43.101092,INSPECTING,19.018,1.050,37.19,29.93,-46.42,0.237,0.227,0.379,0.227,0.227,0.000,0.000,0.000,0.000
2026-05-10 20:15:43.356809,TURNING,19.018,1.050,37.19,29.93,-46.42,0.237,0.227,0.379,0.227,0.227,0.000,0.000,0.000,0.000
2026-05-10 20:15:43.501100,TURNING,19.018,1.050,37.18,29.93,-44.13,0.237,0.227,0.379,0.227,0.227,0.000,0.000,0.000,0.800
2026-05-10 20:15:43.730987,TURNING,19.018,1.050,37.15,29.91,-34.98,0.407,0.227,0.326,0.227,0.376,0.000,0.000,0.000,0.800
2026-05-10 20:15:43.946945,TURNING,19.018,1.050,37.11,29.89,-25.84,0.407,0.227,0.326,0.227,0.376,0.000,0.000,0.000,0.800
2026-05-10 20:15:44.190043,TURNING,19.018,1.050,37.07,29.87,-16.69,0.372,0.227,0.227,0.227,0.227,0.000,0.000,0.000,0.800
2026-05-10 20:15:44.373294,TURNING,19.018,1.050,37.03,29.84,-7.54,0.372,0.227,0.227,0.227,0.227,0.000,0.000,0.000,0.800
2026-05-10 20:15:44.610965,TURNING,19.018,1.050,37.00,29.82,1.61,0.278,0.234,0.237,0.234,0.229,0.000,0.000,0.000,0.800
2026-05-10 20:15:44.834668,TURNING,19.018,1.050,36.96,29.80,10.76,0.278,0.234,0.237,0.234,0.229,0.000,0.000,0.000,0.800
2026-05-10 20:15:45.027415,TURNING,19.018,1.050,36.92,29.78,19.91,0.278,0.234,0.237,0.234,0.229,0.000,0.000,0.000,0.800
2026-05-10 20:15:45.254451,TURNING,19.018,1.050,36.89,29.76,29.06,0.278,0.234,0.237,0.234,0.229,0.000,0.000,0.000,0.800
2026-05-10 20:15:45.462867,TURNING,19.018,1.050,36.85,29.74,38.21,0.278,0.234,0.237,0.234,0.229,0.000,0.000,0.000,0.800
2026-05-10 20:15:45.671275,TURNING,19.018,1.050,36.81,29.72,47.35,0.415,0.704,0.700,0.704,0.227,0.000,0.000,0.000,0.800
2026-05-10 20:15:45.872386,TURNING,19.018,1.050,36.77,29.70,56.50,0.415,0.704,0.700,0.704,0.227,0.000,0.000,0.000,0.800
2026-05-10 20:15:46.110907,TURNING,19.018,1.050,36.74,29.67,65.65,0.700,0.227,0.227,0.227,0.503,0.000,0.000,0.000,0.800
2026-05-10 20:15:46.309669,TURNING,19.018,1.050,36.70,29.65,74.80,0.870,0.227,10.000,0.227,0.513,0.000,0.000,0.000,0.800
2026-05-10 20:15:46.530441,TURNING,19.018,1.050,36.66,29.63,83.95,1.271,0.564,0.428,0.564,0.227,0.000,0.000,0.000,0.800
2026-05-10 20:15:46.746701,TURNING,19.018,1.050,36.63,29.61,93.08,1.271,0.564,0.428,0.564,0.227,0.000,0.000,0.000,0.707
2026-05-10 20:15:46.948882,TURNING,19.018,1.050,36.60,29.59,101.44,1.122,0.418,0.227,0.418,0.443,0.000,0.000,0.000,0.561
2026-05-10 20:15:47.176241,TURNING,19.018,1.050,36.58,29.58,108.09,1.578,0.669,0.330,0.669,0.544,0.000,0.000,0.000,0.445
2026-05-10 20:15:47.372734,TURNING,19.018,1.050,36.56,29.57,113.44,1.634,0.854,0.526,0.854,0.542,0.000,0.000,0.000,0.351
2026-05-10 20:15:47.583724,TURNING,19.018,1.050,36.56,29.57,117.58,1.589,0.863,0.549,0.863,0.538,0.000,0.000,0.000,0.300
2026-05-10 20:15:47.828100,TURNING,19.018,1.050,36.55,29.57,121.07,1.525,0.832,0.554,0.832,0.538,0.000,0.000,0.000,0.300
2026-05-10 20:15:48.033466,TURNING,19.018,1.050,36.54,29.56,124.50,1.525,0.832,0.554,0.832,0.538,0.000,0.000,0.000,0.300
2026-05-10 20:15:48.269678,RETURNING,19.018,1.050,36.54,29.56,127.94,1.567,0.832,0.538,0.832,0.541,0.000,0.000,0.000,0.000
2026-05-10 20:15:48.457856,RETURNING,19.010,1.050,36.53,29.56,132.23,1.578,0.829,0.541,0.829,0.540,0.180,0.323,0.000,0.600
2026-05-10 20:15:48.673696,RETURNING,18.985,1.050,36.51,29.54,139.09,1.611,0.838,0.545,0.838,0.538,0.179,0.332,0.000,0.600
2026-05-10 20:15:48.893021,RETURNING,18.956,1.050,36.49,29.53,145.96,1.670,0.873,0.538,0.873,0.541,0.180,0.352,0.000,0.600
2026-05-10 20:15:49.069706,RETURNING,18.925,1.050,36.47,29.52,152.82,1.670,0.873,0.538,0.873,0.541,0.180,0.352,0.000,0.600
2026-05-10 20:15:49.318655,RETURNING,18.892,1.050,36.45,29.51,159.69,1.831,0.851,0.545,0.851,0.542,0.181,0.334,0.000,0.600
2026-05-10 20:15:49.522966,RETURNING,18.858,1.050,36.43,29.50,166.55,1.831,0.851,0.545,0.851,0.542,0.181,0.334,0.000,0.600
2026-05-10 20:15:49.741707,RETURNING,18.823,1.050,36.41,29.48,173.42,1.831,0.851,0.545,0.851,0.542,0.181,0.334,0.000,0.600
2026-05-10 20:15:49.945668,RETURNING,18.786,1.050,36.38,29.47,-179.72,1.831,0.851,0.545,0.851,0.542,0.181,0.334,0.000,0.600
2026-05-10 20:15:50.153628,RETURNING,18.750,1.050,36.36,29.46,-172.85,1.831,0.851,0.545,0.851,0.542,0.181,0.334,0.000,0.600
2026-05-10 20:15:50.411804,RETURNING,18.715,1.050,36.34,29.45,-165.98,1.831,0.851,0.545,0.851,0.542,0.181,0.334,0.000,0.600
2026-05-10 20:15:50.581086,RETURNING,18.680,1.050,36.32,29.44,-159.12,1.831,0.851,0.545,0.851,0.542,0.181,0.334,0.000,0.600
2026-05-10 20:15:50.817825,RETURNING,18.647,1.050,36.30,29.42,-152.25,1.831,0.851,0.545,0.851,0.542,0.181,0.334,0.000,0.600
2026-05-10 20:15:51.029943,RETURNING,18.616,1.050,36.28,29.41,-145.39,0.832,1.600,0.553,1.600,0.542,0.181,0.400,0.000,0.486
2026-05-10 20:15:51.214791,RETURNING,18.588,1.050,36.26,29.40,-139.11,0.832,1.600,0.553,1.600,0.542,0.181,0.400,0.000,0.486
2026-05-10 20:15:51.429333,RETURNING,18.561,1.050,36.25,29.39,-133.55,0.832,1.600,0.553,1.600,0.542,0.181,0.400,0.000,0.486
2026-05-10 20:15:51.644714,RETURNING,18.538,1.050,36.24,29.39,-127.99,0.832,1.600,0.553,1.600,0.542,0.181,0.400,0.000,0.486
2026-05-10 20:15:51.861638,RETURNING,18.517,1.050,36.22,29.38,-122.42,0.407,0.561,0.554,0.561,0.536,0.179,0.042,0.000,-0.521
2026-05-10 20:15:52.086097,RETURNING,18.498,1.050,36.21,29.37,-123.21,0.407,0.561,0.554,0.561,0.536,0.179,0.042,0.000,-0.521
2026-05-10 20:15:52.273769,RETURNING,18.477,1.050,36.19,29.36,-129.19,0.336,0.458,0.557,0.458,0.429,0.143,0.072,0.000,-0.600
2026-05-10 20:15:52.476753,RETURNING,18.456,1.050,36.17,29.35,-135.75,0.336,0.458,0.557,0.458,0.429,0.143,0.072,0.000,-0.600
2026-05-10 20:15:52.700803,RETURNING,18.435,1.050,36.15,29.34,-142.64,0.379,0.584,0.553,0.584,0.517,0.172,0.111,0.000,-0.600
2026-05-10 20:15:52.899976,RETURNING,18.408,1.050,36.13,29.33,-149.52,0.392,0.675,0.554,0.675,0.558,0.186,0.155,0.000,-0.598
2026-05-10 20:15:53.099980,RETURNING,18.375,1.050,36.11,29.31,-156.38,0.392,0.675,0.554,0.675,0.558,0.186,0.155,0.000,-0.598
2026-05-10 20:15:53.336906,RETURNING,18.341,1.050,36.09,29.30,-163.25,0.587,1.323,1.486,1.323,0.555,0.185,0.400,0.000,-0.600
2026-05-10 20:15:53.509451,RETURNING,18.305,1.050,36.07,29.29,-170.13,0.587,1.323,1.486,1.323,0.555,0.185,0.400,0.000,-0.600
2026-05-10 20:15:53.733725,RETURNING,18.268,1.050,36.05,29.28,-177.02,0.587,1.323,1.486,1.323,0.555,0.185,0.400,0.000,-0.600
2026-05-10 20:15:53.940586,RETURNING,18.231,1.050,36.03,29.26,176.10,0.587,1.323,1.486,1.323,0.555,0.185,0.400,0.000,-0.600
2026-05-10 20:15:54.147022,RETURNING,18.194,1.050,36.01,29.25,169.21,0.587,1.323,1.486,1.323,0.555,0.185,0.400,0.000,-0.600
2026-05-10 20:15:54.395320,RETURNING,18.158,1.050,35.99,29.24,162.32,0.587,1.323,1.486,1.323,0.555,0.185,0.400,0.000,-0.600
2026-05-10 20:15:54.574637,RETURNING,18.124,1.050,35.97,29.23,155.44,0.587,1.323,1.486,1.323,0.555,0.185,0.400,0.000,-0.600
2026-05-10 20:15:54.765919,RETURNING,18.091,1.050,35.95,29.22,148.55,0.587,1.323,1.486,1.323,0.555,0.185,0.400,0.000,-0.600
2026-05-10 20:15:54.972763,RETURNING,18.060,1.050,35.93,29.20,141.67,1.634,1.695,0.562,1.695,1.720,0.500,-0.004,0.000,0.600
