timestamp,state,x,y,z,roll_deg,pitch_deg,yaw_deg,dist_left,dist_center,dist_right,dist_top,dist_bottom,dtof_alert,collision_event,best_dir,max_space,cmd_vx,cmd_vz,cmd_yaw
22:13:27.464,SEARCHING,0.000,0.000,1.000,0.00,0.00,0.00,7.335,7.361,8.716,7.356,7.350,0,0,SEARCHING,0.000,0.240,0.000,-0.005
22:13:27.621,SEARCHING,0.054,-0.000,1.000,0.00,0.00,-1.29,1.131,1.229,5.852,1.222,1.211,0,0,SEARCHING,0.000,0.349,0.000,-0.359
22:13:27.822,SEARCHING,0.120,-0.004,1.000,0.00,0.00,-6.38,1.009,1.235,6.611,1.240,1.233,0,0,SEARCHING,0.000,0.300,0.000,-0.562
22:13:28.022,SEARCHING,0.198,-0.018,1.000,0.00,0.00,-13.39,0.923,4.108,4.419,4.110,2.267,0,0,SEARCHING,0.000,0.627,0.167,-0.666
22:13:28.222,SEARCHING,0.330,-0.058,1.000,0.00,0.00,-20.91,1.682,5.300,2.499,5.289,2.426,0,0,SEARCHING,0.000,0.758,0.233,-0.493
22:13:28.423,SEARCHING,0.473,-0.119,1.000,0.00,0.00,-24.67,3.201,6.147,1.985,5.887,2.427,0,0,SEARCHING,0.000,0.790,0.271,-0.073
22:13:28.623,SEARCHING,0.617,-0.185,1.000,0.00,0.00,-24.43,3.535,6.661,1.806,6.006,2.444,0,0,SEARCHING,0.000,0.798,0.287,0.136
22:13:28.824,SEARCHING,0.763,-0.249,1.000,0.00,0.00,-22.53,3.463,6.278,1.769,6.020,2.472,0,0,SEARCHING,0.000,0.799,0.288,0.200
22:13:29.025,SEARCHING,0.912,-0.308,1.000,0.00,0.00,-20.25,3.163,5.565,2.132,5.546,2.385,0,0,SEARCHING,0.000,0.800,0.289,0.171
22:13:29.225,SEARCHING,1.063,-0.361,1.000,0.00,0.00,-18.54,3.013,5.099,2.314,5.143,2.444,0,0,SEARCHING,0.000,0.800,0.274,0.115
22:13:29.425,SEARCHING,1.215,-0.411,1.000,0.00,0.00,-17.41,2.893,4.829,2.431,4.839,2.480,0,0,SEARCHING,0.000,0.800,0.252,0.074
22:13:29.626,SEARCHING,1.368,-0.457,1.000,0.00,0.00,-16.66,2.791,4.627,3.044,4.633,2.472,0,0,SEARCHING,0.000,0.800,0.236,0.035
22:13:29.826,SEARCHING,1.521,-0.503,1.000,0.00,0.00,-16.64,2.734,4.517,4.055,4.518,2.462,0,0,SEARCHING,0.000,0.800,0.226,-0.052
22:13:30.026,SEARCHING,1.674,-0.550,1.000,0.00,0.00,-17.47,2.687,4.410,4.741,4.416,2.446,0,0,SEARCHING,0.000,0.800,0.221,-0.104
22:13:30.227,SEARCHING,1.826,-0.599,1.000,0.00,0.00,-18.77,2.685,4.467,4.695,4.474,2.436,0,0,SEARCHING,0.000,0.800,0.222,-0.122
22:13:30.427,SEARCHING,1.977,-0.652,1.000,0.00,0.00,-20.17,2.723,4.505,4.450,4.485,2.446,0,0,SEARCHING,0.000,0.800,0.224,-0.119
22:13:30.629,SEARCHING,2.127,-0.709,1.000,0.00,0.00,-21.51,2.768,4.558,4.342,4.513,2.441,0,0,SEARCHING,0.000,0.800,0.227,-0.111
22:13:30.828,SEARCHING,2.275,-0.769,1.000,0.00,0.00,-22.73,2.801,4.685,4.096,4.713,2.418,0,0,SEARCHING,0.000,0.800,0.233,-0.099
22:13:31.029,SEARCHING,2.422,-0.832,1.000,0.00,0.00,-23.81,2.814,5.107,3.842,4.975,2.421,0,0,SEARCHING,0.000,0.800,0.248,-0.086
22:13:31.229,SEARCHING,2.568,-0.898,1.000,0.00,0.00,-24.75,2.771,5.811,3.746,5.486,2.453,0,0,SEARCHING,0.000,0.800,0.261,-0.077
22:13:31.430,SEARCHING,2.713,-0.966,1.000,0.00,0.00,-25.62,2.774,7.099,3.627,5.948,2.450,0,0,SEARCHING,0.000,0.800,0.276,-0.073
22:13:31.630,SEARCHING,2.857,-1.036,1.000,0.00,0.00,-26.43,2.763,7.476,3.526,5.918,2.456,0,0,SEARCHING,0.000,0.800,0.285,-0.067
22:13:31.831,SEARCHING,3.000,-1.108,1.000,0.00,0.00,-27.17,2.758,7.842,3.450,5.595,2.452,0,0,SEARCHING,0.000,0.800,0.281,-0.061
22:13:32.031,SEARCHING,3.142,-1.182,1.000,0.00,0.00,-27.85,2.730,7.390,3.368,5.271,2.436,0,0,SEARCHING,0.000,0.800,0.276,-0.057
22:13:32.232,SEARCHING,3.283,-1.258,1.000,0.00,0.00,-28.49,2.720,7.260,3.311,5.255,2.434,0,0,SEARCHING,0.000,0.800,0.266,-0.054
22:13:32.433,SEARCHING,3.423,-1.335,1.000,0.00,0.00,-29.09,2.711,6.884,3.209,4.618,2.443,0,0,SEARCHING,0.000,0.800,0.250,-0.049
22:13:32.633,SEARCHING,3.562,-1.413,1.000,0.00,0.00,-29.64,2.714,6.438,3.175,4.661,2.432,0,0,SEARCHING,0.000,0.800,0.234,-0.045
22:13:32.833,SEARCHING,3.701,-1.493,1.000,0.00,0.00,-30.14,2.681,6.122,3.096,4.430,2.424,0,0,SEARCHING,0.000,0.800,0.227,-0.042
22:13:33.034,SEARCHING,3.839,-1.573,1.000,0.00,0.00,-30.62,2.649,5.868,3.044,4.311,2.447,0,0,SEARCHING,0.000,0.800,0.214,-0.040
22:13:33.234,SEARCHING,3.977,-1.655,1.000,0.00,0.00,-31.07,2.662,5.626,3.012,4.405,2.451,0,0,SEARCHING,0.000,0.800,0.211,-0.038
22:13:33.435,SEARCHING,4.113,-1.738,1.000,0.00,0.00,-31.46,2.959,5.371,2.949,4.249,2.470,0,0,SEARCHING,0.000,0.800,0.205,-0.020
22:13:33.635,SEARCHING,4.250,-1.822,1.000,0.00,0.00,-31.56,3.151,5.194,2.929,4.405,2.461,0,0,SEARCHING,0.000,0.800,0.214,0.008
22:13:33.836,SEARCHING,4.386,-1.906,1.000,0.00,0.00,-31.42,3.139,5.165,2.928,4.418,2.443,0,0,SEARCHING,0.000,0.800,0.217,0.016
22:13:34.037,SEARCHING,4.523,-1.989,1.000,0.00,0.00,-31.21,3.158,5.094,2.916,4.320,2.459,0,0,SEARCHING,0.000,0.800,0.215,0.020
22:13:34.237,SEARCHING,4.660,-2.072,1.000,0.00,0.00,-30.98,3.286,5.242,2.909,4.242,2.476,0,0,SEARCHING,0.000,0.800,0.208,0.024
22:13:34.437,SEARCHING,4.797,-2.154,1.000,0.00,0.00,-30.65,3.719,5.785,2.868,4.074,2.462,0,0,SEARCHING,0.000,0.800,0.200,0.044
22:13:34.637,SEARCHING,4.935,-2.235,1.000,0.00,0.00,-30.03,3.887,6.002,2.767,3.882,2.424,0,0,SEARCHING,0.000,0.800,0.190,0.069
22:13:34.838,SEARCHING,5.074,-2.314,1.000,0.00,0.00,-29.19,3.842,5.907,2.799,3.689,2.444,0,0,SEARCHING,0.000,0.800,0.177,0.077
22:13:35.038,SEARCHING,5.214,-2.391,1.000,0.00,0.00,-28.31,3.725,5.793,2.778,3.537,2.448,0,0,SEARCHING,0.000,0.800,0.161,0.076
22:13:35.239,SEARCHING,5.356,-2.466,1.000,0.00,0.00,-27.47,3.629,5.685,2.814,3.392,2.468,0,0,SEARCHING,0.000,0.800,0.144,0.069
22:13:35.440,SEARCHING,5.498,-2.539,1.000,0.00,0.00,-26.71,3.532,5.593,2.821,3.193,2.479,0,0,SEARCHING,0.000,0.800,0.125,0.061
22:13:35.640,SEARCHING,5.642,-2.610,1.000,0.00,0.00,-26.04,3.464,5.554,2.817,2.990,2.449,0,0,SEARCHING,0.000,0.800,0.103,0.056
22:13:35.841,SEARCHING,5.786,-2.679,1.000,0.00,0.00,-25.42,3.366,5.461,2.824,2.851,2.437,0,0,SEARCHING,0.000,0.800,0.085,0.050
22:13:36.041,SEARCHING,5.930,-2.747,1.000,0.00,0.00,-24.87,3.305,5.450,2.863,2.765,2.459,0,0,SEARCHING,0.000,0.800,0.066,0.043
22:13:36.242,SEARCHING,6.076,-2.814,1.000,0.00,0.00,-24.41,3.224,5.488,2.864,2.693,2.458,0,0,SEARCHING,0.000,0.800,0.021,0.036
22:13:36.442,SEARCHING,6.222,-2.880,1.000,0.00,0.00,-24.03,3.140,5.563,2.850,2.626,2.437,0,0,SEARCHING,0.000,0.800,0.005,0.029
22:13:36.642,SEARCHING,6.368,-2.945,1.000,0.00,0.00,-23.72,3.075,5.694,2.845,2.597,2.421,0,0,SEARCHING,0.000,0.800,0.001,0.024
22:13:36.843,SEARCHING,6.515,-3.009,1.000,0.00,0.00,-23.54,3.020,5.754,3.978,2.583,2.448,0,0,SEARCHING,0.000,0.800,0.000,-0.017
22:13:37.043,SEARCHING,6.661,-3.073,1.000,0.00,0.00,-23.95,2.983,5.801,4.220,2.578,2.464,0,0,SEARCHING,0.000,0.800,0.000,-0.059
22:13:37.244,SEARCHING,6.807,-3.139,1.000,0.00,0.00,-24.71,3.003,5.859,4.214,2.596,2.446,0,0,SEARCHING,0.000,0.800,0.000,-0.074
22:13:37.444,SEARCHING,6.952,-3.207,1.000,0.00,0.00,-25.56,3.051,5.866,4.108,2.615,2.436,0,0,SEARCHING,0.000,0.800,0.000,-0.071
22:13:37.645,SEARCHING,7.096,-3.277,1.000,0.00,0.00,-26.34,3.110,5.987,4.078,2.606,2.426,0,0,SEARCHING,0.000,0.800,0.000,-0.064
22:13:37.845,SEARCHING,7.239,-3.348,1.000,0.00,0.00,-27.06,3.156,6.117,3.995,2.572,2.464,0,0,SEARCHING,0.000,0.800,0.000,-0.060
22:13:38.046,SEARCHING,7.381,-3.422,1.000,0.00,0.00,-27.70,3.259,6.169,3.912,2.587,2.466,0,0,SEARCHING,0.000,0.800,0.000,-0.048
22:13:38.246,SEARCHING,7.522,-3.497,1.000,0.00,0.00,-28.21,3.310,6.234,3.825,2.577,2.441,0,0,SEARCHING,0.000,0.800,0.000,-0.038
22:13:38.447,SEARCHING,7.663,-3.573,1.000,0.00,0.00,-28.62,3.328,6.071,3.796,2.569,2.453,0,0,SEARCHING,0.000,0.800,0.000,-0.032
22:13:38.647,SEARCHING,7.803,-3.650,1.000,0.00,0.00,-28.98,3.332,5.769,3.766,2.542,2.432,0,0,SEARCHING,0.000,0.800,0.000,-0.030
22:13:38.848,SEARCHING,7.943,-3.728,1.000,0.00,0.00,-29.31,3.358,5.679,3.789,2.397,2.453,0,0,SEARCHING,0.000,0.800,0.000,-0.028
22:13:39.048,SEARCHING,8.082,-3.807,1.000,0.00,0.00,-29.63,3.370,5.564,3.950,2.258,2.468,0,0,SEARCHING,0.000,0.800,0.000,-0.030
22:13:39.249,SEARCHING,8.221,-3.886,1.000,0.00,0.00,-30.00,3.341,5.511,3.989,2.162,2.453,0,0,SEARCHING,0.000,0.800,-0.039,-0.036
22:13:39.449,SEARCHING,8.359,-3.966,1.000,0.00,0.00,-30.43,3.355,5.353,4.091,2.071,2.438,0,0,SEARCHING,0.000,0.800,-0.070,-0.039
22:13:39.650,SEARCHING,8.497,-4.048,1.000,0.00,0.00,-30.90,3.313,5.238,4.101,1.971,2.455,0,0,SEARCHING,0.000,0.800,-0.101,-0.045
22:13:39.850,SEARCHING,8.634,-4.131,1.000,0.00,0.00,-31.43,3.262,5.140,4.025,3.941,2.469,0,0,SEARCHING,0.000,0.800,-0.033,-0.047
22:13:40.051,SEARCHING,8.770,-4.215,1.000,0.00,0.00,-31.96,3.287,5.106,3.997,4.885,2.457,0,0,SEARCHING,0.000,0.800,0.167,-0.045
22:13:40.251,SEARCHING,8.906,-4.300,1.000,0.00,0.00,-32.46,3.268,4.991,4.144,5.006,2.450,0,0,SEARCHING,0.000,0.800,0.228,-0.045
22:13:40.452,SEARCHING,9.040,-4.386,1.000,0.00,0.00,-33.02,3.290,4.977,4.890,4.980,2.442,0,0,SEARCHING,0.000,0.800,0.245,-0.061
22:13:40.653,SEARCHING,9.174,-4.474,1.000,0.00,0.00,-33.82,3.305,4.929,5.804,4.952,2.461,0,0,SEARCHING,0.000,0.800,0.248,-0.087
22:13:40.853,SEARCHING,9.306,-4.565,1.000,0.00,0.00,-34.90,3.363,4.898,6.054,4.972,2.454,0,0,SEARCHING,0.000,0.800,0.247,-0.101
22:13:41.053,SEARCHING,9.437,-4.657,1.000,0.00,0.00,-36.08,3.432,4.926,6.190,4.942,2.456,0,0,SEARCHING,0.000,0.800,0.247,-0.104
22:13:41.254,SEARCHING,9.565,-4.753,1.000,0.00,0.00,-37.28,3.530,4.928,6.656,4.907,2.446,0,0,SEARCHING,0.000,0.800,0.246,-0.106
22:13:41.454,SEARCHING,9.691,-4.851,1.000,0.00,0.00,-38.51,3.500,4.879,6.951,4.872,2.452,0,0,SEARCHING,0.000,0.800,0.245,-0.109
22:13:41.655,SEARCHING,9.816,-4.952,1.000,0.00,0.00,-39.79,3.359,4.870,6.997,4.876,2.484,0,0,SEARCHING,0.000,0.800,0.242,-0.118
22:13:41.855,SEARCHING,9.937,-5.055,1.000,0.00,0.00,-41.16,3.261,4.933,5.622,4.934,2.469,0,0,SEARCHING,0.000,0.800,0.240,-0.116
22:13:42.055,SEARCHING,10.057,-5.162,1.000,0.00,0.00,-42.32,3.268,5.003,3.096,5.003,2.437,0,0,SEARCHING,0.000,0.800,0.246,-0.054
22:13:42.256,SEARCHING,10.175,-5.270,1.000,0.00,0.00,-42.80,3.237,4.986,5.755,5.026,2.423,0,0,SEARCHING,0.000,0.800,0.253,-0.062
22:13:42.458,SEARCHING,10.291,-5.380,1.000,0.00,0.00,-43.71,3.245,4.987,5.990,4.992,2.470,0,0,SEARCHING,0.000,0.800,0.250,-0.100
22:13:42.657,SEARCHING,10.406,-5.491,1.000,0.00,0.00,-44.91,3.243,5.068,5.922,5.092,2.471,0,0,SEARCHING,0.000,0.800,0.248,-0.109
22:13:42.858,SEARCHING,10.518,-5.605,1.000,0.00,0.00,-46.17,3.225,5.164,5.366,5.116,2.450,0,0,SEARCHING,0.000,0.800,0.252,-0.107
22:13:43.059,SEARCHING,10.628,-5.722,1.000,0.00,0.00,-47.34,3.263,5.417,4.745,5.229,2.424,0,0,SEARCHING,0.000,0.800,0.258,-0.091
22:13:43.259,SEARCHING,10.735,-5.840,1.000,0.00,0.00,-48.29,3.230,5.911,4.190,5.295,2.434,0,0,SEARCHING,0.000,0.800,0.263,-0.070
22:13:43.459,SEARCHING,10.841,-5.960,1.000,0.00,0.00,-49.02,3.132,7.516,3.930,5.452,2.469,0,0,SEARCHING,0.000,0.800,0.265,-0.056
22:13:43.660,SEARCHING,10.945,-6.082,1.000,0.00,0.00,-49.65,3.099,7.569,3.911,5.301,2.415,0,0,SEARCHING,0.000,0.800,0.269,-0.053
22:13:43.860,SEARCHING,11.048,-6.204,1.000,0.00,0.00,-50.26,3.087,7.801,3.989,5.123,2.447,0,0,SEARCHING,0.000,0.800,0.262,-0.056
22:13:44.060,SEARCHING,11.150,-6.328,1.000,0.00,0.00,-50.95,3.066,7.554,4.276,4.979,2.437,0,0,SEARCHING,0.000,0.800,0.256,-0.068
22:13:44.261,SEARCHING,11.250,-6.453,1.000,0.00,0.00,-51.76,3.088,7.407,4.284,4.831,2.457,0,0,SEARCHING,0.000,0.800,0.246,-0.072
22:13:44.461,SEARCHING,11.348,-6.579,1.000,0.00,0.00,-52.60,3.078,7.424,4.245,4.777,2.453,0,0,SEARCHING,0.000,0.800,0.240,-0.074
22:13:44.661,SEARCHING,11.445,-6.707,1.000,0.00,0.00,-53.44,3.116,7.269,4.273,4.582,2.449,0,0,SEARCHING,0.000,0.800,0.234,-0.072
22:13:44.862,SEARCHING,11.539,-6.836,1.000,0.00,0.00,-54.27,3.161,7.245,4.467,4.449,2.441,0,0,SEARCHING,0.000,0.800,0.227,-0.074
22:13:45.062,SEARCHING,11.632,-6.966,1.000,0.00,0.00,-55.12,3.172,7.308,4.584,4.298,2.449,0,0,SEARCHING,0.000,0.800,0.218,-0.075
22:13:45.263,SEARCHING,11.722,-7.098,1.000,0.00,0.00,-55.98,3.212,7.253,4.693,4.217,2.459,0,0,SEARCHING,0.000,0.800,0.210,-0.076
22:13:45.465,SEARCHING,11.811,-7.231,1.000,0.00,0.00,-56.73,5.993,7.232,4.686,4.024,2.431,0,0,SEARCHING,0.000,0.800,0.202,-0.022
22:13:45.664,SEARCHING,11.899,-7.365,1.000,0.00,0.00,-56.71,6.600,7.014,4.617,3.862,2.366,0,0,SEARCHING,0.000,0.800,0.196,0.030
22:13:45.865,SEARCHING,11.987,-7.499,1.000,0.00,0.00,-56.26,6.588,7.044,4.462,3.691,2.407,0,0,SEARCHING,0.000,0.800,0.186,0.050
22:13:46.065,SEARCHING,12.076,-7.631,1.000,0.00,0.00,-55.65,6.546,6.877,4.307,3.577,2.402,0,0,SEARCHING,0.000,0.800,0.172,0.059
22:13:46.266,SEARCHING,12.167,-7.763,1.000,0.00,0.00,-54.96,6.284,6.724,4.186,3.428,2.437,0,0,SEARCHING,0.000,0.800,0.154,0.062
22:13:46.466,SEARCHING,12.260,-7.893,1.000,0.00,0.00,-54.24,6.205,6.583,4.107,3.171,2.426,0,0,SEARCHING,0.000,0.800,0.133,0.065
22:13:46.666,SEARCHING,12.354,-8.023,1.000,0.00,0.00,-53.50,6.055,6.350,4.099,2.979,2.425,0,0,SEARCHING,0.000,0.800,0.110,0.064
22:13:46.867,SEARCHING,12.450,-8.151,1.000,0.00,0.00,-52.77,5.931,6.095,4.095,2.862,2.427,0,0,SEARCHING,0.000,0.800,0.086,0.062
22:13:47.068,SEARCHING,12.548,-8.278,1.000,0.00,0.00,-52.07,5.750,5.899,4.114,2.758,2.459,0,0,SEARCHING,0.000,0.800,0.066,0.058
22:13:47.268,SEARCHING,12.647,-8.403,1.000,0.00,0.00,-51.42,5.581,5.721,4.112,2.689,2.480,0,0,SEARCHING,0.000,0.800,0.021,0.054
22:13:47.468,SEARCHING,12.747,-8.528,1.000,0.00,0.00,-50.81,5.470,5.530,4.054,2.610,2.452,0,0,SEARCHING,0.000,0.800,0.005,0.052
22:13:47.669,SEARCHING,12.849,-8.651,1.000,0.00,0.00,-50.22,5.339,5.343,4.098,2.581,2.421,0,0,SEARCHING,0.000,0.800,0.001,0.049
22:13:47.870,SEARCHING,12.952,-8.774,1.000,0.00,0.00,-49.68,5.232,5.255,4.128,2.562,2.439,0,0,SEARCHING,0.000,0.800,0.000,0.044
22:13:48.070,SEARCHING,13.056,-8.895,1.000,0.00,0.00,-49.18,5.119,5.117,4.135,2.547,2.452,0,0,SEARCHING,0.000,0.800,0.000,0.040
22:13:48.270,SEARCHING,13.161,-9.016,1.000,0.00,0.00,-48.74,5.048,4.959,4.162,2.567,2.465,0,0,SEARCHING,0.000,0.800,0.000,0.036
22:13:48.471,SEARCHING,13.266,-9.136,1.000,0.00,0.00,-48.35,4.983,4.763,4.236,2.582,2.433,0,0,SEARCHING,0.000,0.800,0.000,0.032
22:13:48.671,SEARCHING,13.373,-9.255,1.000,0.00,0.00,-48.00,4.938,4.645,4.284,2.579,2.431,0,0,SEARCHING,0.000,0.800,0.000,0.027
22:13:48.872,SEARCHING,13.480,-9.374,1.000,0.00,0.00,-47.70,4.877,4.539,4.235,2.559,2.419,0,0,SEARCHING,0.000,0.800,0.000,0.026
22:13:49.071,SEARCHING,13.588,-9.492,1.000,0.00,0.00,-47.41,4.818,4.424,4.237,2.547,2.421,0,0,SEARCHING,0.000,0.800,0.000,0.024
22:13:49.273,SEARCHING,13.697,-9.610,1.000,0.00,0.00,-47.16,4.536,4.249,4.357,2.558,2.416,0,0,SEARCHING,0.000,0.800,0.000,0.016
22:13:49.472,SEARCHING,13.806,-9.727,1.000,0.00,0.00,-47.02,4.451,4.126,4.437,2.537,2.442,0,0,SEARCHING,0.000,0.800,0.000,0.006
22:13:49.674,SEARCHING,13.915,-9.844,1.000,0.00,0.00,-46.98,4.165,3.939,4.443,2.542,2.435,0,0,SEARCHING,0.000,0.800,0.000,-0.004
22:13:49.875,SEARCHING,14.024,-9.961,1.000,0.00,0.00,-47.08,3.859,3.763,4.436,2.940,2.441,0,0,SEARCHING,0.000,0.800,0.025,-0.017
22:13:50.075,SEARCHING,14.133,-10.078,1.000,0.00,0.00,-47.33,3.637,3.613,4.409,3.475,2.458,0,0,SEARCHING,0.000,0.800,0.105,-0.030
22:13:50.275,SEARCHING,14.241,-10.196,1.000,0.00,0.00,-47.72,3.486,3.475,4.370,3.422,2.431,0,0,SEARCHING,0.000,0.800,0.135,-0.040
22:13:50.476,SEARCHING,14.348,-10.315,1.000,0.00,0.00,-48.22,3.364,3.359,4.285,3.347,2.425,0,0,SEARCHING,0.000,0.800,0.138,-0.048
22:13:50.676,SEARCHING,14.454,-10.435,1.000,0.00,0.00,-48.79,3.177,3.196,4.178,3.227,2.415,0,0,SEARCHING,0.000,0.800,0.130,-0.055
22:13:50.876,SEARCHING,14.559,-10.556,1.000,0.00,0.00,-49.46,2.966,3.001,4.068,2.994,2.470,0,0,SEARCHING,0.000,0.800,0.106,-0.065
22:13:51.077,SEARCHING,14.662,-10.678,1.000,0.00,0.00,-50.25,2.847,2.881,3.934,2.894,2.457,0,0,SEARCHING,0.000,0.800,0.084,-0.073
22:13:51.277,SEARCHING,14.764,-10.802,1.000,0.00,0.00,-51.12,2.653,2.734,3.785,2.829,2.438,0,0,SEARCHING,0.000,0.800,0.075,-0.083
22:13:51.478,SEARCHING,14.863,-10.927,1.000,0.00,0.00,-52.11,2.468,4.013,3.653,2.708,2.453,0,0,SEARCHING,0.000,0.800,0.046,-0.095
22:13:51.678,SEARCHING,14.960,-11.054,1.000,0.00,0.00,-53.28,2.286,7.372,3.551,5.100,2.452,0,0,SEARCHING,0.000,0.800,0.147,-0.114
22:13:51.878,SEARCHING,15.055,-11.183,1.000,0.00,0.00,-54.64,1.606,7.829,3.397,5.762,2.477,0,0,SEARCHING,0.000,0.800,0.242,-0.166
22:13:52.079,SEARCHING,15.145,-11.315,1.000,0.00,0.00,-56.79,1.876,7.843,3.211,5.840,2.451,0,0,SEARCHING,0.000,0.800,0.271,-0.188
22:13:52.279,SEARCHING,15.230,-11.451,1.000,0.00,0.00,-59.24,0.973,7.825,3.017,5.820,2.426,0,0,SEARCHING,0.000,0.800,0.283,-0.346
22:13:52.479,SEARCHING,15.308,-11.591,1.000,0.00,0.00,-63.39,3.096,7.649,2.819,5.859,2.420,0,0,SEARCHING,0.000,0.800,0.288,-0.222
22:13:52.681,SEARCHING,15.377,-11.735,1.000,0.00,0.00,-64.59,6.584,6.803,2.554,5.889,2.423,0,0,SEARCHING,0.000,0.800,0.290,0.061
22:13:52.881,SEARCHING,15.447,-11.879,1.000,0.00,0.00,-63.31,6.875,6.919,2.525,5.854,2.388,0,0,SEARCHING,0.000,0.800,0.297,0.166
22:13:53.081,SEARCHING,15.521,-12.021,1.000,0.00,0.00,-61.27,6.484,7.411,2.552,5.925,2.436,0,0,SEARCHING,0.000,0.800,0.293,0.188
22:13:53.282,SEARCHING,15.600,-12.160,1.000,0.00,0.00,-59.13,5.928,7.788,2.635,5.964,2.441,0,0,SEARCHING,0.000,0.800,0.291,0.180
22:13:53.482,SEARCHING,15.685,-12.296,1.000,0.00,0.00,-57.14,5.478,8.003,2.687,5.985,2.453,0,0,SEARCHING,0.000,0.800,0.290,0.163
22:13:53.683,SEARCHING,15.773,-12.429,1.000,0.00,0.00,-55.34,5.054,8.049,3.204,5.967,2.452,0,0,SEARCHING,0.000,0.800,0.288,0.134
22:13:53.884,SEARCHING,15.866,-12.559,1.000,0.00,0.00,-54.07,4.907,8.042,3.925,5.884,2.424,0,0,SEARCHING,0.000,0.800,0.289,0.073
22:13:54.084,SEARCHING,15.960,-12.688,1.000,0.00,0.00,-53.40,4.733,7.871,4.309,5.915,2.430,0,0,SEARCHING,0.000,0.800,0.290,0.037
22:13:54.284,SEARCHING,16.056,-12.816,1.000,0.00,0.00,-53.07,4.680,7.808,4.414,5.960,2.420,0,0,SEARCHING,0.000,0.800,0.293,0.019
22:13:54.485,SEARCHING,16.152,-12.944,1.000,0.00,0.00,-52.90,4.593,7.810,4.540,6.009,2.439,0,0,SEARCHING,0.000,0.800,0.293,0.009
22:13:54.685,SEARCHING,16.249,-13.072,1.000,0.00,0.00,-52.84,4.559,7.920,4.633,5.965,2.468,0,0,SEARCHING,0.000,0.800,0.289,0.002
22:13:54.886,SEARCHING,16.346,-13.199,1.000,0.00,0.00,-52.84,4.532,7.916,4.713,5.978,2.423,0,0,SEARCHING,0.000,0.800,0.290,-0.003
22:13:55.086,SEARCHING,16.442,-13.327,1.000,0.00,0.00,-52.90,4.492,8.016,4.761,5.915,2.405,0,0,SEARCHING,0.000,0.800,0.295,-0.008
22:13:55.287,SEARCHING,16.539,-13.454,1.000,0.00,0.00,-53.00,4.496,7.937,4.752,6.002,2.450,0,0,SEARCHING,0.000,0.800,0.293,-0.009
22:13:55.488,SEARCHING,16.635,-13.582,1.000,0.00,0.00,-53.10,4.508,7.889,4.801,6.007,2.455,0,0,SEARCHING,0.000,0.800,0.290,-0.010
22:13:55.687,SEARCHING,16.731,-13.710,1.000,0.00,0.00,-53.22,4.523,7.929,4.830,6.012,2.450,0,0,SEARCHING,0.000,0.800,0.289,-0.011
22:13:55.888,SEARCHING,16.827,-13.839,1.000,0.00,0.00,-53.34,4.559,7.917,4.808,6.020,2.437,0,0,SEARCHING,0.000,0.800,0.291,-0.010
22:13:56.088,SEARCHING,16.922,-13.967,1.000,0.00,0.00,-53.47,4.525,7.809,4.911,5.997,2.417,0,0,SEARCHING,0.000,0.800,0.293,-0.012
22:13:56.288,SEARCHING,17.017,-14.096,1.000,0.00,0.00,-53.61,4.491,7.607,4.932,6.043,2.444,0,0,SEARCHING,0.000,0.800,0.293,-0.014
22:13:56.489,SEARCHING,17.112,-14.225,1.000,0.00,0.00,-53.78,4.496,7.786,4.845,6.032,2.418,0,0,SEARCHING,0.000,0.800,0.294,-0.014
22:13:56.690,SEARCHING,17.206,-14.354,1.000,0.00,0.00,-53.94,4.488,7.799,4.820,5.961,2.414,0,0,SEARCHING,0.000,0.800,0.296,-0.013
22:13:56.890,SEARCHING,17.300,-14.483,1.000,0.00,0.00,-54.09,4.528,7.852,4.791,5.998,2.444,0,0,SEARCHING,0.000,0.800,0.292,-0.012
22:13:59.912,SEARCHING,17.394,-14.613,1.000,0.00,0.00,-54.21,4.596,7.886,4.793,6.066,2.447,0,0,SEARCHING,0.000,0.800,0.293,-0.009
22:13:59.922,SEARCHING,17.487,-14.743,1.000,0.00,0.00,-54.32,4.596,7.886,4.793,6.066,2.447,0,0,SEARCHING,0.000,0.800,0.293,-0.008
22:13:59.964,SEARCHING,17.581,-14.873,1.000,0.00,0.00,-54.40,4.618,7.808,4.756,6.053,2.459,0,0,SEARCHING,0.000,0.800,0.292,-0.007
22:14:00.134,SEARCHING,17.674,-15.003,1.000,0.00,0.00,-54.47,4.633,7.626,4.821,6.008,2.463,0,0,SEARCHING,0.000,0.800,0.289,-0.006
22:14:00.329,SEARCHING,17.767,-15.133,1.000,0.00,0.00,-54.55,4.608,7.755,4.895,6.020,2.434,0,0,SEARCHING,0.000,0.800,0.291,-0.008
22:14:00.529,SEARCHING,17.859,-15.264,1.000,0.00,0.00,-54.65,4.580,7.573,4.903,6.021,2.459,0,0,SEARCHING,0.000,0.800,0.292,-0.011
22:14:00.731,SEARCHING,17.952,-15.394,1.000,0.00,0.00,-54.78,4.476,7.626,4.961,6.010,2.448,0,0,SEARCHING,0.000,0.800,0.290,-0.014
22:14:00.931,SEARCHING,18.044,-15.525,1.000,0.00,0.00,-54.96,4.446,7.579,4.919,6.020,2.420,0,0,SEARCHING,0.000,0.800,0.292,-0.017
22:14:01.130,SEARCHING,18.135,-15.656,1.000,0.00,0.00,-55.16,4.406,7.503,4.944,6.056,2.420,0,0,SEARCHING,0.000,0.800,0.298,-0.018
22:14:01.330,SEARCHING,18.227,-15.788,1.000,0.00,0.00,-55.37,4.401,7.622,4.860,6.074,2.446,0,0,SEARCHING,0.000,0.800,0.294,-0.018
22:14:01.531,SEARCHING,18.317,-15.920,1.000,0.00,0.00,-55.58,4.374,7.558,4.893,6.012,2.431,0,0,SEARCHING,0.000,0.800,0.295,-0.019
22:14:01.731,SEARCHING,18.408,-16.052,1.000,0.00,0.00,-55.80,4.328,7.629,4.821,6.020,2.479,0,0,SEARCHING,0.000,0.800,0.289,-0.019
22:14:01.932,SEARCHING,18.497,-16.184,1.000,0.00,0.00,-56.02,4.352,7.460,4.784,6.002,2.461,0,0,SEARCHING,0.000,0.800,0.287,-0.018
22:14:02.132,SEARCHING,18.587,-16.317,1.000,0.00,0.00,-56.22,4.343,7.496,4.705,5.973,2.435,0,0,SEARCHING,0.000,0.800,0.289,-0.016
22:14:02.333,SEARCHING,18.675,-16.450,1.000,0.00,0.00,-56.39,4.320,7.351,4.625,5.969,2.433,0,0,SEARCHING,0.000,0.800,0.292,-0.014
22:14:02.534,SEARCHING,18.764,-16.583,1.000,0.00,0.00,-56.54,4.294,7.368,4.570,6.039,2.423,0,0,SEARCHING,0.000,0.800,0.293,-0.012
22:14:02.734,SEARCHING,18.852,-16.717,1.000,0.00,0.00,-56.68,4.297,7.380,4.523,6.086,2.441,0,0,SEARCHING,0.000,0.800,0.295,-0.011
22:14:02.935,SEARCHING,18.940,-16.851,1.000,0.00,0.00,-56.79,4.303,7.375,4.491,6.049,2.429,0,0,SEARCHING,0.000,0.800,0.297,-0.009
22:14:03.135,SEARCHING,19.027,-16.985,1.000,0.00,0.00,-56.88,4.240,7.454,4.415,6.021,2.438,0,0,SEARCHING,0.000,0.800,0.293,-0.008
22:14:03.335,SEARCHING,19.114,-17.119,1.000,0.00,0.00,-56.97,4.315,7.464,4.413,6.090,2.485,0,0,SEARCHING,0.000,0.800,0.292,-0.007
22:14:03.536,SEARCHING,19.202,-17.253,1.000,0.00,0.00,-57.03,4.404,7.537,4.384,5.967,2.492,0,0,SEARCHING,0.000,0.800,0.285,-0.002
22:14:03.737,SEARCHING,19.289,-17.387,1.000,0.00,0.00,-57.04,4.473,7.464,4.353,5.983,2.466,0,0,SEARCHING,0.000,0.800,0.284,0.002
22:14:03.937,SEARCHING,19.376,-17.522,1.000,0.00,0.00,-57.00,4.632,7.421,4.357,5.601,2.453,0,0,SEARCHING,0.000,0.800,0.281,0.007
22:14:04.138,SEARCHING,19.463,-17.656,1.000,0.00,0.00,-56.90,4.724,7.422,4.322,5.471,2.446,0,0,SEARCHING,0.000,0.800,0.276,0.012
22:14:04.338,SEARCHING,19.550,-17.790,1.000,0.00,0.00,-56.73,5.053,7.784,4.253,5.466,2.445,0,0,SEARCHING,0.000,0.800,0.272,0.021
22:14:04.539,SEARCHING,19.638,-17.923,1.000,0.00,0.00,-56.45,5.316,8.067,4.257,5.223,2.440,0,0,SEARCHING,0.000,0.800,0.268,0.031
22:14:04.739,SEARCHING,19.727,-18.056,1.000,0.00,0.00,-56.07,5.517,8.239,4.307,5.202,2.445,0,0,SEARCHING,0.000,0.800,0.264,0.037
22:14:04.940,SEARCHING,19.817,-18.189,1.000,0.00,0.00,-55.62,5.638,8.296,4.317,5.041,2.425,0,0,SEARCHING,0.000,0.800,0.258,0.040
22:14:05.141,SEARCHING,19.908,-18.320,1.000,0.00,0.00,-55.15,5.740,8.223,4.319,4.890,2.430,0,0,SEARCHING,0.000,0.800,0.254,0.044
22:14:05.341,SEARCHING,20.000,-18.451,1.000,0.00,0.00,-54.63,5.652,8.313,4.284,4.781,2.470,0,0,SEARCHING,0.000,0.800,0.244,0.046
22:14:05.541,SEARCHING,20.093,-18.581,1.000,0.00,0.00,-54.11,5.549,8.324,4.210,4.640,2.472,0,0,SEARCHING,0.000,0.800,0.233,0.046
22:14:05.741,SEARCHING,20.187,-18.711,1.000,0.00,0.00,-53.58,5.470,8.161,4.179,4.477,2.454,0,0,SEARCHING,0.000,0.800,0.226,0.046
22:14:05.942,SEARCHING,20.283,-18.839,1.000,0.00,0.00,-53.06,5.354,8.101,4.150,4.287,2.451,0,0,SEARCHING,0.000,0.800,0.218,0.045
22:14:06.142,SEARCHING,20.380,-18.967,1.000,0.00,0.00,-52.55,5.246,8.000,4.151,4.054,2.433,0,0,SEARCHING,0.000,0.800,0.207,0.042
22:14:06.342,SEARCHING,20.477,-19.093,1.000,0.00,0.00,-52.08,5.206,8.029,4.154,3.920,2.460,0,0,SEARCHING,0.000,0.800,0.192,0.040
22:14:06.543,SEARCHING,20.576,-19.219,1.000,0.00,0.00,-51.64,5.105,8.053,4.111,3.759,2.440,0,0,SEARCHING,0.000,0.800,0.180,0.038
22:14:06.744,SEARCHING,20.676,-19.344,1.000,0.00,0.00,-51.21,5.057,7.909,4.082,3.681,2.439,0,0,SEARCHING,0.000,0.800,0.171,0.037
22:14:06.944,SEARCHING,20.776,-19.469,1.000,0.00,0.00,-50.78,4.960,7.879,4.097,3.591,2.433,0,0,SEARCHING,0.000,0.800,0.164,0.036
22:14:07.145,SEARCHING,20.878,-19.592,1.000,0.00,0.00,-50.37,4.919,7.729,4.129,3.545,2.424,0,0,SEARCHING,0.000,0.800,0.157,0.034
22:14:07.346,SEARCHING,20.980,-19.715,1.000,0.00,0.00,-50.00,4.874,7.758,4.209,3.627,2.467,0,0,SEARCHING,0.000,0.800,0.156,0.030
22:14:07.546,SEARCHING,21.084,-19.837,1.000,0.00,0.00,-49.68,4.792,7.686,4.300,3.943,2.439,0,0,SEARCHING,0.000,0.800,0.170,0.024
22:14:07.746,SEARCHING,21.187,-19.959,1.000,0.00,0.00,-49.43,4.770,7.641,4.511,5.688,2.434,0,0,SEARCHING,0.000,0.800,0.237,0.016
22:14:07.946,SEARCHING,21.292,-20.081,1.000,0.00,0.00,-49.30,4.740,7.437,4.864,6.016,2.421,0,0,SEARCHING,0.000,0.800,0.279,0.004
22:14:08.147,SEARCHING,21.396,-20.202,1.000,0.00,0.00,-49.31,4.630,7.388,5.114,6.021,2.427,0,0,SEARCHING,0.000,0.800,0.292,-0.008
22:14:08.348,SEARCHING,21.500,-20.323,1.000,0.00,0.00,-49.45,4.543,7.334,5.264,5.983,2.434,0,0,SEARCHING,0.000,0.800,0.294,-0.018
22:14:08.547,SEARCHING,21.604,-20.445,1.000,0.00,0.00,-49.69,4.443,7.230,5.321,5.971,2.435,0,0,SEARCHING,0.000,0.800,0.293,-0.026
22:14:08.748,SEARCHING,21.707,-20.567,1.000,0.00,0.00,-50.00,4.363,7.160,5.261,6.016,2.433,0,0,SEARCHING,0.000,0.800,0.294,-0.029
22:14:08.949,SEARCHING,21.810,-20.690,1.000,0.00,0.00,-50.35,4.323,7.041,5.208,6.021,2.448,0,0,SEARCHING,0.000,0.800,0.292,-0.031
22:14:09.149,SEARCHING,21.911,-20.814,1.000,0.00,0.00,-50.70,4.269,6.946,5.105,6.014,2.452,0,0,SEARCHING,0.000,0.800,0.291,-0.031
22:14:09.350,SEARCHING,22.012,-20.938,1.000,0.00,0.00,-51.05,4.312,6.893,5.087,6.021,2.464,0,0,SEARCHING,0.000,0.800,0.289,-0.029
22:14:09.550,SEARCHING,22.113,-21.062,1.000,0.00,0.00,-51.38,4.268,6.749,5.016,6.021,2.427,0,0,SEARCHING,0.000,0.800,0.292,-0.028
22:14:09.751,SEARCHING,22.212,-21.188,1.000,0.00,0.00,-51.71,4.231,6.600,4.969,6.064,2.433,0,0,SEARCHING,0.000,0.800,0.294,-0.029
22:14:09.951,SEARCHING,22.311,-21.314,1.000,0.00,0.00,-52.03,4.220,6.545,4.937,6.038,2.459,0,0,SEARCHING,0.000,0.800,0.293,-0.028
22:14:10.152,SEARCHING,22.409,-21.440,1.000,0.00,0.00,-52.35,4.230,6.378,4.895,6.098,2.452,0,0,SEARCHING,0.000,0.800,0.293,-0.027
22:14:10.352,SEARCHING,22.507,-21.567,1.000,0.00,0.00,-52.65,4.236,6.207,4.872,6.000,2.386,0,0,SEARCHING,0.000,0.800,0.298,-0.025
22:14:10.552,SEARCHING,22.603,-21.694,1.000,0.00,0.00,-52.94,4.198,6.063,4.787,6.019,2.443,0,0,SEARCHING,0.000,0.800,0.296,-0.024
22:14:10.753,SEARCHING,22.700,-21.822,1.000,0.00,0.00,-53.21,4.165,5.909,4.769,5.904,2.459,0,0,SEARCHING,0.000,0.800,0.290,-0.024
22:14:10.953,SEARCHING,22.795,-21.950,1.000,0.00,0.00,-53.49,4.255,5.750,4.707,5.775,2.474,0,0,SEARCHING,0.000,0.800,0.284,-0.022
22:14:11.153,SEARCHING,22.890,-22.079,1.000,0.00,0.00,-53.72,4.365,5.608,4.674,5.611,2.446,0,0,SEARCHING,0.000,0.800,0.279,-0.016
22:14:11.354,SEARCHING,22.985,-22.208,1.000,0.00,0.00,-53.88,4.459,5.409,4.608,5.474,2.434,0,0,SEARCHING,0.000,0.800,0.275,-0.010
22:14:11.554,SEARCHING,23.079,-22.338,1.000,0.00,0.00,-53.97,4.556,5.249,4.590,5.264,2.440,0,0,SEARCHING,0.000,0.800,0.269,-0.005
22:14:11.755,SEARCHING,23.173,-22.467,1.000,0.00,0.00,-54.01,4.616,5.081,4.589,5.050,2.449,0,0,SEARCHING,0.000,0.800,0.259,-0.002
22:14:11.955,SEARCHING,23.267,-22.597,1.000,0.00,0.00,-54.02,4.626,4.955,4.622,4.941,2.461,0,0,SEARCHING,0.000,0.800,0.250,-0.000
22:14:12.156,SEARCHING,23.361,-22.726,1.000,0.00,0.00,-54.02,4.618,4.794,4.623,4.793,2.432,0,0,SEARCHING,0.000,0.800,0.246,0.001
22:14:12.356,SEARCHING,23.455,-22.856,1.000,0.00,0.00,-54.01,4.602,4.684,4.563,4.656,2.419,0,0,SEARCHING,0.000,0.800,0.241,0.001
22:14:12.558,SEARCHING,23.549,-22.985,1.000,0.00,0.00,-54.00,4.511,4.530,4.500,4.527,2.442,0,0,SEARCHING,0.000,0.800,0.233,0.001
22:14:12.758,SEARCHING,23.643,-23.114,1.000,0.00,0.00,-54.00,4.371,4.401,4.432,4.395,2.443,0,0,SEARCHING,0.000,0.800,0.224,-0.001
22:14:12.958,SEARCHING,23.737,-23.244,1.000,0.00,0.00,-54.02,4.224,4.275,4.311,4.251,2.461,0,0,SEARCHING,0.000,0.800,0.213,-0.003
22:14:13.158,SEARCHING,23.831,-23.373,1.000,0.00,0.00,-54.06,4.069,4.125,4.165,4.122,2.453,0,0,SEARCHING,0.000,0.800,0.204,-0.004
22:14:13.359,SEARCHING,23.925,-23.503,1.000,0.00,0.00,-54.10,3.896,3.948,4.006,3.940,2.439,0,0,SEARCHING,0.000,0.800,0.194,-0.005
22:14:13.559,SEARCHING,24.018,-23.633,1.000,0.00,0.00,-54.16,3.714,3.792,3.832,3.791,2.430,0,0,SEARCHING,0.000,0.800,0.184,-0.006
22:14:13.759,SEARCHING,24.112,-23.762,1.000,0.00,0.00,-54.24,3.566,3.647,3.680,3.625,2.450,0,0,SEARCHING,0.000,0.800,0.169,-0.007
22:14:13.960,SEARCHING,24.206,-23.892,1.000,0.00,0.00,-54.31,3.455,3.511,3.536,3.508,2.424,0,0,SEARCHING,0.000,0.800,0.157,-0.006
22:14:14.160,SEARCHING,24.299,-24.022,1.000,0.00,0.00,-54.38,3.324,3.356,3.395,3.359,2.440,0,0,SEARCHING,0.000,0.800,0.146,-0.006
22:14:14.361,SEARCHING,24.392,-24.152,1.000,0.00,0.00,-54.45,3.156,3.208,3.266,3.205,2.425,0,0,SEARCHING,0.000,0.800,0.130,-0.007
22:14:14.561,SEARCHING,24.485,-24.283,1.000,0.00,0.00,-54.54,2.974,3.044,3.081,3.030,2.442,0,0,SEARCHING,0.000,0.800,0.111,-0.008
22:14:14.761,SEARCHING,24.578,-24.413,1.000,0.00,0.00,-54.64,2.831,2.884,2.920,2.868,2.478,0,0,SEARCHING,0.000,0.800,0.084,-0.009
22:14:14.962,SEARCHING,24.670,-24.544,1.000,0.00,0.00,-54.74,2.694,2.738,2.780,2.734,2.474,0,0,SEARCHING,0.000,0.800,0.047,-0.009
22:14:15.162,SEARCHING,24.762,-24.674,1.000,0.00,0.00,-54.85,2.531,2.579,2.634,2.579,2.460,0,0,SEARCHING,0.000,0.800,0.011,-0.011
22:14:15.363,SEARCHING,24.854,-24.805,1.000,0.00,0.00,-54.98,2.386,2.419,2.471,2.419,2.383,0,0,SEARCHING,0.000,0.800,0.003,-0.012
22:14:15.563,SEARCHING,24.946,-24.936,1.000,0.00,0.00,-55.11,2.263,2.298,2.345,2.298,2.292,0,0,SEARCHING,0.000,0.800,0.001,-0.012
22:14:15.763,SEARCHING,25.037,-25.068,1.000,0.00,0.00,-55.25,2.077,2.109,2.161,2.105,2.110,0,0,SEARCHING,0.000,0.800,0.000,-0.014
22:14:15.964,SEARCHING,25.128,-25.199,1.000,0.00,0.00,-55.42,1.924,1.965,2.002,1.964,1.961,0,0,SEARCHING,0.000,0.790,0.000,-0.015
22:14:16.165,SEARCHING,25.215,-25.326,1.000,0.00,0.00,-55.60,1.767,1.806,1.836,1.805,1.802,0,0,SEARCHING,0.000,0.712,0.000,-0.017
22:14:16.365,SEARCHING,25.292,-25.438,1.000,0.00,0.00,-55.80,1.629,1.666,1.700,1.666,1.663,0,0,SEARCHING,0.000,0.616,0.000,-0.019
22:14:16.566,SEARCHING,25.357,-25.534,1.000,0.00,0.00,-56.02,1.506,1.543,1.579,1.541,1.540,0,0,SEARCHING,0.000,0.528,0.000,-0.021
22:14:16.766,SEARCHING,25.413,-25.617,1.000,0.00,0.00,-56.29,1.401,1.440,1.475,1.437,1.437,0,0,SEARCHING,0.000,0.455,0.000,-0.026
22:14:16.967,SEARCHING,25.461,-25.690,1.000,0.00,0.00,-56.60,1.308,1.344,1.382,1.344,1.344,0,0,SEARCHING,0.000,0.396,0.000,-0.030
22:14:17.166,SEARCHING,25.502,-25.753,1.000,0.00,0.00,-56.96,1.228,1.267,1.304,1.266,1.265,0,0,SEARCHING,0.000,0.347,0.000,-0.034
22:14:17.367,SEARCHING,25.538,-25.808,1.000,0.00,0.00,-57.37,1.158,1.195,1.234,1.194,1.196,0,0,SEARCHING,0.000,0.307,0.000,-0.040
22:14:17.568,SEARCHING,25.570,-25.858,1.000,0.00,0.00,-57.85,1.095,1.132,1.174,1.132,1.133,0,0,SEARCHING,0.000,0.274,0.000,-0.045
22:14:17.768,SEARCHING,25.598,-25.903,1.000,0.00,0.00,-58.38,1.039,1.079,1.118,1.079,1.079,0,0,SEARCHING,0.000,0.256,0.000,-0.051
22:14:17.968,SEARCHING,25.624,-25.947,1.000,0.00,0.00,-58.99,0.986,1.027,1.070,1.025,1.027,0,0,SEARCHING,0.000,0.251,0.000,-0.058
22:14:18.169,SEARCHING,25.650,-25.990,1.000,0.00,0.00,-59.69,0.936,0.977,1.022,0.977,0.976,0,0,SEARCHING,0.000,0.250,0.000,-0.066
22:14:18.369,SEARCHING,25.675,-26.033,1.000,0.00,0.00,-60.49,0.884,0.927,0.973,0.928,0.927,0,0,SEARCHING,0.000,0.250,0.000,-0.076
22:14:18.571,SEARCHING,25.699,-26.077,1.000,0.00,0.00,-61.40,0.834,0.879,0.927,0.880,0.879,0,0,SEARCHING,0.000,0.250,0.000,-0.088
22:14:18.770,SEARCHING,25.723,-26.121,1.000,0.00,0.00,-62.47,0.784,0.830,0.882,0.831,0.830,0,0,SEARCHING,0.000,0.250,0.000,-0.102
22:14:19.009,INSPECTING,25.746,-26.165,1.000,0.00,0.00,-63.71,0.734,0.782,0.837,0.782,0.782,0,0,SEARCHING,0.000,0.175,0.000,-0.120
22:14:19.171,INSPECTING,25.762,-26.201,1.000,0.00,0.00,-66.60,0.688,0.740,0.800,0.740,0.739,0,0,INSPECT_RIGHT,0.000,0.166,0.000,-0.409
22:14:19.372,INSPECTING,25.774,-26.231,1.000,0.00,0.00,-71.67,0.647,0.712,0.792,0.713,0.712,0,0,INSPECT_RIGHT,0.000,0.160,0.000,-0.478
22:14:19.572,INSPECTING,25.783,-26.262,1.000,0.00,0.00,-77.24,0.614,0.693,0.797,0.694,0.694,0,0,INSPECT_RIGHT,0.000,0.159,0.000,-0.495
22:14:19.773,INSPECTING,25.788,-26.293,1.000,0.00,0.00,-82.94,0.588,0.685,0.821,0.685,0.686,0,0,INSPECT_RIGHT,0.000,0.162,0.000,-0.499
22:14:19.973,INSPECTING,25.791,-26.326,1.000,0.00,0.00,-88.66,0.570,0.686,0.862,0.686,0.687,0,0,INSPECT_RIGHT,0.000,0.167,0.000,-0.500
22:14:20.174,INSPECTING,25.790,-26.360,1.000,0.00,0.00,-94.38,0.559,0.692,0.923,0.696,0.693,0,0,INSPECT_RIGHT,0.000,0.177,0.000,-0.500
22:14:20.374,INSPECTING,25.786,-26.396,1.000,0.00,0.00,-100.11,0.557,0.717,1.014,0.718,0.717,0,0,INSPECT_RIGHT,0.000,0.191,0.000,-0.500
22:14:20.576,INSPECTING,25.777,-26.434,1.000,0.00,0.00,-105.84,0.556,0.752,1.156,0.754,0.754,0,0,INSPECT_RIGHT,0.000,0.213,0.000,-0.500
22:14:20.775,INSPECTING,25.763,-26.477,1.000,0.00,0.00,-111.57,0.569,0.803,1.367,0.801,0.803,0,0,INSPECT_RIGHT,0.000,0.246,0.000,-0.500
22:14:20.976,INSPECTING,25.741,-26.524,1.000,0.00,0.00,-117.30,0.588,0.876,1.656,0.878,0.878,0,0,INSPECT_RIGHT,0.000,0.295,0.000,-0.500
22:14:21.176,INSPECTING,25.711,-26.578,1.000,0.00,0.00,-123.03,0.619,0.996,1.694,0.992,0.992,0,0,INSPECT_RIGHT,0.000,0.328,0.000,-0.500
22:14:21.377,INSPECTING,25.672,-26.632,1.000,0.00,0.00,-128.76,0.668,1.157,1.655,1.154,1.161,0,0,INSPECT_RIGHT,0.000,0.332,0.000,-0.500
22:14:21.577,SEARCHING,25.628,-26.682,1.000,0.00,0.00,-134.49,0.743,1.462,1.629,1.468,1.468,0,0,INSPECT_RIGHT,0.000,0.329,0.000,-0.500
22:14:21.777,SEARCHING,25.577,-26.729,1.000,0.00,0.00,-140.44,0.865,1.638,1.611,1.641,1.641,0,0,SEARCHING,0.000,0.397,0.000,-0.489
22:14:21.978,SEARCHING,25.511,-26.779,1.000,0.00,0.00,-145.57,1.055,1.595,1.592,1.590,1.601,0,0,SEARCHING,0.000,0.432,0.000,-0.358
22:14:22.178,SEARCHING,25.437,-26.826,1.000,0.00,0.00,-149.05,1.299,1.519,1.547,1.516,1.521,0,0,SEARCHING,0.000,0.437,0.000,-0.205
22:14:22.380,SEARCHING,25.363,-26.870,1.000,0.00,0.00,-150.87,1.347,1.430,1.477,1.428,1.430,0,0,SEARCHING,0.000,0.419,0.000,-0.097
22:14:22.579,SEARCHING,25.291,-26.909,1.000,0.00,0.00,-151.79,1.280,1.345,1.408,1.342,1.343,0,0,SEARCHING,0.000,0.383,0.000,-0.065
22:14:22.780,SEARCHING,25.226,-26.943,1.000,0.00,0.00,-152.50,1.205,1.270,1.331,1.267,1.267,0,0,SEARCHING,0.000,0.343,0.000,-0.061
22:14:22.981,SEARCHING,25.167,-26.973,1.000,0.00,0.00,-153.23,1.137,1.198,1.269,1.196,1.195,0,0,SEARCHING,0.000,0.305,0.000,-0.067
22:14:23.181,SEARCHING,25.115,-26.999,1.000,0.00,0.00,-154.03,1.078,1.136,1.207,1.137,1.135,0,0,SEARCHING,0.000,0.273,0.000,-0.074
22:14:23.382,SEARCHING,25.067,-27.022,1.000,0.00,0.00,-154.92,1.024,1.084,1.159,1.082,1.083,0,0,SEARCHING,0.000,0.256,0.000,-0.085
22:14:23.582,SEARCHING,25.021,-27.043,1.000,0.00,0.00,-155.93,0.973,1.034,1.111,1.034,1.032,0,0,SEARCHING,0.000,0.251,0.000,-0.095
22:14:23.782,SEARCHING,24.975,-27.064,1.000,0.00,0.00,-157.06,0.924,0.985,1.068,0.985,0.985,0,0,SEARCHING,0.000,0.250,0.000,-0.107
22:14:23.982,SEARCHING,24.928,-27.083,1.000,0.00,0.00,-158.34,0.877,0.940,1.024,0.940,0.940,0,0,SEARCHING,0.000,0.250,0.000,-0.121
22:14:24.182,SEARCHING,24.882,-27.100,1.000,0.00,0.00,-159.79,0.830,0.894,0.983,0.894,0.894,0,0,SEARCHING,0.000,0.250,0.000,-0.138
22:14:24.383,SEARCHING,24.835,-27.117,1.000,0.00,0.00,-161.46,0.779,0.850,0.946,0.851,0.850,0,0,SEARCHING,0.000,0.250,0.000,-0.161
22:14:24.584,SEARCHING,24.787,-27.132,1.000,0.00,0.00,-163.43,0.728,0.805,0.907,0.807,0.807,0,0,SEARCHING,0.000,0.250,0.000,-0.194
22:14:24.784,INSPECTING,24.742,-27.145,1.000,0.00,0.00,-165.94,0.683,0.766,0.874,0.766,0.766,0,0,INSPECT_RIGHT,0.000,0.176,0.000,-0.359
22:14:24.985,INSPECTING,24.707,-27.152,1.000,0.00,0.00,-170.65,0.649,0.743,0.869,0.743,0.743,0,0,INSPECT_RIGHT,0.000,0.174,0.000,-0.466
22:14:25.185,INSPECTING,24.673,-27.157,1.000,0.00,0.00,-176.13,0.623,0.733,0.891,0.734,0.734,0,0,INSPECT_RIGHT,0.000,0.176,0.000,-0.492
22:14:25.385,INSPECTING,24.637,-27.157,1.000,-0.00,0.00,178.20,0.605,0.734,0.938,0.735,0.735,0,0,INSPECT_RIGHT,0.000,0.182,0.000,-0.498
22:14:25.586,INSPECTING,24.600,-27.154,1.000,-0.00,0.00,172.48,0.595,0.748,1.007,0.748,0.749,0,0,INSPECT_RIGHT,0.000,0.193,0.000,-0.500
22:14:25.787,INSPECTING,24.562,-27.148,1.000,-0.00,0.00,166.76,0.593,0.768,1.100,0.768,0.769,0,0,INSPECT_RIGHT,0.000,0.207,0.000,-0.500
22:14:25.987,INSPECTING,24.520,-27.136,1.000,-0.00,0.00,161.03,0.600,0.816,1.275,0.814,0.815,0,0,INSPECT_RIGHT,0.000,0.234,0.000,-0.500
22:14:26.188,INSPECTING,24.474,-27.118,1.000,-0.00,0.00,155.30,0.611,0.877,1.597,0.879,0.875,0,0,INSPECT_RIGHT,0.000,0.277,0.000,-0.500
22:14:26.388,INSPECTING,24.420,-27.089,1.000,-0.00,0.00,149.57,0.634,0.965,2.130,0.959,0.957,0,0,INSPECT_RIGHT,0.000,0.356,0.000,-0.500
22:14:26.588,INSPECTING,24.358,-27.049,1.000,-0.00,0.00,143.84,0.669,1.085,2.275,1.094,1.096,0,0,INSPECT_RIGHT,0.000,0.389,0.000,-0.500
22:14:26.789,INSPECTING,24.296,-27.000,1.000,-0.00,0.00,138.11,0.724,1.260,2.845,1.285,1.284,0,0,INSPECT_RIGHT,0.000,0.397,0.000,-0.500
22:14:26.989,SEARCHING,24.239,-26.943,1.000,-0.00,0.00,131.98,0.815,1.838,5.973,1.833,1.849,0,0,SEARCHING,0.000,0.443,0.000,-0.665
22:14:27.189,SEARCHING,24.178,-26.866,1.000,-0.00,0.00,123.75,1.014,2.191,7.219,2.040,2.037,0,0,SEARCHING,0.000,0.610,0.000,-0.729
22:14:27.391,SEARCHING,24.111,-26.749,1.000,-0.00,0.00,116.08,1.563,2.815,6.026,2.791,2.356,0,0,SEARCHING,0.000,0.751,0.044,-0.529
22:14:27.591,SEARCHING,24.050,-26.608,1.000,-0.00,0.00,110.72,1.629,6.861,5.512,3.712,2.418,0,0,SEARCHING,0.000,0.788,0.128,-0.395
22:14:27.791,SEARCHING,23.999,-26.458,1.000,-0.00,0.00,106.66,2.234,7.413,5.254,3.727,2.466,0,0,SEARCHING,0.000,0.797,0.159,-0.277
22:14:27.992,SEARCHING,23.957,-26.304,1.000,-0.00,0.00,103.81,5.002,6.661,4.959,3.650,2.458,0,0,SEARCHING,0.000,0.799,0.161,-0.157
22:14:28.192,SEARCHING,23.920,-26.149,1.000,-0.00,0.00,102.79,7.655,6.247,4.812,3.540,2.462,0,0,SEARCHING,0.000,0.800,0.155,-0.002
22:14:28.392,SEARCHING,23.885,-25.993,1.000,-0.00,0.00,103.05,7.849,6.107,4.743,3.495,2.461,0,0,SEARCHING,0.000,0.800,0.147,0.049
22:14:28.593,SEARCHING,23.848,-25.837,1.000,-0.00,0.00,103.69,7.768,5.962,4.650,3.712,2.442,0,0,SEARCHING,0.000,0.800,0.154,0.064
22:14:28.794,SEARCHING,23.809,-25.682,1.000,-0.00,0.00,104.44,7.802,5.944,4.667,5.374,2.455,0,0,SEARCHING,0.000,0.800,0.218,0.068
22:14:28.994,SEARCHING,23.768,-25.527,1.000,-0.00,0.00,105.23,7.926,6.095,4.592,5.796,2.409,0,0,SEARCHING,0.000,0.800,0.265,0.071
22:14:29.195,SEARCHING,23.725,-25.373,1.000,-0.00,0.00,106.05,7.894,6.246,4.510,5.924,2.421,0,0,SEARCHING,0.000,0.800,0.284,0.074
22:14:29.396,SEARCHING,23.680,-25.219,1.000,-0.00,0.00,106.90,7.641,6.454,4.408,6.022,2.473,0,0,SEARCHING,0.000,0.800,0.287,0.075
22:14:29.597,SEARCHING,23.632,-25.067,1.000,-0.00,0.00,107.77,7.412,6.473,4.288,6.022,2.478,0,0,SEARCHING,0.000,0.800,0.285,0.077
22:14:29.796,SEARCHING,23.583,-24.915,1.000,-0.00,0.00,108.67,7.116,6.794,4.030,6.022,2.467,0,0,SEARCHING,0.000,0.800,0.286,0.082
22:14:29.997,SEARCHING,23.530,-24.763,1.000,-0.00,0.00,109.62,6.905,6.939,3.920,6.022,2.459,0,0,SEARCHING,0.000,0.800,0.288,0.086
22:14:30.197,SEARCHING,23.475,-24.613,1.000,-0.00,0.00,110.62,6.663,7.109,3.879,6.022,2.460,0,0,SEARCHING,0.000,0.800,0.288,0.087
22:14:30.398,SEARCHING,23.418,-24.464,1.000,-0.00,0.00,111.61,6.327,7.369,3.880,6.022,2.454,0,0,SEARCHING,0.000,0.800,0.289,0.084
22:14:30.598,SEARCHING,23.358,-24.316,1.000,-0.00,0.00,112.54,6.101,7.539,3.919,5.937,2.444,0,0,SEARCHING,0.000,0.800,0.290,0.077
22:14:30.799,SEARCHING,23.295,-24.168,1.000,-0.00,0.00,113.40,5.798,7.738,3.907,6.000,2.457,0,0,SEARCHING,0.000,0.800,0.289,0.071
22:14:30.999,SEARCHING,23.231,-24.022,1.000,-0.00,0.00,114.19,5.549,7.782,3.843,5.989,2.464,0,0,SEARCHING,0.000,0.800,0.288,0.066
22:14:31.199,SEARCHING,23.164,-23.876,1.000,-0.00,0.00,114.94,5.377,7.746,3.813,5.995,2.447,0,0,SEARCHING,0.000,0.800,0.289,0.064
22:14:31.399,SEARCHING,23.096,-23.732,1.000,-0.00,0.00,115.64,5.236,7.909,3.877,5.999,2.448,0,0,SEARCHING,0.000,0.800,0.290,0.058
22:14:31.601,SEARCHING,23.026,-23.588,1.000,-0.00,0.00,116.28,5.206,8.128,3.960,6.018,2.416,0,0,SEARCHING,0.000,0.800,0.294,0.052
22:14:31.801,SEARCHING,22.955,-23.445,1.000,-0.00,0.00,116.84,5.031,7.923,4.054,5.950,2.450,0,0,SEARCHING,0.000,0.800,0.292,0.044
22:14:32.003,SEARCHING,22.882,-23.302,1.000,-0.00,0.00,117.32,5.039,7.995,4.127,6.005,2.473,0,0,SEARCHING,0.000,0.800,0.288,0.039
22:14:35.102,SEARCHING,22.808,-23.160,1.000,-0.00,0.00,117.74,4.970,7.889,4.205,5.972,2.462,0,0,SEARCHING,0.000,0.800,0.286,0.033
22:14:35.112,SEARCHING,22.733,-23.019,1.000,-0.00,0.00,118.11,4.970,7.889,4.205,5.972,2.462,0,0,SEARCHING,0.000,0.800,0.287,0.030
22:14:35.157,SEARCHING,22.657,-22.878,1.000,-0.00,0.00,118.45,4.939,7.890,4.290,5.941,2.461,0,0,SEARCHING,0.000,0.800,0.286,0.028
22:14:35.326,SEARCHING,22.581,-22.737,1.000,-0.00,0.00,118.74,4.866,8.034,4.509,5.892,2.449,0,0,SEARCHING,0.000,0.800,0.286,0.019
22:14:35.523,SEARCHING,22.504,-22.597,1.000,-0.00,0.00,118.92,4.812,8.108,4.616,5.893,2.432,0,0,SEARCHING,0.000,0.800,0.288,0.012
22:14:35.723,SEARCHING,22.426,-22.457,1.000,-0.00,0.00,119.04,4.830,8.103,4.659,5.870,2.440,0,0,SEARCHING,0.000,0.800,0.288,0.008
22:14:35.923,SEARCHING,22.348,-22.317,1.000,-0.00,0.00,119.11,4.774,8.035,4.685,5.962,2.451,0,0,SEARCHING,0.000,0.800,0.287,0.004
22:14:36.124,SEARCHING,22.271,-22.178,1.000,-0.00,0.00,119.16,4.804,8.037,4.651,5.911,2.436,0,0,SEARCHING,0.000,0.800,0.289,0.005
22:14:36.325,SEARCHING,22.193,-22.038,1.000,-0.00,0.00,119.22,4.764,8.093,4.609,5.872,2.436,0,0,SEARCHING,0.000,0.800,0.288,0.005
22:14:36.525,SEARCHING,22.114,-21.898,1.000,-0.00,0.00,119.28,4.757,8.019,4.515,5.868,2.456,0,0,SEARCHING,0.000,0.800,0.286,0.007
22:14:36.726,SEARCHING,22.036,-21.759,1.000,-0.00,0.00,119.38,4.737,8.170,4.477,5.867,2.452,0,0,SEARCHING,0.000,0.800,0.285,0.010
22:14:36.926,SEARCHING,21.957,-21.619,1.000,-0.00,0.00,119.49,4.763,8.111,4.479,5.838,2.426,0,0,SEARCHING,0.000,0.800,0.287,0.010
22:14:37.126,SEARCHING,21.878,-21.480,1.000,-0.00,0.00,119.61,4.732,8.084,4.532,5.798,2.440,0,0,SEARCHING,0.000,0.800,0.287,0.009
22:14:37.327,SEARCHING,21.799,-21.341,1.000,-0.00,0.00,119.70,4.684,8.068,4.553,5.852,2.444,0,0,SEARCHING,0.000,0.800,0.286,0.007
22:14:37.527,SEARCHING,21.720,-21.202,1.000,-0.00,0.00,119.77,4.671,8.059,4.547,5.840,2.396,0,0,SEARCHING,0.000,0.800,0.288,0.005
22:14:37.727,SEARCHING,21.640,-21.063,1.000,-0.00,0.00,119.83,4.670,7.960,4.507,5.826,2.416,0,0,SEARCHING,0.000,0.800,0.291,0.005
22:14:37.928,SEARCHING,21.561,-20.925,1.000,-0.00,0.00,119.90,4.670,8.106,4.532,5.723,2.383,0,0,SEARCHING,0.000,0.800,0.290,0.005
22:14:38.128,SEARCHING,21.481,-20.786,1.000,-0.00,0.00,119.96,4.679,8.042,4.466,5.714,2.432,0,0,SEARCHING,0.000,0.800,0.287,0.006
22:14:38.329,SEARCHING,21.401,-20.647,1.000,-0.00,0.00,120.04,4.671,7.815,4.416,5.690,2.458,0,0,SEARCHING,0.000,0.800,0.282,0.008
22:14:38.529,SEARCHING,21.321,-20.509,1.000,-0.00,0.00,120.13,4.606,7.972,4.413,5.688,2.447,0,0,SEARCHING,0.000,0.800,0.279,0.008
22:14:38.729,SEARCHING,21.240,-20.371,1.000,-0.00,0.00,120.22,4.636,7.815,4.483,5.717,2.427,0,0,SEARCHING,0.000,0.800,0.282,0.007
22:14:38.930,SEARCHING,21.160,-20.232,1.000,-0.00,0.00,120.29,4.602,7.719,4.532,5.699,2.443,0,0,SEARCHING,0.000,0.800,0.282,0.005
22:14:39.131,SEARCHING,21.079,-20.094,1.000,-0.00,0.00,120.33,4.539,7.697,4.565,5.607,2.425,0,0,SEARCHING,0.000,0.800,0.282,0.002
22:14:39.331,SEARCHING,20.998,-19.956,1.000,-0.00,0.00,120.34,4.572,7.384,4.580,5.578,2.437,0,0,SEARCHING,0.000,0.800,0.280,-0.000
22:14:39.531,SEARCHING,20.917,-19.818,1.000,-0.00,0.00,120.34,4.567,7.419,4.605,5.622,2.430,0,0,SEARCHING,0.000,0.800,0.279,-0.001
22:14:39.731,SEARCHING,20.837,-19.680,1.000,-0.00,0.00,120.32,4.535,7.276,4.641,5.740,2.426,0,0,SEARCHING,0.000,0.800,0.283,-0.002
22:14:39.932,SEARCHING,20.756,-19.542,1.000,-0.00,0.00,120.29,4.525,6.985,4.666,5.702,2.411,0,0,SEARCHING,0.000,0.800,0.288,-0.004
22:14:40.132,SEARCHING,20.675,-19.404,1.000,-0.00,0.00,120.24,4.546,7.021,4.615,5.612,2.431,0,0,SEARCHING,0.000,0.800,0.284,-0.003
22:14:40.333,SEARCHING,20.595,-19.265,1.000,-0.00,0.00,120.20,4.519,6.944,4.638,5.557,2.448,0,0,SEARCHING,0.000,0.800,0.278,-0.004
22:14:40.533,SEARCHING,20.514,-19.127,1.000,-0.00,0.00,120.15,4.490,6.780,4.638,5.423,2.446,0,0,SEARCHING,0.000,0.800,0.272,-0.005
22:14:40.733,SEARCHING,20.434,-18.989,1.000,-0.00,0.00,120.09,4.511,6.736,4.673,5.342,2.446,0,0,SEARCHING,0.000,0.800,0.269,-0.006
22:14:40.935,SEARCHING,20.354,-18.850,1.000,-0.00,0.00,120.02,4.499,6.585,4.685,5.287,2.442,0,0,SEARCHING,0.000,0.800,0.266,-0.007
22:14:41.135,SEARCHING,20.274,-18.712,1.000,-0.00,0.00,119.94,4.462,6.363,4.679,5.228,2.422,0,0,SEARCHING,0.000,0.800,0.270,-0.008
22:14:41.335,SEARCHING,20.194,-18.573,1.000,-0.00,0.00,119.84,4.375,6.205,4.727,5.186,2.441,0,0,SEARCHING,0.000,0.800,0.263,-0.011
22:14:41.536,SEARCHING,20.115,-18.434,1.000,-0.00,0.00,119.70,4.248,6.017,4.698,5.126,2.432,0,0,SEARCHING,0.000,0.800,0.261,-0.015
22:14:41.737,SEARCHING,20.035,-18.295,1.000,-0.00,0.00,119.52,4.148,5.769,4.731,5.186,2.411,0,0,SEARCHING,0.000,0.800,0.264,-0.019
22:14:41.937,SEARCHING,19.957,-18.156,1.000,-0.00,0.00,119.28,4.082,5.804,4.677,5.178,2.431,0,0,SEARCHING,0.000,0.800,0.262,-0.023
22:14:42.138,SEARCHING,19.879,-18.016,1.000,-0.00,0.00,119.01,4.065,5.595,4.685,5.172,2.446,0,0,SEARCHING,0.000,0.800,0.259,-0.024
22:14:42.338,SEARCHING,19.802,-17.876,1.000,-0.00,0.00,118.72,4.101,5.357,4.665,5.128,2.459,0,0,SEARCHING,0.000,0.800,0.256,-0.025
22:14:42.538,SEARCHING,19.725,-17.735,1.000,-0.00,0.00,118.44,4.180,5.348,4.674,5.186,2.455,0,0,SEARCHING,0.000,0.800,0.256,-0.023
22:14:42.739,SEARCHING,19.649,-17.595,1.000,-0.00,0.00,118.21,4.553,5.080,4.664,5.054,2.448,0,0,SEARCHING,0.000,0.800,0.255,-0.012
22:14:42.939,SEARCHING,19.574,-17.453,1.000,-0.00,0.00,118.13,5.027,4.871,4.664,4.935,2.436,0,0,SEARCHING,0.000,0.800,0.253,0.002
22:14:43.139,SEARCHING,19.498,-17.312,1.000,-0.00,0.00,118.20,5.139,4.725,4.641,4.783,2.441,0,0,SEARCHING,0.000,0.800,0.247,0.012
22:14:43.340,SEARCHING,19.422,-17.171,1.000,-0.00,0.00,118.37,5.313,4.617,4.591,4.629,2.429,0,0,SEARCHING,0.000,0.800,0.241,0.019
22:14:43.540,SEARCHING,19.346,-17.031,1.000,-0.00,0.00,118.60,5.310,4.513,4.578,4.542,2.399,0,0,SEARCHING,0.000,0.800,0.236,0.022
22:14:43.742,SEARCHING,19.269,-16.890,1.000,-0.00,0.00,118.86,5.143,4.383,4.577,4.391,2.421,0,0,SEARCHING,0.000,0.800,0.230,0.022
22:14:43.942,SEARCHING,19.192,-16.751,1.000,-0.00,0.00,119.11,5.178,4.260,4.544,4.265,2.445,0,0,SEARCHING,0.000,0.800,0.219,0.021
22:14:44.143,SEARCHING,19.114,-16.611,1.000,-0.00,0.00,119.35,5.280,4.073,4.546,4.124,2.454,0,0,SEARCHING,0.000,0.800,0.207,0.022
22:14:44.343,SEARCHING,19.035,-16.472,1.000,-0.00,0.00,119.62,5.364,3.886,4.468,3.922,2.449,0,0,SEARCHING,0.000,0.800,0.193,0.027
22:14:44.543,SEARCHING,18.955,-16.333,1.000,-0.00,0.00,119.95,5.625,3.694,4.426,3.738,2.455,0,0,SEARCHING,0.000,0.800,0.179,0.033
22:14:44.744,SEARCHING,18.875,-16.194,1.000,-0.00,0.00,120.36,5.690,3.551,4.024,3.577,2.408,0,0,SEARCHING,0.000,0.800,0.176,0.045
22:14:44.944,SEARCHING,18.794,-16.057,1.000,-0.00,0.00,120.95,5.464,3.376,3.694,3.431,2.469,0,0,SEARCHING,0.000,0.800,0.150,0.061
22:14:45.144,SEARCHING,18.711,-15.920,1.000,-0.00,0.00,121.72,5.643,3.263,3.436,3.317,2.410,0,0,SEARCHING,0.000,0.800,0.139,0.078
22:14:45.345,SEARCHING,18.626,-15.784,1.000,-0.00,0.00,122.69,5.427,3.174,3.148,3.194,2.422,0,0,SEARCHING,0.000,0.800,0.128,0.096
22:14:45.545,SEARCHING,18.538,-15.650,1.000,-0.00,0.00,123.86,5.221,3.052,2.835,3.077,2.423,0,0,SEARCHING,0.000,0.800,0.116,0.115
22:14:45.747,SEARCHING,18.447,-15.519,1.000,-0.00,0.00,125.25,4.901,2.784,2.696,2.922,2.466,0,0,SEARCHING,0.000,0.800,0.094,0.129
22:14:45.947,SEARCHING,18.353,-15.389,1.000,-0.00,0.00,126.73,4.474,4.445,2.587,2.815,2.459,0,0,SEARCHING,0.000,0.800,0.073,0.130
22:14:46.147,SEARCHING,18.256,-15.262,1.000,-0.00,0.00,128.23,4.142,6.147,2.398,3.335,2.430,0,0,SEARCHING,0.000,0.800,0.086,0.134
22:14:46.347,SEARCHING,18.156,-15.137,1.000,-0.00,0.00,129.81,3.928,7.541,2.264,3.781,2.418,0,0,SEARCHING,0.000,0.800,0.149,0.144
22:14:46.548,SEARCHING,18.052,-15.016,1.000,-0.00,0.00,131.50,3.698,7.501,2.097,3.696,2.457,0,0,SEARCHING,0.000,0.800,0.165,0.155
22:14:46.749,SEARCHING,17.944,-14.898,1.000,-0.00,0.00,133.34,3.478,7.220,1.927,3.544,2.462,0,0,SEARCHING,0.000,0.800,0.158,0.172
22:14:46.949,SEARCHING,17.832,-14.783,1.000,-0.00,0.00,135.37,3.211,6.978,1.852,3.377,2.432,0,0,SEARCHING,0.000,0.800,0.146,0.182
22:14:47.149,SEARCHING,17.717,-14.672,1.000,-0.00,0.00,137.46,2.977,6.719,4.041,3.229,2.439,0,0,SEARCHING,0.000,0.800,0.133,0.108
22:14:47.350,SEARCHING,17.598,-14.565,1.000,-0.00,0.00,137.84,2.835,6.587,5.155,3.008,2.443,0,0,SEARCHING,0.000,0.800,0.111,-0.060
22:14:47.550,SEARCHING,17.480,-14.457,1.000,-0.00,0.00,136.87,2.848,6.404,5.113,2.851,2.458,0,0,SEARCHING,0.000,0.800,0.084,-0.110
22:14:47.751,SEARCHING,17.365,-14.346,1.000,-0.00,0.00,135.56,2.938,6.336,5.040,2.771,2.455,0,0,SEARCHING,0.000,0.800,0.065,-0.115
22:14:47.951,SEARCHING,17.252,-14.233,1.000,-0.00,0.00,134.27,3.120,6.255,4.918,2.669,2.431,0,0,SEARCHING,0.000,0.800,0.040,-0.105
22:14:48.152,SEARCHING,17.141,-14.117,1.000,-0.00,0.00,133.14,3.426,6.336,4.811,2.614,2.410,0,0,SEARCHING,0.000,0.800,0.010,-0.084
22:14:48.352,SEARCHING,17.032,-14.000,1.000,-0.00,0.00,132.28,3.827,6.354,4.713,2.562,2.442,0,0,SEARCHING,0.000,0.800,0.002,-0.058
22:14:48.552,SEARCHING,16.925,-13.881,1.000,-0.00,0.00,131.76,4.371,6.426,4.647,2.568,2.447,0,0,SEARCHING,0.000,0.800,0.001,-0.025
22:14:48.753,SEARCHING,16.819,-13.761,1.000,-0.00,0.00,131.52,4.130,6.373,4.495,2.569,2.444,0,0,SEARCHING,0.000,0.800,0.000,-0.017
22:14:48.953,SEARCHING,16.713,-13.642,1.000,-0.00,0.00,131.34,4.151,6.385,4.369,2.566,2.429,0,0,SEARCHING,0.000,0.800,0.000,-0.013
22:14:49.154,SEARCHING,16.608,-13.521,1.000,-0.00,0.00,131.22,4.153,6.290,4.218,2.562,2.445,0,0,SEARCHING,0.000,0.800,0.000,-0.007
22:14:49.355,SEARCHING,16.502,-13.401,1.000,-0.00,0.00,131.17,4.098,6.322,4.073,2.548,2.442,0,0,SEARCHING,0.000,0.800,0.000,-0.002
22:14:49.554,SEARCHING,16.397,-13.280,1.000,-0.00,0.00,131.17,4.192,6.200,3.945,2.564,2.438,0,0,SEARCHING,0.000,0.800,0.000,0.005
22:14:49.755,SEARCHING,16.291,-13.160,1.000,-0.00,0.00,131.27,4.291,6.137,3.773,2.540,2.410,0,0,SEARCHING,0.000,0.800,0.000,0.017
22:14:49.955,SEARCHING,16.186,-13.040,1.000,-0.00,0.00,131.50,4.225,5.918,3.678,2.570,2.414,0,0,SEARCHING,0.000,0.800,0.000,0.025
22:14:50.157,SEARCHING,16.079,-12.920,1.000,-0.00,0.00,131.80,4.113,5.744,3.655,2.540,2.426,0,0,SEARCHING,0.000,0.800,0.000,0.026
22:14:50.357,SEARCHING,15.973,-12.801,1.000,-0.00,0.00,132.08,4.048,5.560,3.900,2.487,2.435,0,0,SEARCHING,0.000,0.800,0.000,0.018
22:14:50.557,SEARCHING,15.865,-12.683,1.000,-0.00,0.00,132.20,3.751,5.365,4.264,4.141,2.431,0,0,SEARCHING,0.000,0.800,0.110,-0.007
22:14:50.757,SEARCHING,15.758,-12.564,1.000,-0.00,0.00,132.03,3.487,5.309,4.502,5.152,2.414,0,0,SEARCHING,0.000,0.800,0.217,-0.032
22:14:50.958,SEARCHING,15.651,-12.445,1.000,-0.00,0.00,131.57,3.422,5.257,4.491,5.216,2.398,0,0,SEARCHING,0.000,0.800,0.257,-0.049
22:14:51.159,SEARCHING,15.545,-12.325,1.000,-0.00,0.00,130.97,3.450,5.275,4.492,5.262,2.415,0,0,SEARCHING,0.000,0.800,0.266,-0.055
22:14:51.359,SEARCHING,15.441,-12.203,1.000,-0.00,0.00,130.34,3.395,5.243,4.418,5.248,2.445,0,0,SEARCHING,0.000,0.800,0.265,-0.054
22:14:51.559,SEARCHING,15.338,-12.081,1.000,-0.00,0.00,129.71,3.225,5.257,4.301,5.206,2.437,0,0,SEARCHING,0.000,0.800,0.262,-0.058
22:14:51.760,SEARCHING,15.237,-11.957,1.000,-0.00,0.00,129.02,3.074,5.144,4.245,5.165,2.421,0,0,SEARCHING,0.000,0.800,0.264,-0.065
22:14:51.960,SEARCHING,15.137,-11.832,1.000,-0.00,0.00,128.23,2.980,5.121,4.188,5.061,2.453,0,0,SEARCHING,0.000,0.800,0.258,-0.074
22:14:52.161,SEARCHING,15.038,-11.706,1.000,-0.00,0.00,127.37,2.964,5.215,4.141,4.985,2.436,0,0,SEARCHING,0.000,0.800,0.253,-0.077
22:14:52.362,SEARCHING,14.942,-11.578,1.000,-0.00,0.00,126.49,2.967,5.492,4.038,4.952,2.483,0,0,SEARCHING,0.000,0.800,0.247,-0.074
22:14:52.562,SEARCHING,14.848,-11.449,1.000,-0.00,0.00,125.66,3.001,6.464,3.944,5.073,2.470,0,0,SEARCHING,0.000,0.800,0.247,-0.069
22:14:52.762,SEARCHING,14.755,-11.318,1.000,-0.00,0.00,124.90,2.996,7.326,3.894,5.118,2.467,0,0,SEARCHING,0.000,0.800,0.251,-0.064
22:14:52.963,SEARCHING,14.665,-11.187,1.000,-0.00,0.00,124.19,3.024,7.452,3.866,5.161,2.447,0,0,SEARCHING,0.000,0.800,0.255,-0.059
22:14:53.163,SEARCHING,14.575,-11.054,1.000,-0.00,0.00,123.53,3.088,7.297,3.772,5.196,2.449,0,0,SEARCHING,0.000,0.800,0.259,-0.053
22:14:53.364,SEARCHING,14.488,-10.920,1.000,-0.00,0.00,122.94,3.089,7.168,3.740,5.209,2.465,0,0,SEARCHING,0.000,0.800,0.258,-0.048
22:14:53.564,SEARCHING,14.401,-10.785,1.000,-0.00,0.00,122.41,3.097,7.049,3.735,5.167,2.457,0,0,SEARCHING,0.000,0.800,0.257,-0.046
22:14:53.764,SEARCHING,14.316,-10.650,1.000,-0.00,0.00,121.91,3.187,6.843,3.678,5.040,2.429,0,0,SEARCHING,0.000,0.800,0.257,-0.039
22:14:53.966,SEARCHING,14.232,-10.514,1.000,-0.00,0.00,121.49,3.231,6.657,3.600,4.956,2.430,0,0,SEARCHING,0.000,0.800,0.259,-0.031
22:14:54.166,SEARCHING,14.149,-10.377,1.000,-0.00,0.00,121.17,3.175,6.581,3.536,4.884,2.447,0,0,SEARCHING,0.000,0.800,0.249,-0.026
22:14:54.365,SEARCHING,14.066,-10.240,1.000,-0.00,0.00,120.86,3.021,6.378,3.546,4.788,2.448,0,0,SEARCHING,0.000,0.800,0.241,-0.032
22:14:54.566,SEARCHING,13.985,-10.103,1.000,-0.00,0.00,120.45,2.897,6.224,3.512,4.705,2.452,0,0,SEARCHING,0.000,0.800,0.236,-0.042
22:14:54.766,SEARCHING,13.904,-9.964,1.000,-0.00,0.00,119.93,2.836,6.097,3.479,4.589,2.403,0,0,SEARCHING,0.000,0.800,0.237,-0.049
22:14:54.967,SEARCHING,13.825,-9.825,1.000,-0.00,0.00,119.37,2.994,5.998,3.430,4.545,2.434,0,0,SEARCHING,0.000,0.800,0.232,-0.044
22:14:55.168,SEARCHING,13.747,-9.686,1.000,-0.00,0.00,118.94,3.344,5.785,3.424,4.434,2.456,0,0,SEARCHING,0.000,0.800,0.224,-0.023
22:14:55.368,SEARCHING,13.670,-9.545,1.000,-0.00,0.00,118.77,3.499,5.704,3.444,4.378,2.472,0,0,SEARCHING,0.000,0.800,0.216,-0.004
22:14:55.568,SEARCHING,13.593,-9.405,1.000,-0.00,0.00,118.76,4.156,5.525,3.491,4.349,2.448,0,0,SEARCHING,0.000,0.800,0.214,0.013
22:14:55.769,SEARCHING,13.515,-9.265,1.000,-0.00,0.00,119.02,4.294,5.473,3.501,4.394,2.438,0,0,SEARCHING,0.000,0.800,0.216,0.035
22:14:55.970,SEARCHING,13.437,-9.125,1.000,-0.00,0.00,119.46,4.541,5.461,3.471,4.363,2.439,0,0,SEARCHING,0.000,0.800,0.217,0.045
22:14:56.170,SEARCHING,13.358,-8.986,1.000,-0.00,0.00,120.02,4.561,5.344,3.467,4.392,2.447,0,0,SEARCHING,0.000,0.800,0.216,0.053
22:14:56.370,SEARCHING,13.277,-8.848,1.000,-0.00,0.00,120.64,4.643,5.299,3.467,4.363,2.424,0,0,SEARCHING,0.000,0.800,0.217,0.057
22:14:56.571,SEARCHING,13.195,-8.711,1.000,-0.00,0.00,121.29,4.445,5.319,3.433,4.323,2.427,0,0,SEARCHING,0.000,0.800,0.218,0.055
22:14:56.771,SEARCHING,13.111,-8.575,1.000,-0.00,0.00,121.91,4.363,5.303,3.377,4.277,2.465,0,0,SEARCHING,0.000,0.800,0.212,0.054
22:14:56.972,SEARCHING,13.026,-8.439,1.000,-0.00,0.00,122.52,4.369,5.245,3.375,4.191,2.476,0,0,SEARCHING,0.000,0.800,0.205,0.053
22:14:57.172,SEARCHING,12.939,-8.305,1.000,-0.00,0.00,123.14,4.346,5.310,3.352,4.043,2.456,0,0,SEARCHING,0.000,0.800,0.197,0.054
22:14:57.372,SEARCHING,12.851,-8.171,1.000,-0.00,0.00,123.76,4.341,5.246,3.386,3.852,2.445,0,0,SEARCHING,0.000,0.800,0.186,0.054
22:14:57.573,SEARCHING,12.762,-8.039,1.000,-0.00,0.00,124.37,4.246,5.261,3.330,3.704,2.445,0,0,SEARCHING,0.000,0.800,0.175,0.053
22:14:57.774,SEARCHING,12.671,-7.907,1.000,-0.00,0.00,124.97,4.154,5.207,3.334,3.599,2.455,0,0,SEARCHING,0.000,0.800,0.163,0.050
22:14:57.973,SEARCHING,12.579,-7.776,1.000,-0.00,0.00,125.51,4.029,5.154,3.346,3.459,2.421,0,0,SEARCHING,0.000,0.800,0.155,0.044
22:14:58.174,SEARCHING,12.485,-7.646,1.000,-0.00,0.00,125.98,3.789,5.099,3.310,3.298,2.435,0,0,SEARCHING,0.000,0.800,0.140,0.035
22:14:58.374,SEARCHING,12.391,-7.517,1.000,-0.00,0.00,126.37,3.806,5.086,3.286,3.149,2.455,0,0,SEARCHING,0.000,0.800,0.122,0.034
22:14:58.575,SEARCHING,12.295,-7.389,1.000,-0.00,0.00,126.76,3.781,4.993,3.257,2.979,2.464,0,0,SEARCHING,0.000,0.800,0.100,0.034
22:14:58.775,SEARCHING,12.199,-7.261,1.000,-0.00,0.00,127.16,3.728,4.977,3.180,2.816,2.473,0,0,SEARCHING,0.000,0.800,0.076,0.036
22:14:58.976,SEARCHING,12.102,-7.134,1.000,-0.00,0.00,127.68,6.219,4.921,3.132,2.673,2.454,0,0,SEARCHING,0.000,0.800,0.043,0.081
22:14:59.176,SEARCHING,12.003,-7.008,1.000,-0.00,0.00,128.80,6.135,4.955,3.141,2.495,2.449,0,0,SEARCHING,0.000,0.800,0.010,0.114
22:14:59.376,SEARCHING,11.902,-6.884,1.000,-0.00,0.00,130.15,6.355,4.972,3.110,2.365,2.452,0,0,SEARCHING,0.000,0.800,0.002,0.124
22:14:59.578,SEARCHING,11.797,-6.763,1.000,-0.00,0.00,131.50,5.563,5.029,3.106,2.237,2.450,0,0,SEARCHING,0.000,0.800,0.001,0.109
22:14:59.779,SEARCHING,11.690,-6.644,1.000,-0.00,0.00,132.72,3.585,5.120,3.103,2.192,2.462,0,0,SEARCHING,0.000,0.800,-0.038,0.081
22:14:59.979,SEARCHING,11.581,-6.527,1.000,-0.00,0.00,133.38,3.787,5.036,3.103,2.243,2.440,0,0,SEARCHING,0.000,0.800,-0.034,0.037
22:15:00.179,SEARCHING,11.471,-6.411,1.000,-0.00,0.00,133.98,5.614,4.917,3.096,2.331,2.435,0,0,SEARCHING,0.000,0.800,-0.008,0.087
22:15:00.380,SEARCHING,11.358,-6.297,1.000,-0.00,0.00,135.11,5.432,4.785,3.122,2.568,2.449,0,0,SEARCHING,0.000,0.800,-0.002,0.107
22:15:00.581,SEARCHING,11.244,-6.185,1.000,-0.00,0.00,136.33,4.918,4.717,3.105,2.581,2.467,0,0,SEARCHING,0.000,0.800,-0.000,0.102
22:15:00.781,SEARCHING,11.127,-6.076,1.000,-0.00,0.00,137.44,4.502,4.675,3.178,2.590,2.466,0,0,SEARCHING,0.000,0.800,-0.000,0.086
22:15:00.982,SEARCHING,11.009,-5.969,1.000,-0.00,0.00,138.37,4.360,4.774,3.180,2.604,2.459,0,0,SEARCHING,0.000,0.800,-0.000,0.074
22:15:01.182,SEARCHING,10.888,-5.863,1.000,-0.00,0.00,139.18,4.282,4.859,3.229,2.612,2.466,0,0,SEARCHING,0.000,0.800,-0.000,0.066
22:15:01.382,SEARCHING,10.767,-5.759,1.000,-0.00,0.00,139.91,4.219,4.902,3.236,2.562,2.461,0,0,SEARCHING,0.000,0.800,-0.000,0.061
22:15:01.583,SEARCHING,10.644,-5.657,1.000,-0.00,0.00,140.59,4.187,4.872,3.237,2.498,2.395,0,0,SEARCHING,0.000,0.800,-0.000,0.057
22:15:01.783,SEARCHING,10.520,-5.556,1.000,-0.00,0.00,141.25,4.093,4.833,3.196,3.977,2.440,0,0,SEARCHING,0.000,0.800,0.057,0.057
22:15:01.984,SEARCHING,10.394,-5.457,1.000,-0.00,0.00,141.89,4.024,4.735,3.172,4.682,2.438,0,0,SEARCHING,0.000,0.800,0.183,0.054
22:15:02.184,SEARCHING,10.268,-5.358,1.000,-0.00,0.00,142.50,3.914,4.953,3.137,4.957,2.458,0,0,SEARCHING,0.000,0.800,0.229,0.052
22:15:02.385,SEARCHING,10.141,-5.262,1.000,-0.00,0.00,143.10,3.866,5.226,3.097,5.141,2.474,0,0,SEARCHING,0.000,0.800,0.244,0.052
22:15:02.585,SEARCHING,10.012,-5.166,1.000,-0.00,0.00,143.70,3.807,5.701,2.972,5.258,2.456,0,0,SEARCHING,0.000,0.800,0.254,0.055
22:15:02.786,SEARCHING,9.883,-5.072,1.000,-0.00,0.00,144.35,3.743,6.220,2.847,5.639,2.434,0,0,SEARCHING,0.000,0.800,0.268,0.062
22:15:02.986,SEARCHING,9.752,-4.980,1.000,-0.00,0.00,145.10,3.658,6.345,2.713,5.811,2.446,0,0,SEARCHING,0.000,0.800,0.280,0.071
22:15:03.186,SEARCHING,9.620,-4.889,1.000,-0.00,0.00,145.94,3.571,6.480,2.683,5.909,2.443,0,0,SEARCHING,0.000,0.800,0.286,0.075
22:15:03.387,SEARCHING,9.487,-4.800,1.000,-0.00,0.00,146.78,3.489,6.429,2.711,5.828,2.461,0,0,SEARCHING,0.000,0.800,0.285,0.070
22:15:03.587,SEARCHING,9.353,-4.713,1.000,-0.00,0.00,147.55,3.405,6.207,2.779,5.897,2.459,0,0,SEARCHING,0.000,0.800,0.284,0.061
22:15:03.788,SEARCHING,9.217,-4.628,1.000,-0.00,0.00,148.20,3.308,6.067,2.828,5.887,2.445,0,0,SEARCHING,0.000,0.800,0.286,0.049
22:15:03.989,SEARCHING,9.081,-4.544,1.000,-0.00,0.00,148.72,3.243,6.177,2.848,5.834,2.443,0,0,SEARCHING,0.000,0.800,0.285,0.039
22:15:04.189,SEARCHING,8.944,-4.462,1.000,-0.00,0.00,149.14,3.172,5.955,2.795,5.691,2.440,0,0,SEARCHING,0.000,0.800,0.284,0.035
22:15:04.389,SEARCHING,8.806,-4.380,1.000,-0.00,0.00,149.55,3.091,6.021,2.680,5.668,2.455,0,0,SEARCHING,0.000,0.800,0.280,0.037
22:15:04.590,SEARCHING,8.668,-4.300,1.000,-0.00,0.00,150.00,3.068,5.828,2.591,5.362,2.460,0,0,SEARCHING,0.000,0.800,0.270,0.044
