timestamp,state,x,y,z,roll_deg,pitch_deg,yaw_deg,dist_left,dist_center,dist_right,dist_top,dist_bottom,dtof_alert,collision_type,best_dir,max_space,cmd_vx,cmd_vz,cmd_yaw,lap,total_hits
19:43:42.624,SEARCHING,0.012,0.000,1.000,0.00,0.00,0.00,10.000,10.000,10.000,10.000,10.000,0,NONE,SEARCHING,0.000,0.526,0.000,0.000,0,0
19:43:42.825,SEARCHING,0.123,0.000,1.000,0.00,0.00,0.00,10.000,10.000,10.000,10.000,10.000,0,NONE,SEARCHING,0.000,0.734,0.000,0.000,0,0
19:43:43.026,SEARCHING,0.272,0.000,1.000,0.00,0.00,0.00,10.000,10.000,10.000,10.000,10.000,0,NONE,SEARCHING,0.000,0.784,0.000,0.000,0,0
19:43:43.226,SEARCHING,0.429,0.000,1.000,0.00,0.00,0.00,10.000,10.000,10.000,10.000,10.000,0,NONE,SEARCHING,0.000,0.796,0.000,0.000,0,0
19:43:43.427,SEARCHING,0.588,0.000,1.000,0.00,0.00,0.00,10.000,10.000,10.000,10.000,10.000,0,NONE,SEARCHING,0.000,0.799,0.000,0.000,0,0
19:43:46.385,SEARCHING,0.748,0.000,1.000,0.00,0.00,0.00,10.000,10.000,10.000,10.000,10.000,0,NONE,SEARCHING,0.000,0.800,0.000,0.000,0,0
19:43:46.411,SEARCHING,0.908,0.000,1.000,0.00,0.00,0.00,10.000,10.000,10.000,10.000,10.000,0,NONE,SEARCHING,0.000,0.800,0.000,0.000,0,0
19:43:46.563,SEARCHING,1.068,0.000,1.000,0.00,0.00,0.00,10.000,10.000,10.000,10.000,10.000,0,NONE,SEARCHING,0.000,0.800,0.000,0.000,0,0
19:43:46.758,SEARCHING,1.228,-0.000,1.000,0.00,0.00,-0.01,4.912,6.892,6.318,6.656,4.050,0,NONE,SEARCHING,0.000,0.800,0.035,-0.013,0,0
19:43:46.957,SEARCHING,1.276,-0.000,1.017,0.00,0.00,-0.12,3.484,6.079,5.314,5.707,2.392,0,NONE,SEARCHING,0.000,0.800,0.198,-0.056,0,0
19:43:47.158,SEARCHING,1.324,-0.000,1.065,0.00,0.00,-0.35,3.284,6.028,5.172,5.556,2.303,0,NONE,SEARCHING,0.000,0.800,0.279,-0.079,0,0
19:43:47.359,SEARCHING,1.372,-0.001,1.122,0.00,0.00,-0.64,3.237,6.047,5.092,5.365,2.469,0,NONE,SEARCHING,0.000,0.800,0.274,-0.087,0,0
19:43:47.559,SEARCHING,1.420,-0.001,1.175,0.00,0.00,-0.94,3.253,6.075,4.994,5.237,2.571,0,NONE,SEARCHING,0.000,0.800,0.252,-0.087,0,0
19:43:47.760,SEARCHING,1.468,-0.002,1.223,0.00,0.00,-1.24,3.226,6.114,4.939,5.117,2.677,0,NONE,SEARCHING,0.000,0.800,0.228,-0.086,0,0
19:43:47.960,SEARCHING,1.516,-0.003,1.268,0.00,0.00,-1.53,3.218,6.159,4.913,4.973,2.813,0,NONE,SEARCHING,0.000,0.800,0.203,-0.086,0,0
19:43:48.162,SEARCHING,1.564,-0.005,1.306,0.00,0.00,-1.83,3.232,6.151,4.876,4.856,2.939,0,NONE,SEARCHING,0.000,0.800,0.177,-0.085,0,0
19:43:48.362,SEARCHING,1.612,-0.006,1.340,0.00,0.00,-2.12,3.192,6.180,4.848,4.734,3.026,0,NONE,SEARCHING,0.000,0.800,0.156,-0.085,0,0
19:43:48.563,SEARCHING,1.660,-0.008,1.370,0.00,0.00,-2.41,3.247,6.201,4.777,4.656,3.127,0,NONE,SEARCHING,0.000,0.800,0.135,-0.082,0,0
19:43:48.763,SEARCHING,1.708,-0.010,1.396,0.00,0.00,-2.68,3.281,6.186,4.689,4.583,3.220,0,NONE,SEARCHING,0.000,0.800,0.120,-0.077,0,0
19:43:48.964,SEARCHING,1.756,-0.012,1.419,0.00,0.00,-2.94,3.276,6.205,4.630,4.502,3.256,0,NONE,SEARCHING,0.000,0.800,0.109,-0.073,0,0
19:43:49.166,SEARCHING,1.804,-0.015,1.440,0.00,0.00,-3.19,3.299,6.187,4.624,4.470,3.274,0,NONE,SEARCHING,0.000,0.800,0.102,-0.071,0,0
19:43:49.366,SEARCHING,1.852,-0.018,1.460,0.00,0.00,-3.43,3.333,6.185,4.594,4.412,3.340,0,NONE,SEARCHING,0.000,0.800,0.092,-0.069,0,0
19:43:49.567,SEARCHING,1.900,-0.021,1.478,0.00,0.00,-3.66,3.354,6.176,4.513,4.402,3.389,0,NONE,SEARCHING,0.000,0.800,0.086,-0.064,0,0
19:43:49.768,SEARCHING,1.948,-0.024,1.495,0.00,0.00,-3.87,3.338,6.137,4.490,4.327,3.358,0,NONE,SEARCHING,0.000,0.800,0.082,-0.062,0,0
19:43:49.969,SEARCHING,1.996,-0.027,1.511,0.00,0.00,-4.08,3.342,6.118,4.487,4.293,3.451,0,NONE,SEARCHING,0.000,0.800,0.075,-0.061,0,0
19:43:50.170,SEARCHING,2.043,-0.031,1.525,0.00,0.00,-4.29,3.363,6.127,4.462,4.252,3.775,0,NONE,SEARCHING,0.000,0.800,0.047,-0.060,0,0
19:43:50.370,SEARCHING,2.091,-0.034,1.531,0.00,0.00,-4.50,3.380,6.030,4.405,4.239,3.579,0,NONE,SEARCHING,0.000,0.800,0.027,-0.057,0,0
19:43:50.570,SEARCHING,2.139,-0.038,1.538,0.00,0.00,-4.69,3.393,6.000,4.401,4.238,3.813,0,NONE,SEARCHING,0.000,0.800,0.031,-0.055,0,0
19:43:50.771,SEARCHING,2.187,-0.042,1.542,0.00,0.00,-4.88,3.389,5.963,4.370,4.216,3.519,0,NONE,SEARCHING,0.000,0.800,0.024,-0.053,0,0
19:43:50.972,SEARCHING,2.235,-0.046,1.549,0.00,0.00,-5.06,3.400,5.930,4.369,4.206,3.577,0,NONE,SEARCHING,0.000,0.800,0.046,-0.052,0,0
19:43:51.173,SEARCHING,2.283,-0.051,1.556,0.00,0.00,-5.23,3.460,5.878,4.299,4.164,3.608,0,NONE,SEARCHING,0.000,0.800,0.011,-0.048,0,0
19:43:51.373,SEARCHING,2.330,-0.055,1.560,0.00,0.00,-5.39,3.455,5.858,4.314,4.184,3.466,0,NONE,SEARCHING,0.000,0.800,0.053,-0.046,0,0
19:43:51.575,SEARCHING,2.378,-0.059,1.570,0.00,0.00,-5.55,3.439,5.803,4.317,4.163,3.588,0,NONE,SEARCHING,0.000,0.800,0.019,-0.047,0,0
19:43:51.775,SEARCHING,2.426,-0.064,1.574,0.00,0.00,-5.71,3.439,5.787,4.276,4.117,3.592,0,NONE,SEARCHING,0.000,0.800,0.023,-0.046,0,0
19:43:51.975,SEARCHING,2.474,-0.069,1.577,0.00,0.00,-5.87,3.446,5.732,4.285,4.108,3.653,0,NONE,SEARCHING,0.000,0.800,0.005,-0.046,0,0
19:43:52.176,SEARCHING,2.577,-0.080,1.579,0.00,0.00,-6.21,3.481,5.665,4.203,4.115,3.488,0,NONE,SEARCHING,0.000,0.800,0.036,-0.042,0,0
19:43:52.376,SEARCHING,2.625,-0.085,1.586,0.00,0.00,-6.34,3.515,5.614,4.183,4.092,3.655,0,NONE,SEARCHING,0.000,0.800,0.014,-0.039,0,0
19:43:52.578,SEARCHING,2.728,-0.097,1.587,0.00,0.00,-6.63,3.538,5.616,4.191,4.055,3.602,0,NONE,SEARCHING,0.000,0.800,0.003,-0.037,0,0
19:43:52.778,SEARCHING,2.887,-0.116,1.587,0.00,0.00,-7.05,3.534,5.579,4.141,4.131,3.703,0,NONE,SEARCHING,0.000,0.800,0.001,-0.035,0,0
19:43:52.978,SEARCHING,3.046,-0.136,1.587,0.00,0.00,-7.44,3.538,5.553,4.055,4.161,3.701,0,NONE,SEARCHING,0.000,0.800,0.000,-0.032,0,0
19:43:53.179,SEARCHING,3.204,-0.157,1.587,0.00,0.00,-7.80,3.509,5.460,4.113,4.172,3.642,0,NONE,SEARCHING,0.000,0.800,0.000,-0.031,0,0
19:43:53.379,SEARCHING,3.363,-0.179,1.587,0.00,0.00,-8.16,3.522,5.391,4.151,4.167,3.691,0,NONE,SEARCHING,0.000,0.800,0.000,-0.033,0,0
19:43:53.580,SEARCHING,3.521,-0.202,1.587,0.00,0.00,-8.54,3.488,5.312,4.182,4.177,3.632,0,NONE,SEARCHING,0.000,0.800,0.000,-0.036,0,0
19:43:53.781,SEARCHING,3.679,-0.227,1.587,0.00,0.00,-8.95,3.472,5.260,4.308,4.162,3.592,0,NONE,SEARCHING,0.000,0.800,0.000,-0.040,0,0
19:43:53.982,SEARCHING,3.782,-0.243,1.588,0.00,0.00,-9.26,3.483,5.308,4.466,4.127,3.671,0,NONE,SEARCHING,0.000,0.800,0.018,-0.047,0,0
19:43:54.188,SEARCHING,3.885,-0.260,1.590,0.00,0.00,-9.61,3.512,5.358,4.484,4.129,3.623,0,NONE,SEARCHING,0.000,0.800,0.004,-0.049,0,0
19:43:54.393,SEARCHING,4.042,-0.288,1.590,0.00,0.00,-10.18,3.513,5.480,4.486,4.178,3.380,0,NONE,SEARCHING,0.000,0.800,0.021,-0.050,0,0
19:43:54.598,SEARCHING,4.089,-0.296,1.595,0.00,0.00,-10.35,3.511,5.759,4.487,4.188,3.825,0,NONE,SEARCHING,0.000,0.800,0.012,-0.050,0,0
19:43:54.796,SEARCHING,4.192,-0.315,1.596,0.00,0.00,-10.72,3.496,6.319,4.491,4.171,3.607,0,NONE,SEARCHING,0.000,0.800,0.003,-0.050,0,0
19:43:54.996,SEARCHING,4.349,-0.346,1.596,0.00,0.00,-11.29,3.494,7.352,4.428,4.185,3.685,0,NONE,SEARCHING,0.000,0.800,0.001,-0.049,0,0
19:43:55.197,SEARCHING,4.506,-0.378,1.596,0.00,0.00,-11.85,3.455,7.469,4.358,4.198,3.700,0,NONE,SEARCHING,0.000,0.800,0.000,-0.048,0,0
19:43:55.398,SEARCHING,4.662,-0.411,1.596,0.00,0.00,-12.41,3.350,7.392,4.322,4.182,3.695,0,NONE,SEARCHING,0.000,0.800,0.000,-0.050,0,0
19:43:55.600,SEARCHING,4.818,-0.446,1.596,0.00,0.00,-12.99,3.198,7.191,4.224,4.221,3.745,0,NONE,SEARCHING,0.000,0.800,0.000,-0.056,0,0
19:43:55.800,SEARCHING,4.974,-0.483,1.596,0.00,0.00,-13.64,3.076,7.045,4.172,4.230,3.698,0,NONE,SEARCHING,0.000,0.800,0.000,-0.064,0,0
19:43:56.000,SEARCHING,5.129,-0.522,1.596,0.00,0.00,-14.37,3.050,6.947,4.042,4.205,3.760,0,NONE,SEARCHING,0.000,0.800,0.000,-0.065,0,0
19:43:56.201,SEARCHING,5.284,-0.562,1.596,0.00,0.00,-15.12,3.051,6.755,3.921,4.174,2.963,0,NONE,SEARCHING,0.000,0.800,0.035,-0.062,0,0
19:43:56.402,SEARCHING,5.330,-0.575,1.606,0.00,0.00,-15.32,3.051,6.607,3.870,4.166,3.655,0,NONE,SEARCHING,0.000,0.800,0.041,-0.058,0,0
19:43:56.603,SEARCHING,5.376,-0.587,1.612,0.00,0.00,-15.51,3.051,6.586,3.854,4.161,3.714,0,NONE,SEARCHING,0.000,0.800,0.010,-0.055,0,0
19:43:56.804,SEARCHING,5.530,-0.631,1.612,0.00,0.00,-16.15,3.053,6.424,3.782,4.160,2.940,0,NONE,SEARCHING,0.000,0.800,0.038,-0.053,0,0
19:43:57.004,SEARCHING,5.576,-0.644,1.622,0.00,0.00,-16.32,3.036,6.364,3.725,4.176,3.642,0,NONE,SEARCHING,0.000,0.800,0.042,-0.050,0,0
19:43:57.204,SEARCHING,5.623,-0.658,1.628,0.00,0.00,-16.49,3.037,6.332,3.695,4.147,3.796,0,NONE,SEARCHING,0.000,0.800,0.010,-0.048,0,0
19:43:57.406,SEARCHING,5.722,-0.688,1.631,0.00,0.00,-16.85,2.992,6.202,3.652,4.136,3.618,0,NONE,SEARCHING,0.000,0.800,0.028,-0.048,0,0
19:43:57.606,SEARCHING,5.768,-0.702,1.634,0.00,0.00,-17.01,2.955,6.114,3.634,4.096,3.665,0,NONE,SEARCHING,0.000,0.800,0.007,-0.049,0,0
19:43:57.805,SEARCHING,5.921,-0.749,1.634,0.00,0.00,-17.57,2.943,5.989,3.574,4.142,3.796,0,NONE,SEARCHING,0.000,0.800,0.002,-0.048,0,0
19:43:58.006,SEARCHING,6.073,-0.798,1.634,0.00,0.00,-18.12,2.988,5.796,3.506,4.150,3.757,0,NONE,SEARCHING,0.000,0.800,0.000,-0.044,0,0
19:43:58.207,SEARCHING,6.225,-0.849,1.634,0.00,0.00,-18.62,3.272,5.576,3.437,4.159,3.682,0,NONE,SEARCHING,0.000,0.800,0.000,-0.029,0,0
19:43:58.407,SEARCHING,6.377,-0.900,1.634,0.00,0.00,-18.90,3.932,5.351,3.367,4.160,3.774,0,NONE,SEARCHING,0.000,0.800,0.000,0.010,0,0
19:43:58.608,SEARCHING,6.528,-0.952,1.634,0.00,0.00,-18.76,4.067,5.216,3.361,4.160,3.222,0,NONE,SEARCHING,0.000,0.800,0.025,0.034,0,0
19:43:58.808,SEARCHING,6.573,-0.967,1.640,0.00,0.00,-18.63,4.133,5.142,3.387,4.160,3.748,0,NONE,SEARCHING,0.000,0.800,0.015,0.041,0,0
19:43:59.008,SEARCHING,6.672,-1.000,1.642,0.00,0.00,-18.32,4.088,5.142,3.428,4.149,3.860,0,NONE,SEARCHING,0.000,0.800,0.004,0.039,0,0
19:43:59.209,SEARCHING,6.824,-1.050,1.642,0.00,0.00,-17.88,3.981,5.041,3.507,4.159,4.082,0,NONE,SEARCHING,0.000,0.800,0.001,0.033,0,0
19:43:59.410,SEARCHING,6.977,-1.099,1.642,0.00,0.00,-17.51,3.965,4.917,3.519,4.104,4.038,0,NONE,SEARCHING,0.000,0.800,0.000,0.028,0,0
19:43:59.610,SEARCHING,7.129,-1.146,1.642,0.00,0.00,-17.19,3.906,4.874,3.526,4.129,4.014,0,NONE,SEARCHING,0.000,0.800,0.000,0.025,0,0
19:43:59.811,SEARCHING,7.282,-1.193,1.642,0.00,0.00,-16.91,3.862,4.759,3.553,4.157,3.904,0,NONE,SEARCHING,0.000,0.800,0.000,0.020,0,0
19:44:00.012,SEARCHING,7.435,-1.240,1.642,0.00,0.00,-16.68,3.793,4.633,3.599,4.160,3.680,0,NONE,SEARCHING,0.000,0.800,0.000,0.016,0,0
19:44:00.212,SEARCHING,7.589,-1.285,1.642,0.00,0.00,-16.51,3.807,4.528,3.637,4.160,3.790,0,NONE,SEARCHING,0.000,0.800,0.000,0.012,0,0
19:44:00.413,SEARCHING,7.742,-1.331,1.642,0.00,0.00,-16.37,3.847,4.426,3.652,4.176,3.944,0,NONE,SEARCHING,0.000,0.800,0.000,0.011,0,0
19:44:00.613,SEARCHING,7.896,-1.375,1.642,0.00,0.00,-16.24,3.950,4.343,3.667,4.162,3.833,0,NONE,SEARCHING,0.000,0.800,0.000,0.014,0,0
19:44:00.814,SEARCHING,8.049,-1.420,1.642,0.00,0.00,-16.08,4.178,4.199,3.577,4.138,3.844,0,NONE,SEARCHING,0.000,0.800,0.000,0.022,0,0
19:44:01.015,SEARCHING,8.203,-1.464,1.642,0.00,0.00,-15.80,4.406,4.063,3.425,4.049,3.831,0,NONE,SEARCHING,0.000,0.800,0.000,0.041,0,0
19:44:01.215,SEARCHING,8.357,-1.507,1.642,0.00,0.00,-15.32,4.287,3.901,3.252,3.887,3.790,0,NONE,SEARCHING,0.000,0.800,0.000,0.053,0,0
19:44:01.415,SEARCHING,8.512,-1.549,1.642,0.00,0.00,-14.71,4.132,3.775,3.083,3.790,3.742,0,NONE,SEARCHING,0.000,0.800,0.000,0.061,0,0
19:44:01.617,SEARCHING,8.667,-1.588,1.642,0.00,0.00,-13.99,3.939,3.677,2.896,3.694,3.710,0,NONE,SEARCHING,0.000,0.800,0.000,0.069,0,0
19:44:01.817,SEARCHING,8.822,-1.626,1.642,0.00,0.00,-13.20,3.798,3.554,2.782,3.631,3.629,0,NONE,SEARCHING,0.000,0.800,0.000,0.075,0,0
19:44:02.017,SEARCHING,8.978,-1.662,1.642,0.00,0.00,-12.34,3.648,3.573,2.733,3.572,3.568,0,NONE,SEARCHING,0.000,0.800,0.000,0.075,0,0
19:44:02.218,SEARCHING,9.135,-1.695,1.642,0.00,0.00,-11.48,3.526,3.494,2.604,3.470,3.459,0,NONE,SEARCHING,0.000,0.800,0.000,0.076,0,0
19:44:02.418,SEARCHING,9.292,-1.726,1.642,0.00,0.00,-10.60,3.414,3.358,2.518,3.363,3.344,0,NONE,SEARCHING,0.000,0.800,0.000,0.081,0,0
19:44:02.620,SEARCHING,9.449,-1.754,1.642,0.00,0.00,-9.67,3.296,3.226,2.450,3.230,3.224,0,NONE,SEARCHING,0.000,0.800,0.000,0.083,0,0
19:44:02.819,SEARCHING,9.607,-1.780,1.642,0.00,0.00,-8.71,3.156,3.054,2.394,3.063,3.054,0,NONE,SEARCHING,0.000,0.800,0.000,0.083,0,0
19:44:03.020,SEARCHING,9.766,-1.803,1.642,0.00,0.00,-7.77,3.025,2.914,2.326,2.915,2.907,0,NONE,SEARCHING,0.000,0.800,0.000,0.080,0,0
19:44:03.221,SEARCHING,9.924,-1.823,1.642,0.00,0.00,-6.85,2.927,2.782,2.245,2.784,2.781,0,NONE,SEARCHING,0.000,0.800,0.000,0.082,0,0
19:44:03.422,SEARCHING,10.083,-1.841,1.642,0.00,0.00,-5.91,2.856,2.623,2.156,2.617,2.624,0,NONE,SEARCHING,0.000,0.800,0.000,0.087,0,0
19:44:03.622,SEARCHING,10.242,-1.856,1.642,0.00,0.00,-4.91,2.770,2.455,2.093,2.445,2.450,0,NONE,SEARCHING,0.000,0.800,0.000,0.091,0,0
19:44:03.823,SEARCHING,10.402,-1.869,1.642,0.00,0.00,-3.86,2.754,2.319,2.038,2.311,2.312,0,NONE,SEARCHING,0.000,0.800,0.000,0.097,0,0
19:44:04.024,SEARCHING,10.562,-1.878,1.642,0.00,0.00,-2.74,2.695,2.150,1.961,2.153,2.155,0,NONE,SEARCHING,0.000,0.800,0.000,0.105,0,0
19:44:04.223,SEARCHING,10.722,-1.884,1.642,0.00,0.00,-1.52,2.632,2.007,1.905,2.004,2.009,0,NONE,SEARCHING,0.000,0.797,0.000,0.111,0,0
19:44:04.424,SEARCHING,10.880,-1.887,1.642,0.00,0.00,-0.24,2.590,1.853,1.847,1.842,1.846,0,NONE,SEARCHING,0.000,0.741,0.000,0.119,0,0
19:44:04.625,SEARCHING,11.026,-1.886,1.642,0.00,0.00,1.13,2.582,1.701,1.783,1.701,1.701,0,NONE,SEARCHING,0.000,0.654,0.000,0.129,0,0
19:44:04.826,SEARCHING,11.155,-1.882,1.642,0.00,0.00,2.63,2.502,1.577,1.639,1.571,1.573,0,NONE,SEARCHING,0.000,0.564,0.000,0.150,0,0
19:44:05.026,SEARCHING,11.266,-1.875,1.642,0.00,0.00,4.39,2.417,1.456,1.503,1.451,1.455,0,NONE,SEARCHING,0.000,0.482,0.000,0.179,0,0
19:44:05.227,SEARCHING,11.361,-1.867,1.642,0.00,0.00,6.47,2.380,1.351,1.383,1.350,1.350,0,NONE,SEARCHING,0.000,0.412,0.000,0.214,0,0
19:44:05.427,SEARCHING,11.442,-1.856,1.642,0.00,0.00,8.98,2.375,1.261,1.277,1.264,1.263,0,NONE,SEARCHING,0.000,0.355,0.000,0.258,0,0
19:44:05.628,SEARCHING,11.510,-1.844,1.642,0.00,0.00,11.99,2.444,1.188,1.184,1.182,1.201,0,NONE,SEARCHING,0.000,0.308,0.000,0.309,0,0
19:44:05.830,SEARCHING,11.570,-1.829,1.642,0.00,0.00,15.60,2.538,1.347,1.116,1.309,1.235,0,NONE,SEARCHING,0.000,0.314,0.017,0.366,0,0
19:44:06.030,SEARCHING,11.589,-1.824,1.645,0.00,0.00,16.94,2.615,1.466,1.067,1.467,1.502,0,NONE,SEARCHING,0.000,0.355,0.010,0.415,0,0
19:44:06.230,SEARCHING,11.659,-1.799,1.645,0.00,0.00,21.76,2.791,1.879,0.994,1.867,1.894,0,NONE,SEARCHING,0.000,0.483,0.002,0.474,0,0
19:44:06.430,SEARCHING,11.749,-1.759,1.645,0.00,0.00,27.29,3.121,2.018,0.944,2.019,2.028,0,NONE,SEARCHING,0.000,0.590,0.001,0.549,0,0
19:44:06.631,SEARCHING,11.853,-1.698,1.645,0.00,0.00,33.55,4.298,2.213,1.412,2.217,2.223,0,NONE,SEARCHING,0.000,0.715,0.000,0.483,0,0
19:44:06.832,SEARCHING,11.970,-1.613,1.645,0.00,0.00,38.93,4.124,2.395,1.570,2.391,2.392,0,NONE,SEARCHING,0.000,0.779,0.000,0.373,0,0
19:44:07.033,SEARCHING,12.088,-1.510,1.645,0.00,0.00,43.12,3.825,2.576,1.641,2.588,2.588,0,NONE,SEARCHING,0.000,0.795,0.000,0.312,0,0
19:44:07.233,SEARCHING,12.201,-1.398,1.645,0.00,0.00,46.64,3.567,2.789,1.690,2.779,2.788,0,NONE,SEARCHING,0.000,0.799,0.000,0.271,0,0
19:44:07.434,SEARCHING,12.308,-1.280,1.645,0.00,0.00,49.70,3.349,4.081,1.748,3.673,3.387,0,NONE,SEARCHING,0.000,0.800,0.000,0.239,0,0
19:44:07.635,SEARCHING,12.408,-1.155,1.645,0.00,0.00,52.39,3.108,4.450,1.804,4.103,3.659,0,NONE,SEARCHING,0.000,0.800,0.000,0.205,0,0
19:44:07.835,SEARCHING,12.504,-1.027,1.645,0.00,0.00,54.70,2.945,4.107,1.864,4.047,3.806,0,NONE,SEARCHING,0.000,0.800,0.000,0.176,0,0
19:44:08.035,SEARCHING,12.594,-0.895,1.645,0.00,0.00,56.68,2.799,3.797,1.924,3.790,3.588,0,NONE,SEARCHING,0.000,0.800,0.000,0.147,0,0
19:44:08.238,SEARCHING,12.680,-0.760,1.645,0.00,0.00,58.33,2.675,3.583,1.981,3.597,3.559,0,NONE,SEARCHING,0.000,0.800,0.000,0.121,0,0
19:44:08.439,SEARCHING,12.763,-0.623,1.645,0.00,0.00,59.52,2.503,3.383,4.876,3.392,3.374,0,NONE,SEARCHING,0.000,0.800,0.000,-0.041,0,0
19:44:08.639,SEARCHING,12.844,-0.485,1.645,0.00,0.00,58.90,2.427,3.235,5.354,3.258,3.232,0,NONE,SEARCHING,0.000,0.800,0.000,-0.142,0,0
19:44:08.840,SEARCHING,12.928,-0.349,1.645,0.00,0.00,57.23,2.362,3.149,5.437,3.156,3.130,0,NONE,SEARCHING,0.000,0.800,0.000,-0.176,0,0
19:44:09.040,SEARCHING,13.017,-0.216,1.645,0.00,0.00,55.19,2.318,3.132,5.440,3.111,2.967,0,NONE,SEARCHING,0.000,0.800,0.000,-0.191,0,0
19:44:09.241,SEARCHING,13.111,-0.086,1.645,0.00,0.00,53.00,2.288,3.174,5.382,3.177,2.820,0,NONE,SEARCHING,0.000,0.800,0.000,-0.198,0,0
19:44:09.446,SEARCHING,13.174,-0.004,1.647,0.00,0.00,51.52,2.243,3.245,5.405,3.235,2.666,0,NONE,SEARCHING,0.000,0.800,0.048,-0.204,0,0
19:44:09.647,SEARCHING,13.204,0.034,1.660,0.00,0.00,50.81,2.231,3.276,5.422,3.273,2.601,0,NONE,SEARCHING,0.000,0.800,0.080,-0.208,0,0
19:44:09.851,SEARCHING,13.235,0.071,1.677,0.00,0.00,50.08,2.223,3.309,5.646,3.291,2.536,0,NONE,SEARCHING,0.000,0.800,0.099,-0.214,0,0
19:44:10.056,SEARCHING,13.266,0.107,1.698,0.00,0.00,49.34,2.217,3.336,5.582,3.311,2.456,0,NONE,SEARCHING,0.000,0.800,0.115,-0.217,0,0
19:44:10.260,SEARCHING,13.297,0.144,1.722,0.00,0.00,48.59,2.193,3.371,5.439,3.358,2.417,0,NONE,SEARCHING,0.000,0.800,0.128,-0.217,0,0
19:44:10.467,SEARCHING,13.340,0.191,1.749,0.00,0.00,47.60,2.183,3.381,5.292,3.406,2.384,0,NONE,SEARCHING,0.000,0.800,0.143,-0.217,0,0
19:44:10.671,SEARCHING,13.372,0.227,1.778,0.00,0.00,46.86,2.187,3.396,5.216,3.399,2.389,0,NONE,SEARCHING,0.000,0.800,0.148,-0.214,0,0
19:44:10.875,SEARCHING,13.405,0.261,1.808,0.00,0.00,46.12,2.167,3.423,5.136,3.423,2.401,0,NONE,SEARCHING,0.000,0.800,0.148,-0.213,0,0
19:44:11.077,SEARCHING,13.439,0.296,1.837,0.00,0.00,45.39,2.159,3.470,4.998,3.438,2.399,0,NONE,SEARCHING,0.000,0.800,0.150,-0.212,0,0
19:44:11.278,SEARCHING,13.473,0.330,1.867,0.00,0.00,44.67,2.159,3.570,4.891,3.519,2.478,0,NONE,SEARCHING,0.000,0.800,0.148,-0.209,0,0
19:44:11.479,SEARCHING,13.507,0.363,1.896,0.00,0.00,43.95,2.159,3.613,4.805,3.528,2.548,0,NONE,SEARCHING,0.000,0.800,0.138,-0.206,0,0
19:44:11.680,SEARCHING,13.542,0.397,1.923,0.00,0.00,43.25,2.159,3.690,4.773,3.466,2.598,0,NONE,SEARCHING,0.000,0.800,0.126,-0.204,0,0
19:44:11.882,SEARCHING,13.577,0.429,1.947,0.00,0.00,42.55,2.182,4.097,4.746,3.384,2.679,0,NONE,SEARCHING,0.000,0.800,0.107,-0.202,0,0
19:44:12.084,SEARCHING,13.612,0.462,1.967,0.00,0.00,41.86,2.215,4.770,4.679,3.332,2.734,0,NONE,SEARCHING,0.000,0.800,0.090,-0.195,0,0
19:44:12.285,SEARCHING,13.648,0.494,1.984,0.00,0.00,41.21,2.257,5.894,4.588,3.286,2.770,0,NONE,SEARCHING,0.000,0.800,0.076,-0.186,0,0
19:44:12.486,SEARCHING,13.684,0.525,1.999,0.00,0.00,40.58,2.288,6.746,4.448,3.264,2.827,0,NONE,SEARCHING,0.000,0.800,0.064,-0.177,0,0
19:44:12.687,SEARCHING,13.721,0.556,2.011,0.00,0.00,39.99,2.298,6.787,4.387,3.233,2.875,0,NONE,SEARCHING,0.000,0.800,0.040,-0.170,0,0
19:44:12.888,SEARCHING,13.758,0.587,2.016,0.00,0.00,39.41,2.301,6.729,4.290,3.224,2.894,0,NONE,SEARCHING,0.000,0.800,0.010,-0.165,0,0
19:44:13.089,SEARCHING,13.883,0.687,2.016,0.00,0.00,37.52,2.309,6.335,4.120,3.209,2.907,0,NONE,SEARCHING,0.000,0.800,0.002,-0.159,0,0
19:44:13.289,SEARCHING,14.011,0.782,2.016,0.00,0.00,35.72,2.336,6.049,3.867,3.221,2.898,0,NONE,SEARCHING,0.000,0.800,0.001,-0.145,0,0
19:44:13.490,SEARCHING,14.142,0.874,2.016,0.00,0.00,34.07,2.374,5.777,3.689,3.190,2.897,0,NONE,SEARCHING,0.000,0.800,0.000,-0.130,0,0
19:44:13.691,SEARCHING,14.276,0.962,2.016,0.00,0.00,32.59,2.506,5.621,3.579,3.193,2.896,0,NONE,SEARCHING,0.000,0.800,0.000,-0.114,0,0
19:44:13.891,SEARCHING,14.412,1.047,2.016,0.00,0.00,31.35,3.033,5.404,3.456,3.223,2.908,0,NONE,SEARCHING,0.000,0.800,0.000,-0.065,0,0
19:44:14.091,SEARCHING,14.549,1.129,2.016,0.00,0.00,30.65,3.287,5.131,3.346,3.235,2.900,0,NONE,SEARCHING,0.000,0.800,0.000,-0.028,0,0
19:44:14.293,SEARCHING,14.687,1.210,2.016,0.00,0.00,30.45,6.802,4.998,3.248,3.248,2.897,0,NONE,SEARCHING,0.000,0.800,0.000,0.067,0,0
19:44:14.494,SEARCHING,14.824,1.292,2.016,0.00,0.00,31.33,7.694,4.922,3.170,3.228,2.889,0,NONE,SEARCHING,0.000,0.800,0.000,0.126,0,0
19:44:14.694,SEARCHING,14.960,1.377,2.016,0.00,0.00,32.79,7.840,4.808,3.200,3.231,2.896,0,NONE,SEARCHING,0.000,0.800,0.000,0.144,0,0
19:44:14.894,SEARCHING,15.093,1.465,2.016,0.00,0.00,34.44,6.563,4.691,3.211,3.177,2.910,0,NONE,SEARCHING,0.000,0.800,0.000,0.138,0,0
19:44:15.095,SEARCHING,15.224,1.557,2.016,0.00,0.00,36.00,5.420,4.615,3.281,3.198,2.902,0,NONE,SEARCHING,0.000,0.800,0.000,0.118,0,0
19:44:15.296,SEARCHING,15.352,1.653,2.016,0.00,0.00,37.33,4.353,4.647,3.263,3.231,2.879,0,NONE,SEARCHING,0.000,0.800,0.000,0.084,0,0
19:44:15.496,SEARCHING,15.479,1.751,2.016,0.00,0.00,38.27,4.118,4.619,3.279,3.238,2.883,0,NONE,SEARCHING,0.000,0.800,0.000,0.062,0,0
19:44:15.697,SEARCHING,15.604,1.851,2.016,0.00,0.00,38.95,3.980,4.564,3.300,3.228,2.895,0,NONE,SEARCHING,0.000,0.800,0.000,0.046,0,0
19:44:15.897,SEARCHING,15.728,1.952,2.016,0.00,0.00,39.46,3.834,4.566,3.245,3.205,2.896,0,NONE,SEARCHING,0.000,0.800,0.000,0.039,0,0
19:44:16.099,SEARCHING,15.851,2.054,2.016,0.00,0.00,39.92,4.048,4.575,3.230,3.256,2.896,0,NONE,SEARCHING,0.000,0.800,0.000,0.046,0,0
19:44:16.299,SEARCHING,15.973,2.157,2.016,0.00,0.00,40.46,4.255,4.506,3.238,3.228,2.896,0,NONE,SEARCHING,0.000,0.800,0.000,0.055,0,0
19:44:16.499,SEARCHING,16.095,2.261,2.016,0.00,0.00,41.09,4.225,4.483,3.242,3.238,2.896,0,NONE,SEARCHING,0.000,0.800,0.000,0.057,0,0
19:44:16.700,SEARCHING,16.215,2.367,2.016,0.00,0.00,41.75,4.206,4.460,3.146,3.220,2.896,0,NONE,SEARCHING,0.000,0.800,0.000,0.060,0,0
19:44:16.901,SEARCHING,16.333,2.474,2.016,0.00,0.00,42.45,4.189,4.490,2.963,3.212,2.922,0,NONE,SEARCHING,0.000,0.800,0.000,0.070,0,0
19:44:17.102,SEARCHING,16.451,2.583,2.016,0.00,0.00,43.27,4.137,4.487,2.796,3.192,2.960,0,NONE,SEARCHING,0.000,0.800,0.000,0.083,0,0
19:44:17.303,SEARCHING,16.567,2.694,2.016,0.00,0.00,44.24,4.017,4.468,2.666,3.191,3.091,0,NONE,SEARCHING,0.000,0.800,0.000,0.095,0,0
19:44:17.504,SEARCHING,16.680,2.806,2.016,0.00,0.00,45.33,3.883,4.573,2.687,3.242,3.396,0,NONE,SEARCHING,0.000,0.800,0.000,0.095,0,0
19:44:17.706,SEARCHING,16.792,2.921,2.016,0.00,0.00,46.41,3.766,4.595,2.664,3.231,3.658,0,NONE,SEARCHING,0.000,0.800,0.000,0.091,0,0
19:44:17.907,SEARCHING,16.901,3.038,2.016,0.00,0.00,47.44,3.525,4.739,2.644,3.215,3.782,0,NONE,SEARCHING,0.000,0.800,-0.017,0.083,0,0
19:44:18.108,SEARCHING,16.933,3.073,2.010,0.00,0.00,47.71,3.474,4.779,2.670,3.123,3.804,0,NONE,SEARCHING,0.000,0.800,-0.050,0.074,0,0
19:44:18.309,SEARCHING,16.966,3.109,1.999,0.00,0.00,47.96,3.438,4.776,2.673,3.198,3.798,0,NONE,SEARCHING,0.000,0.800,-0.058,0.069,0,0
19:44:18.511,SEARCHING,16.998,3.144,1.987,0.00,0.00,48.19,3.429,4.842,2.689,3.160,3.792,0,NONE,SEARCHING,0.000,0.800,-0.058,0.065,0,0
19:44:21.648,SEARCHING,17.030,3.180,1.976,0.00,0.00,48.41,3.384,4.888,2.675,3.282,3.785,0,NONE,SEARCHING,0.000,0.800,-0.039,0.063,0,0
19:44:21.851,SEARCHING,17.062,3.216,1.969,0.00,0.00,48.63,3.372,4.917,2.662,3.293,3.768,0,NONE,SEARCHING,0.000,0.800,-0.027,0.064,0,0
19:44:22.049,SEARCHING,17.093,3.252,1.965,0.00,0.00,48.85,3.353,4.984,2.635,3.294,3.799,0,NONE,SEARCHING,0.000,0.800,-0.007,0.064,0,0
19:44:22.251,SEARCHING,17.198,3.373,1.965,0.00,0.00,49.59,3.336,5.069,2.604,3.332,3.869,0,NONE,SEARCHING,0.000,0.800,-0.017,0.065,0,0
19:44:22.452,SEARCHING,17.229,3.410,1.959,0.00,0.00,49.82,3.305,5.130,2.601,3.335,3.877,0,NONE,SEARCHING,0.000,0.800,-0.044,0.066,0,0
19:44:22.655,SEARCHING,17.260,3.447,1.950,0.00,0.00,50.04,3.309,5.206,2.613,3.351,3.859,0,NONE,SEARCHING,0.000,0.800,-0.034,0.065,0,0
19:44:22.855,SEARCHING,17.291,3.483,1.945,0.00,0.00,50.26,3.281,5.201,2.646,3.391,3.876,0,NONE,SEARCHING,0.000,0.800,-0.008,0.062,0,0
19:44:23.056,SEARCHING,17.392,3.607,1.945,0.00,0.00,50.96,3.243,5.200,2.670,3.393,3.934,0,NONE,SEARCHING,0.000,0.800,-0.002,0.056,0,0
19:44:23.257,SEARCHING,17.492,3.732,1.945,0.00,0.00,51.60,3.193,5.183,2.649,3.393,3.943,0,NONE,SEARCHING,0.000,0.800,-0.000,0.054,0,0
19:44:23.458,SEARCHING,17.591,3.858,1.945,0.00,0.00,52.22,3.140,5.224,2.628,3.413,3.976,0,NONE,SEARCHING,0.000,0.800,-0.000,0.051,0,0
19:44:23.660,SEARCHING,17.655,3.940,1.944,0.00,0.00,52.59,3.142,5.291,2.669,3.404,4.011,0,NONE,SEARCHING,0.000,0.800,-0.036,0.047,0,0
19:44:23.861,SEARCHING,17.684,3.978,1.935,0.00,0.00,52.75,3.169,5.266,2.655,3.414,4.014,0,NONE,SEARCHING,0.000,0.800,-0.049,0.047,0,0
19:44:24.064,SEARCHING,17.713,4.017,1.925,0.00,0.00,52.92,3.177,5.242,2.642,3.426,4.014,0,NONE,SEARCHING,0.000,0.800,-0.052,0.050,0,0
19:44:24.265,SEARCHING,17.742,4.055,1.915,0.00,0.00,53.09,3.195,5.294,2.622,3.387,4.000,0,NONE,SEARCHING,0.000,0.800,-0.052,0.052,0,0
19:44:24.465,SEARCHING,17.770,4.093,1.904,0.00,0.00,53.27,3.159,5.273,2.605,3.462,3.977,0,NONE,SEARCHING,0.000,0.800,-0.039,0.054,0,0
19:44:24.666,SEARCHING,17.799,4.132,1.899,0.00,0.00,53.45,3.157,5.307,2.632,3.467,3.949,0,NONE,SEARCHING,0.000,0.800,-0.009,0.052,0,0
19:44:24.865,SEARCHING,17.894,4.261,1.899,0.00,0.00,54.04,3.128,5.431,2.632,3.500,3.981,0,NONE,SEARCHING,0.000,0.800,-0.002,0.050,0,0
19:44:25.066,SEARCHING,17.987,4.391,1.899,0.00,0.00,54.61,3.087,5.533,2.665,3.481,4.010,0,NONE,SEARCHING,0.000,0.800,-0.001,0.045,0,0
19:44:25.267,SEARCHING,18.079,4.521,1.899,0.00,0.00,55.11,3.027,5.640,2.662,3.488,4.096,0,NONE,SEARCHING,0.000,0.800,-0.015,0.040,0,0
19:44:25.468,SEARCHING,18.107,4.561,1.894,0.00,0.00,55.24,3.011,5.680,2.692,3.485,4.100,0,NONE,SEARCHING,0.000,0.800,-0.044,0.035,0,0
19:44:25.668,SEARCHING,18.134,4.600,1.884,0.00,0.00,55.36,3.005,5.665,2.678,3.496,4.088,0,NONE,SEARCHING,0.000,0.800,-0.034,0.032,0,0
19:44:25.869,SEARCHING,18.161,4.640,1.880,0.00,0.00,55.47,2.990,5.652,2.663,3.498,4.064,0,NONE,SEARCHING,0.000,0.800,-0.008,0.033,0,0
19:44:26.070,SEARCHING,18.252,4.772,1.880,0.00,0.00,55.84,2.979,5.778,2.745,3.559,4.057,0,NONE,SEARCHING,0.000,0.800,-0.002,0.029,0,0
19:44:26.271,SEARCHING,18.341,4.905,1.880,0.00,0.00,56.16,2.972,5.805,2.808,3.561,4.083,0,NONE,SEARCHING,0.000,0.800,-0.000,0.020,0,0
19:44:26.473,SEARCHING,18.430,5.038,1.880,0.00,0.00,56.39,2.969,5.868,2.743,3.574,4.086,0,NONE,SEARCHING,0.000,0.800,-0.000,0.020,0,0
19:44:26.674,SEARCHING,18.518,5.171,1.880,0.00,0.00,56.62,2.963,5.963,2.729,3.587,4.152,0,NONE,SEARCHING,0.000,0.800,-0.000,0.021,0,0
19:44:26.874,SEARCHING,18.606,5.305,1.880,0.00,0.00,56.86,2.937,5.927,2.796,3.628,4.159,0,NONE,SEARCHING,0.000,0.800,-0.000,0.018,0,0
19:44:27.075,SEARCHING,18.663,5.392,1.878,0.00,0.00,57.00,2.966,5.778,2.763,3.501,4.160,0,NONE,SEARCHING,0.000,0.800,-0.035,0.018,0,0
19:44:27.276,SEARCHING,18.689,5.432,1.870,0.00,0.00,57.06,2.961,5.880,2.734,3.558,4.160,0,NONE,SEARCHING,0.000,0.800,-0.032,0.021,0,0
19:44:27.476,SEARCHING,18.715,5.473,1.866,0.00,0.00,57.14,2.997,5.869,2.704,3.639,4.160,0,NONE,SEARCHING,0.000,0.800,-0.008,0.026,0,0
19:44:27.677,SEARCHING,18.801,5.607,1.866,0.00,0.00,57.44,3.005,5.925,2.726,3.608,4.211,0,NONE,SEARCHING,0.000,0.800,-0.002,0.028,0,0
19:44:27.878,SEARCHING,18.887,5.742,1.866,0.00,0.00,57.76,3.019,6.010,2.760,3.615,4.194,0,NONE,SEARCHING,0.000,0.800,-0.000,0.026,0,0
19:44:28.078,SEARCHING,18.972,5.878,1.866,0.00,0.00,58.06,3.013,6.101,2.739,3.615,4.176,0,NONE,SEARCHING,0.000,0.800,-0.000,0.026,0,0
19:44:28.279,SEARCHING,19.057,6.014,1.866,0.00,0.00,58.36,2.985,6.296,2.681,3.612,4.201,0,NONE,SEARCHING,0.000,0.800,-0.000,0.028,0,0
19:44:28.479,SEARCHING,19.111,6.102,1.864,0.00,0.00,58.57,2.988,6.337,2.717,3.595,4.233,0,NONE,SEARCHING,0.000,0.800,-0.033,0.028,0,0
19:44:28.681,SEARCHING,19.136,6.143,1.858,0.00,0.00,58.66,2.976,6.363,2.723,3.637,4.198,0,NONE,SEARCHING,0.000,0.800,-0.013,0.026,0,0
19:44:28.882,SEARCHING,19.190,6.232,1.857,0.00,0.00,58.86,2.966,6.431,2.686,3.542,4.223,0,NONE,SEARCHING,0.000,0.800,-0.020,0.026,0,0
19:44:29.083,SEARCHING,19.215,6.273,1.851,0.00,0.00,58.95,2.963,6.465,2.650,3.641,4.236,0,NONE,SEARCHING,0.000,0.800,-0.029,0.030,0,0
19:44:29.284,SEARCHING,19.239,6.314,1.847,0.00,0.00,59.06,2.959,6.420,2.635,3.600,4.179,0,NONE,SEARCHING,0.000,0.800,-0.007,0.032,0,0
19:44:29.484,SEARCHING,19.293,6.404,1.845,0.00,0.00,59.29,2.946,6.524,2.658,3.634,4.210,0,NONE,SEARCHING,0.000,0.800,-0.020,0.030,0,0
19:44:29.685,SEARCHING,19.346,6.493,1.843,0.00,0.00,59.52,2.930,6.576,2.684,3.592,4.229,0,NONE,SEARCHING,0.000,0.800,-0.020,0.027,0,0
19:44:29.885,SEARCHING,19.370,6.535,1.839,0.00,0.00,59.61,2.943,6.583,2.730,3.636,4.236,0,NONE,SEARCHING,0.000,0.800,-0.010,0.024,0,0
19:44:30.085,SEARCHING,19.451,6.673,1.839,0.00,0.00,59.89,2.932,6.614,2.705,3.639,4.177,0,NONE,SEARCHING,0.000,0.800,-0.002,0.024,0,0
19:44:30.287,SEARCHING,19.531,6.811,1.839,0.00,0.00,60.16,2.905,6.707,2.677,3.596,4.230,0,NONE,SEARCHING,0.000,0.800,-0.016,0.024,0,0
19:44:30.487,SEARCHING,19.555,6.853,1.836,0.00,0.00,60.24,2.897,6.656,2.707,3.662,4.197,0,NONE,SEARCHING,0.000,0.800,-0.009,0.022,0,0
19:44:30.688,SEARCHING,19.634,6.992,1.836,0.00,0.00,60.49,2.889,6.915,2.698,3.637,4.233,0,NONE,SEARCHING,0.000,0.800,-0.002,0.022,0,0
19:44:30.889,SEARCHING,19.712,7.131,1.836,0.00,0.00,60.73,2.905,7.091,2.744,3.686,4.198,0,NONE,SEARCHING,0.000,0.800,-0.001,0.018,0,0
19:44:31.089,SEARCHING,19.790,7.271,1.836,0.00,0.00,60.93,2.874,7.250,2.717,3.721,4.229,0,NONE,SEARCHING,0.000,0.800,-0.000,0.017,0,0
19:44:31.290,SEARCHING,19.868,7.411,1.836,0.00,0.00,61.13,2.873,7.234,2.711,3.707,4.236,0,NONE,SEARCHING,0.000,0.800,-0.000,0.017,0,0
19:44:31.490,SEARCHING,19.945,7.551,1.836,0.00,0.00,61.31,2.823,7.233,2.762,3.706,4.237,0,NONE,SEARCHING,0.000,0.800,-0.000,0.011,0,0
19:44:31.691,SEARCHING,20.021,7.692,1.836,0.00,0.00,61.43,2.863,7.143,2.723,3.668,4.237,0,NONE,SEARCHING,0.000,0.800,-0.000,0.011,0,0
19:44:31.893,SEARCHING,20.098,7.832,1.836,0.00,0.00,61.56,2.861,7.281,2.707,3.685,4.237,0,NONE,SEARCHING,0.000,0.800,-0.000,0.014,0,0
19:44:32.093,SEARCHING,20.174,7.973,1.836,0.00,0.00,61.72,2.819,7.293,2.766,3.645,4.237,0,NONE,SEARCHING,0.000,0.800,-0.000,0.012,0,0
19:44:32.295,SEARCHING,20.223,8.065,1.834,0.00,0.00,61.81,2.792,7.343,2.756,3.636,4.237,0,NONE,SEARCHING,0.000,0.800,-0.018,0.006,0,0
19:44:32.494,SEARCHING,20.272,8.156,1.832,0.00,0.00,61.84,2.814,7.385,2.737,3.629,4.273,0,NONE,SEARCHING,0.000,0.800,-0.004,0.005,0,0
19:44:32.696,SEARCHING,20.348,8.298,1.832,0.00,0.00,61.91,2.870,7.388,2.756,3.675,4.295,0,NONE,SEARCHING,0.000,0.800,-0.001,0.009,0,0
19:44:32.897,SEARCHING,20.423,8.439,1.832,0.00,0.00,62.01,2.846,7.428,2.782,3.689,4.244,0,NONE,SEARCHING,0.000,0.800,-0.000,0.009,0,0
19:44:33.098,SEARCHING,20.498,8.580,1.832,0.00,0.00,62.11,2.868,7.646,2.847,3.689,4.238,0,NONE,SEARCHING,0.000,0.800,-0.000,0.005,0,0
19:44:33.298,SEARCHING,20.573,8.722,1.832,0.00,0.00,62.17,2.871,7.869,2.783,3.702,4.286,0,NONE,SEARCHING,0.000,0.800,-0.000,0.005,0,0
19:44:33.499,SEARCHING,20.647,8.863,1.832,0.00,0.00,62.23,2.867,7.829,2.793,3.715,4.314,0,NONE,SEARCHING,0.000,0.800,-0.000,0.007,0,0
19:44:33.701,SEARCHING,20.722,9.005,1.832,0.00,0.00,62.31,2.847,7.684,2.833,3.678,4.276,0,NONE,SEARCHING,0.000,0.800,-0.000,0.006,0,0
19:44:33.902,SEARCHING,20.770,9.097,1.831,0.00,0.00,62.35,2.853,6.762,2.843,3.664,4.310,0,NONE,SEARCHING,0.000,0.800,-0.018,0.001,0,0
19:44:34.102,SEARCHING,20.818,9.189,1.829,0.00,0.00,62.36,2.852,6.308,2.799,3.689,4.275,0,NONE,SEARCHING,0.000,0.800,-0.004,0.003,0,0
19:44:34.304,SEARCHING,20.892,9.331,1.829,0.00,0.00,62.39,2.854,6.029,2.802,3.658,4.283,0,NONE,SEARCHING,0.000,0.800,-0.001,0.005,0,0
19:44:34.505,SEARCHING,20.941,9.423,1.827,0.00,0.00,62.43,2.883,5.886,2.784,3.605,4.313,0,NONE,SEARCHING,0.000,0.800,-0.036,0.007,0,0
19:44:34.708,SEARCHING,20.963,9.465,1.818,0.00,0.00,62.46,2.858,5.840,2.784,3.597,4.281,0,NONE,SEARCHING,0.000,0.800,-0.050,0.009,0,0
19:44:34.909,SEARCHING,20.985,9.508,1.810,0.00,0.00,62.49,2.826,5.734,2.833,3.644,4.242,0,NONE,SEARCHING,0.000,0.800,-0.017,0.005,0,0
19:44:35.109,SEARCHING,21.033,9.600,1.809,0.00,0.00,62.51,2.820,5.616,2.826,3.722,4.238,0,NONE,SEARCHING,0.000,0.800,-0.004,0.000,0,0
19:44:35.309,SEARCHING,21.107,9.742,1.809,0.00,0.00,62.51,2.782,5.253,2.794,3.766,4.214,0,NONE,SEARCHING,0.000,0.800,-0.001,-0.001,0,0
19:44:35.509,SEARCHING,21.181,9.884,1.809,0.00,0.00,62.50,2.774,5.464,2.799,3.774,4.212,0,NONE,SEARCHING,0.000,0.800,-0.000,-0.001,0,0
19:44:35.710,SEARCHING,21.255,10.026,1.809,0.00,0.00,62.49,2.792,6.162,2.768,3.734,4.234,0,NONE,SEARCHING,0.000,0.800,-0.000,-0.000,0,0
19:44:35.911,SEARCHING,21.329,10.168,1.809,0.00,0.00,62.49,2.785,5.681,2.735,3.761,4.237,0,NONE,SEARCHING,0.000,0.800,-0.000,0.004,0,0
19:44:36.113,SEARCHING,21.402,10.310,1.809,0.00,0.00,62.53,2.809,3.673,2.725,3.721,4.261,0,NONE,SEARCHING,0.000,0.800,-0.000,0.007,0,0
19:44:36.312,SEARCHING,21.476,10.452,1.809,0.00,0.00,62.61,2.788,3.045,2.784,3.456,4.246,0,NONE,SEARCHING,0.000,0.800,-0.019,0.003,0,0
19:44:36.514,SEARCHING,21.498,10.495,1.802,0.00,0.00,62.61,2.788,3.001,2.752,3.154,4.238,0,NONE,SEARCHING,0.000,0.800,-0.068,0.002,0,0
19:44:36.714,SEARCHING,21.520,10.537,1.785,0.00,0.00,62.62,2.783,2.828,2.735,2.893,4.198,0,NONE,SEARCHING,0.000,0.800,-0.107,0.004,0,0
19:44:36.914,SEARCHING,21.542,10.580,1.762,0.00,0.00,62.64,2.749,2.851,2.699,2.927,4.165,0,NONE,SEARCHING,0.000,0.800,-0.121,0.005,0,0
19:44:37.115,SEARCHING,21.564,10.622,1.738,0.00,0.00,62.66,2.773,2.867,2.716,2.961,4.123,0,NONE,SEARCHING,0.000,0.800,-0.118,0.005,0,0
19:44:37.316,SEARCHING,21.586,10.665,1.714,0.00,0.00,62.67,2.788,2.770,2.723,2.804,4.043,0,NONE,SEARCHING,0.000,0.800,-0.123,0.006,0,0
19:44:37.515,SEARCHING,21.609,10.708,1.689,0.00,0.00,62.70,2.797,2.701,2.769,2.733,3.967,0,NONE,SEARCHING,0.000,0.800,-0.133,0.005,0,0
19:44:37.717,SEARCHING,21.631,10.750,1.662,0.00,0.00,62.71,2.791,5.253,2.735,2.752,3.859,0,NONE,SEARCHING,0.000,0.800,-0.131,0.004,0,0
19:44:37.917,SEARCHING,21.653,10.793,1.636,0.00,0.00,62.73,2.781,6.761,2.704,2.705,3.832,0,NONE,SEARCHING,0.000,0.800,-0.129,0.007,0,0
19:44:38.118,SEARCHING,21.675,10.836,1.610,0.00,0.00,62.76,2.775,7.256,2.722,2.684,3.768,0,NONE,SEARCHING,0.000,0.800,-0.129,0.007,0,0
19:44:38.319,SEARCHING,21.696,10.878,1.585,0.00,0.00,62.77,2.739,7.367,2.814,2.669,3.685,0,NONE,SEARCHING,0.000,0.800,-0.126,-0.001,0,0
19:44:38.520,SEARCHING,21.718,10.921,1.560,0.00,0.00,62.76,2.743,7.379,2.827,2.624,3.624,0,NONE,SEARCHING,0.000,0.800,-0.126,-0.007,0,0
19:44:38.720,SEARCHING,21.740,10.964,1.535,0.00,0.00,62.73,2.753,7.381,2.825,2.546,3.550,0,NONE,SEARCHING,0.000,0.800,-0.128,-0.008,0,0
19:44:38.922,SEARCHING,21.762,11.006,1.509,0.00,0.00,62.70,2.783,7.381,2.815,2.526,3.479,0,NONE,SEARCHING,0.000,0.800,-0.130,-0.006,0,0
19:44:39.122,SEARCHING,21.784,11.049,1.482,0.00,0.00,62.69,2.765,7.381,2.772,2.399,3.410,0,NONE,SEARCHING,0.000,0.800,-0.141,-0.003,0,0
19:44:39.325,SEARCHING,21.806,11.092,1.453,0.00,0.00,62.68,2.749,7.243,2.746,2.367,3.338,0,NONE,SEARCHING,0.000,0.800,-0.144,-0.001,0,0
19:44:39.525,SEARCHING,21.829,11.134,1.424,0.00,0.00,62.68,2.795,7.166,2.752,2.322,3.270,0,NONE,SEARCHING,0.000,0.800,-0.149,0.003,0,0
19:44:39.724,SEARCHING,21.851,11.177,1.394,0.00,0.00,62.70,2.818,7.152,2.760,2.295,3.204,0,NONE,SEARCHING,0.000,0.800,-0.149,0.004,0,0
19:44:39.926,SEARCHING,21.873,11.220,1.365,0.00,0.00,62.72,2.809,7.151,2.743,2.275,3.135,0,NONE,SEARCHING,0.000,0.800,-0.147,0.006,0,0
19:44:40.126,SEARCHING,21.895,11.262,1.336,0.00,0.00,62.74,2.808,7.151,2.712,2.245,3.041,0,NONE,SEARCHING,0.000,0.800,-0.143,0.008,0,0
19:44:40.327,SEARCHING,21.917,11.305,1.307,0.00,0.00,62.77,2.802,7.151,2.688,2.221,2.962,0,NONE,SEARCHING,0.000,0.800,-0.138,0.010,0,0
19:44:40.529,SEARCHING,21.938,11.348,1.280,0.00,0.00,62.81,2.788,7.151,2.731,2.186,2.888,0,NONE,SEARCHING,0.000,0.800,-0.138,0.009,0,0
19:44:40.729,SEARCHING,21.960,11.390,1.253,0.00,0.00,62.83,2.794,7.073,2.770,2.158,2.816,0,NONE,SEARCHING,0.000,0.800,-0.130,0.005,0,0
19:44:40.929,SEARCHING,21.982,11.433,1.227,0.00,0.00,62.84,2.786,6.950,2.779,2.134,2.749,0,NONE,SEARCHING,0.000,0.800,-0.129,0.002,0,0
19:44:41.131,SEARCHING,22.004,11.476,1.201,0.00,0.00,62.85,2.780,6.936,2.767,2.113,2.680,0,NONE,SEARCHING,0.000,0.800,-0.125,0.001,0,0
19:44:41.331,SEARCHING,22.026,11.518,1.176,0.00,0.00,62.85,2.774,6.934,2.732,2.136,2.607,0,NONE,SEARCHING,0.000,0.800,-0.116,0.003,0,0
19:44:41.533,SEARCHING,22.048,11.561,1.161,0.00,0.00,62.87,2.780,6.873,2.722,4.324,2.560,0,NONE,SEARCHING,0.000,0.800,0.049,0.005,0,0
19:44:41.737,SEARCHING,22.070,11.604,1.181,0.00,0.00,62.89,2.762,6.927,2.729,4.979,2.575,0,NONE,SEARCHING,0.000,0.800,0.162,0.005,0,0
19:44:41.939,SEARCHING,22.092,11.647,1.214,0.00,0.00,62.90,2.743,6.933,2.740,3.060,2.661,0,NONE,SEARCHING,0.000,0.800,0.124,0.001,0,0
19:44:42.140,SEARCHING,22.114,11.689,1.234,0.00,0.00,62.90,2.755,6.873,2.770,2.792,2.722,0,NONE,SEARCHING,0.000,0.800,0.062,-0.000,0,0
19:44:42.341,SEARCHING,22.136,11.732,1.239,0.00,0.00,62.90,2.790,6.860,2.767,3.732,2.734,0,NONE,SEARCHING,0.000,0.800,0.021,0.001,0,0
19:44:42.541,SEARCHING,22.157,11.775,1.251,0.00,0.00,62.90,2.747,6.741,2.758,5.025,2.772,0,NONE,SEARCHING,0.000,0.800,0.140,0.001,0,0
19:44:42.742,SEARCHING,22.179,11.818,1.284,0.00,0.00,62.90,2.723,6.731,2.757,3.147,2.884,0,NONE,SEARCHING,0.000,0.800,0.123,-0.002,0,0
19:44:42.943,SEARCHING,22.201,11.860,1.303,0.00,0.00,62.89,2.773,6.730,2.762,3.919,2.953,0,NONE,SEARCHING,0.000,0.800,0.092,-0.001,0,0
19:44:43.144,SEARCHING,22.223,11.903,1.321,0.00,0.00,62.89,2.737,6.690,2.793,3.568,2.990,0,NONE,SEARCHING,0.000,0.800,0.075,-0.002,0,0
19:44:43.345,SEARCHING,22.245,11.946,1.336,0.00,0.00,62.88,2.776,6.638,2.794,4.602,3.008,0,NONE,SEARCHING,0.000,0.800,0.102,-0.004,0,0
19:44:43.546,SEARCHING,22.267,11.988,1.359,0.00,0.00,62.87,2.767,6.569,2.769,3.770,3.055,0,NONE,SEARCHING,0.000,0.800,0.105,-0.001,0,0
19:44:43.747,SEARCHING,22.289,12.031,1.379,0.00,0.00,62.87,2.767,6.503,2.758,4.043,3.107,0,NONE,SEARCHING,0.000,0.800,0.102,0.000,0,0
19:44:43.947,SEARCHING,22.311,12.074,1.400,0.00,0.00,62.87,2.773,6.425,2.757,3.805,3.151,0,NONE,SEARCHING,0.000,0.800,0.097,0.001,0,0
19:44:44.149,SEARCHING,22.332,12.117,1.415,0.00,0.00,62.88,2.759,6.524,2.742,3.386,3.209,0,NONE,SEARCHING,0.000,0.800,0.030,0.002,0,0
19:44:44.349,SEARCHING,22.354,12.159,1.422,0.00,0.00,62.88,2.729,6.313,2.708,3.828,3.260,0,NONE,SEARCHING,0.000,0.800,0.051,0.002,0,0
19:44:44.549,SEARCHING,22.376,12.202,1.434,0.00,0.00,62.89,2.687,6.351,2.709,4.657,3.292,0,NONE,SEARCHING,0.000,0.800,0.085,-0.001,0,0
19:44:44.749,SEARCHING,22.398,12.245,1.452,0.00,0.00,62.88,2.690,6.355,2.733,4.666,3.303,0,NONE,SEARCHING,0.000,0.800,0.102,-0.003,0,0
19:44:44.950,SEARCHING,22.420,12.287,1.473,0.00,0.00,62.87,2.733,6.217,2.698,4.653,3.325,0,NONE,SEARCHING,0.000,0.800,0.103,0.000,0,0
19:44:45.152,SEARCHING,22.442,12.330,1.493,0.00,0.00,62.93,3.923,6.188,2.686,4.536,3.386,0,NONE,SEARCHING,0.000,0.800,0.096,0.049,0,0
19:44:45.352,SEARCHING,22.464,12.373,1.512,0.00,0.00,63.14,4.200,6.185,3.903,4.490,3.427,0,NONE,SEARCHING,0.000,0.800,0.088,0.048,0,0
19:44:45.552,SEARCHING,22.485,12.416,1.529,0.00,0.00,63.24,4.258,6.103,4.372,4.459,3.462,0,NONE,SEARCHING,0.000,0.800,0.081,0.013,0,0
19:44:45.753,SEARCHING,22.507,12.459,1.545,0.00,0.00,63.25,4.305,6.031,4.467,4.459,3.539,0,NONE,SEARCHING,0.000,0.800,0.075,-0.002,0,0
19:44:45.953,SEARCHING,22.528,12.502,1.559,0.00,0.00,63.24,4.358,5.990,4.523,4.399,3.600,0,NONE,SEARCHING,0.000,0.800,0.067,-0.006,0,0
19:44:46.154,SEARCHING,22.550,12.544,1.572,0.00,0.00,63.22,4.328,5.949,4.511,4.394,3.647,0,NONE,SEARCHING,0.000,0.800,0.059,-0.007,0,0
19:44:46.354,SEARCHING,22.572,12.587,1.584,0.00,0.00,63.19,4.364,5.877,4.522,4.337,3.685,0,NONE,SEARCHING,0.000,0.800,0.039,-0.007,0,0
19:44:46.555,SEARCHING,22.593,12.630,1.589,0.00,0.00,63.17,4.354,5.863,4.550,4.320,3.690,0,NONE,SEARCHING,0.000,0.800,0.009,-0.007,0,0
19:44:46.757,SEARCHING,22.666,12.773,1.589,0.00,0.00,63.08,4.324,5.770,4.512,4.347,3.691,0,NONE,SEARCHING,0.000,0.800,0.002,-0.007,0,0
19:44:46.956,SEARCHING,22.738,12.915,1.589,0.00,0.00,63.01,4.295,5.650,4.528,4.321,3.691,0,NONE,SEARCHING,0.000,0.800,0.001,-0.008,0,0
19:44:47.158,SEARCHING,22.811,13.058,1.589,0.00,0.00,62.92,4.341,5.492,4.491,4.319,3.699,0,NONE,SEARCHING,0.000,0.800,0.000,-0.007,0,0
19:44:47.359,SEARCHING,22.884,13.200,1.589,0.00,0.00,62.84,4.358,5.389,4.456,4.338,3.692,0,NONE,SEARCHING,0.000,0.800,0.000,-0.005,0,0
19:44:47.559,SEARCHING,22.957,13.343,1.589,0.00,0.00,62.78,4.257,5.257,4.343,4.225,3.691,0,NONE,SEARCHING,0.000,0.800,0.000,-0.003,0,0
19:44:47.760,SEARCHING,23.030,13.485,1.589,0.00,0.00,62.74,4.217,5.131,4.366,4.243,3.691,0,NONE,SEARCHING,0.000,0.800,0.000,-0.005,0,0
19:44:47.960,SEARCHING,23.104,13.627,1.589,0.00,0.00,62.69,4.333,4.967,4.358,4.258,3.691,0,NONE,SEARCHING,0.000,0.800,0.000,-0.002,0,0
19:44:48.161,SEARCHING,23.177,13.769,1.589,0.00,0.00,62.67,4.305,4.880,5.198,4.248,3.706,0,NONE,SEARCHING,0.000,0.800,0.000,-0.013,0,0
19:44:48.362,SEARCHING,23.251,13.911,1.589,0.00,0.00,62.49,4.167,4.780,5.982,4.242,3.692,0,NONE,SEARCHING,0.000,0.800,0.000,-0.041,0,0
19:44:48.563,SEARCHING,23.325,14.053,1.589,0.00,0.00,62.00,4.020,4.690,5.856,4.287,3.691,0,NONE,SEARCHING,0.000,0.800,0.000,-0.056,0,0
19:44:48.763,SEARCHING,23.401,14.194,1.589,0.00,0.00,61.34,3.805,4.590,5.719,4.221,3.691,0,NONE,SEARCHING,0.000,0.800,0.000,-0.065,0,0
19:44:48.964,SEARCHING,23.478,14.334,1.589,0.00,0.00,60.59,3.611,4.497,5.407,4.281,3.718,0,NONE,SEARCHING,0.000,0.800,0.000,-0.071,0,0
19:44:49.164,SEARCHING,23.558,14.473,1.589,0.00,0.00,59.77,3.467,4.408,5.428,4.176,3.734,0,NONE,SEARCHING,0.000,0.800,0.000,-0.077,0,0
19:44:49.366,SEARCHING,23.639,14.610,1.589,0.00,0.00,58.88,3.342,4.302,5.325,4.203,3.720,0,NONE,SEARCHING,0.000,0.800,0.000,-0.085,0,0
19:44:49.565,SEARCHING,23.723,14.747,1.589,0.00,0.00,57.90,3.233,4.245,5.299,3.964,3.734,0,NONE,SEARCHING,0.000,0.800,0.000,-0.092,0,0
19:44:49.767,SEARCHING,23.809,14.882,1.589,0.00,0.00,56.84,3.165,4.238,5.160,3.858,3.736,0,NONE,SEARCHING,0.000,0.800,0.000,-0.095,0,0
19:44:49.967,SEARCHING,23.898,15.015,1.589,0.00,0.00,55.74,3.080,4.141,4.856,3.632,3.640,0,NONE,SEARCHING,0.000,0.800,0.000,-0.097,0,0
19:44:50.168,SEARCHING,23.989,15.146,1.589,0.00,0.00,54.64,3.004,4.008,4.308,3.436,3.493,0,NONE,SEARCHING,0.000,0.800,0.000,-0.089,0,0
19:44:50.369,SEARCHING,24.083,15.276,1.589,0.00,0.00,53.63,2.946,3.977,4.040,3.325,3.287,0,NONE,SEARCHING,0.000,0.800,0.000,-0.079,0,0
19:44:50.569,SEARCHING,24.178,15.404,1.589,0.00,0.00,52.73,2.879,3.874,3.843,3.245,3.045,0,NONE,SEARCHING,0.000,0.800,0.000,-0.073,0,0
19:44:50.770,SEARCHING,24.276,15.531,1.589,0.00,0.00,51.90,2.809,3.800,3.740,3.196,2.878,0,NONE,SEARCHING,0.000,0.800,0.000,-0.070,0,0
19:44:50.971,SEARCHING,24.376,15.656,1.589,0.00,0.00,51.10,2.743,3.707,3.627,3.146,2.769,0,NONE,SEARCHING,0.000,0.800,0.016,-0.071,0,0
19:44:51.173,SEARCHING,24.406,15.693,1.594,0.00,0.00,50.86,2.708,3.663,3.529,3.151,2.725,0,NONE,SEARCHING,0.000,0.800,0.047,-0.072,0,0
19:44:51.374,SEARCHING,24.436,15.731,1.605,0.00,0.00,50.61,2.671,3.619,3.529,3.136,2.714,0,NONE,SEARCHING,0.000,0.800,0.057,-0.072,0,0
19:44:51.576,SEARCHING,24.467,15.768,1.616,0.00,0.00,50.36,2.667,3.600,3.497,3.100,2.722,0,NONE,SEARCHING,0.000,0.800,0.055,-0.072,0,0
19:44:51.776,SEARCHING,24.497,15.805,1.627,0.00,0.00,50.12,2.648,3.579,3.493,3.049,2.731,0,NONE,SEARCHING,0.000,0.800,0.037,-0.072,0,0
19:44:51.977,SEARCHING,24.528,15.841,1.632,0.00,0.00,49.87,2.619,3.576,3.400,3.022,2.746,0,NONE,SEARCHING,0.000,0.800,0.009,-0.071,0,0
19:44:52.178,SEARCHING,24.632,15.963,1.632,0.00,0.00,49.06,2.558,3.515,3.253,3.006,2.728,0,NONE,SEARCHING,0.000,0.800,0.002,-0.071,0,0
19:44:52.378,SEARCHING,24.738,16.083,1.632,0.00,0.00,48.26,2.499,3.413,3.102,3.008,2.725,0,NONE,SEARCHING,0.000,0.800,0.001,-0.065,0,0
19:44:52.582,SEARCHING,24.845,16.202,1.632,0.00,0.00,47.51,2.450,3.327,3.021,3.008,2.708,0,NONE,SEARCHING,0.000,0.800,0.000,-0.063,0,0
19:44:52.782,SEARCHING,24.954,16.319,1.632,0.00,0.00,46.79,2.380,3.208,2.894,2.981,2.713,0,NONE,SEARCHING,0.000,0.800,0.000,-0.060,0,0
19:44:52.985,SEARCHING,25.064,16.435,1.632,0.00,0.00,46.10,2.296,3.071,2.790,3.000,2.750,0,NONE,SEARCHING,0.000,0.800,0.000,-0.061,0,0
19:44:53.185,SEARCHING,25.176,16.550,1.632,0.00,0.00,45.41,2.240,2.969,2.642,2.966,2.735,0,NONE,SEARCHING,0.000,0.800,0.000,-0.058,0,0
19:44:53.386,SEARCHING,25.288,16.663,1.632,0.00,0.00,44.75,2.147,2.872,2.465,2.898,2.725,0,NONE,SEARCHING,0.000,0.800,0.000,-0.052,0,0
19:44:53.587,SEARCHING,25.403,16.775,1.632,0.00,0.00,44.16,2.089,2.804,2.375,2.817,2.717,0,NONE,SEARCHING,0.000,0.800,0.000,-0.048,0,0
19:44:53.788,SEARCHING,25.518,16.886,1.632,0.00,0.00,43.61,2.007,2.576,2.217,2.705,2.692,0,NONE,SEARCHING,0.000,0.800,0.000,-0.044,0,0
19:44:56.762,SEARCHING,25.634,16.996,1.632,0.00,0.00,43.11,1.991,2.541,2.206,2.692,2.683,0,NONE,SEARCHING,0.000,0.800,0.000,-0.040,0,0
19:44:56.788,SEARCHING,25.751,17.105,1.632,0.00,0.00,42.65,1.991,2.541,2.206,2.692,2.683,0,NONE,SEARCHING,0.000,0.800,0.000,-0.039,0,0
19:44:56.937,SEARCHING,25.869,17.213,1.632,0.00,0.00,42.20,1.846,2.272,1.956,2.279,2.529,0,NONE,SEARCHING,0.000,0.800,-0.016,-0.035,0,0
19:44:57.129,SEARCHING,25.905,17.245,1.625,0.00,0.00,42.10,1.741,2.077,1.813,1.993,2.425,0,NONE,SEARCHING,0.000,0.800,-0.073,-0.024,0,0
19:44:57.327,SEARCHING,25.941,17.278,1.608,0.00,0.00,42.03,1.709,2.055,1.820,1.977,2.378,0,NONE,SEARCHING,0.000,0.796,-0.097,-0.023,0,0
19:44:57.528,SEARCHING,25.976,17.309,1.588,0.00,0.00,41.94,1.668,2.039,1.844,1.928,2.340,0,NONE,SEARCHING,0.000,0.783,-0.103,-0.033,0,0
19:44:57.729,SEARCHING,26.011,17.341,1.566,0.00,0.00,41.80,1.622,2.096,1.890,1.882,2.308,0,NONE,SEARCHING,0.000,0.790,-0.112,-0.055,0,0
19:44:57.930,SEARCHING,26.046,17.372,1.544,0.00,0.00,41.57,1.582,2.172,2.038,1.854,2.289,0,NONE,SEARCHING,0.000,0.798,-0.118,-0.084,0,0
19:44:58.131,SEARCHING,26.082,17.404,1.520,0.00,0.00,41.22,1.542,2.215,2.179,1.810,2.271,0,NONE,SEARCHING,0.000,0.799,-0.126,-0.125,0,0
19:44:58.330,SEARCHING,26.119,17.436,1.494,0.00,0.00,40.73,1.509,2.256,2.224,1.761,2.261,0,NONE,SEARCHING,0.000,0.800,-0.139,-0.155,0,0
19:44:58.531,SEARCHING,26.155,17.467,1.465,0.00,0.00,40.16,1.495,2.254,2.461,1.705,2.246,0,NONE,SEARCHING,0.000,0.800,-0.157,-0.185,0,0
19:44:58.732,SEARCHING,26.192,17.498,1.432,0.00,0.00,39.47,1.483,2.263,2.623,1.659,2.217,0,NONE,SEARCHING,0.000,0.800,-0.173,-0.216,0,0
19:44:58.932,SEARCHING,26.229,17.528,1.396,0.00,0.00,38.69,1.478,2.265,2.882,1.613,2.162,0,NONE,SEARCHING,0.000,0.800,-0.185,-0.241,0,0
19:44:59.133,SEARCHING,26.267,17.558,1.359,0.00,0.00,37.81,1.470,2.303,3.106,1.564,2.084,0,NONE,SEARCHING,0.000,0.800,-0.191,-0.271,0,0
19:44:59.334,SEARCHING,26.305,17.587,1.321,0.00,0.00,36.86,1.475,2.340,3.253,1.513,1.975,0,NONE,SEARCHING,0.000,0.800,-0.189,-0.286,0,0
19:44:59.534,SEARCHING,26.343,17.616,1.283,0.00,0.00,35.83,1.476,2.357,3.984,1.502,1.869,0,NONE,SEARCHING,0.000,0.800,-0.172,-0.317,0,0
19:44:59.734,SEARCHING,26.382,17.643,1.251,0.00,0.00,34.67,1.485,2.385,5.572,1.512,1.758,0,NONE,SEARCHING,0.000,0.800,-0.140,-0.363,0,0
19:44:59.936,SEARCHING,26.422,17.670,1.225,0.00,0.00,33.37,1.503,2.421,6.092,1.504,1.682,0,NONE,SEARCHING,0.000,0.800,-0.105,-0.391,0,0
19:45:00.136,SEARCHING,26.463,17.696,1.207,0.00,0.00,32.01,1.522,2.461,6.243,1.553,1.646,0,NONE,SEARCHING,0.000,0.800,-0.056,-0.397,0,0
19:45:00.337,SEARCHING,26.503,17.721,1.200,0.00,0.00,30.65,1.537,2.556,6.240,1.589,1.619,0,NONE,SEARCHING,0.000,0.800,-0.013,-0.395,0,0
19:45:00.537,SEARCHING,26.594,17.773,1.199,0.00,0.00,27.72,1.586,2.707,5.993,1.616,1.633,0,NONE,SEARCHING,0.000,0.800,-0.003,-0.384,0,0
19:45:00.739,SEARCHING,26.738,17.842,1.199,0.00,0.00,23.35,1.698,2.908,5.786,1.628,1.626,0,NONE,SEARCHING,0.000,0.800,-0.001,-0.356,0,0
19:45:00.939,SEARCHING,26.887,17.901,1.199,0.00,0.00,19.29,1.801,3.018,5.647,1.599,1.614,0,NONE,SEARCHING,0.000,0.800,-0.000,-0.324,0,0
19:45:01.139,SEARCHING,27.039,17.949,1.199,0.00,0.00,15.62,1.988,5.670,5.222,1.622,1.621,0,NONE,SEARCHING,0.000,0.800,-0.000,-0.283,0,0
19:45:01.340,SEARCHING,27.195,17.988,1.199,0.00,0.00,12.44,2.118,6.267,4.869,1.602,1.621,0,NONE,SEARCHING,0.000,0.800,-0.000,-0.238,0,0
19:45:01.540,SEARCHING,27.352,18.019,1.199,0.00,0.00,9.76,2.208,5.926,4.574,1.620,1.609,0,NONE,SEARCHING,0.000,0.800,-0.000,-0.206,0,0
19:45:01.741,SEARCHING,27.510,18.043,1.199,0.00,0.00,7.42,2.486,5.804,4.338,1.619,1.603,0,NONE,SEARCHING,0.000,0.800,-0.000,-0.176,0,0
19:45:01.942,SEARCHING,27.669,18.061,1.199,0.00,0.00,5.49,3.157,5.534,4.175,1.625,1.613,0,NONE,SEARCHING,0.000,0.800,-0.000,-0.104,0,0
19:45:02.142,SEARCHING,27.828,18.075,1.199,0.00,0.00,4.43,5.842,5.395,4.021,1.627,1.626,0,NONE,SEARCHING,0.000,0.800,-0.000,-0.002,0,0
19:45:02.344,SEARCHING,27.988,18.087,1.199,0.00,0.00,4.49,6.244,5.220,3.896,1.622,1.600,0,NONE,SEARCHING,0.000,0.800,-0.000,0.055,0,0
19:45:02.544,SEARCHING,28.147,18.101,1.199,0.00,0.00,5.15,6.212,5.065,3.810,1.603,1.618,0,NONE,SEARCHING,0.000,0.800,-0.000,0.074,0,0
19:45:02.745,SEARCHING,28.306,18.116,1.199,0.00,0.00,6.00,6.153,4.991,3.791,1.609,1.629,0,NONE,SEARCHING,0.000,0.800,-0.000,0.079,0,0
19:45:02.946,SEARCHING,28.465,18.134,1.199,0.00,0.00,6.91,6.121,4.912,3.797,1.630,1.618,0,NONE,SEARCHING,0.000,0.800,-0.000,0.079,0,0
19:45:03.146,SEARCHING,28.624,18.154,1.199,0.00,0.00,7.82,5.977,4.767,3.738,1.625,1.607,0,NONE,SEARCHING,0.000,0.800,-0.000,0.080,0,0
19:45:03.348,SEARCHING,28.782,18.177,1.199,0.00,0.00,8.74,5.891,4.703,3.719,1.622,1.611,0,NONE,SEARCHING,0.000,0.800,-0.000,0.079,0,0
19:45:03.548,SEARCHING,28.940,18.202,1.199,0.00,0.00,9.64,5.751,4.596,3.719,1.632,1.608,0,NONE,SEARCHING,0.000,0.800,-0.000,0.078,0,0
19:45:03.750,SEARCHING,29.098,18.230,1.199,0.00,0.00,10.53,5.653,4.552,3.682,1.618,1.880,0,NONE,SEARCHING,0.000,0.800,-0.031,0.077,0,0
19:45:03.953,SEARCHING,29.145,18.239,1.185,0.00,0.00,10.80,5.604,4.494,3.685,1.629,2.462,0,NONE,SEARCHING,0.000,0.800,-0.158,0.076,0,0
19:45:04.160,SEARCHING,29.192,18.248,1.151,0.00,0.00,11.05,5.594,4.449,3.690,1.671,1.778,0,NONE,SEARCHING,0.000,0.800,-0.107,0.075,0,0
19:45:04.359,SEARCHING,29.239,18.258,1.140,0.00,0.00,11.31,5.513,4.406,3.658,1.756,1.434,0,NONE,SEARCHING,0.000,0.800,0.050,0.074,0,0
19:45:04.561,SEARCHING,29.286,18.267,1.150,0.00,0.00,11.56,5.465,4.364,3.635,1.732,2.325,0,NONE,SEARCHING,0.000,0.800,-0.047,0.074,0,0
19:45:04.760,SEARCHING,29.333,18.277,1.131,0.00,0.00,11.82,5.457,4.323,3.663,1.763,2.478,0,NONE,SEARCHING,0.000,0.800,-0.160,0.073,0,0
19:45:04.962,SEARCHING,29.380,18.287,1.096,0.00,0.00,12.07,5.449,4.282,3.652,1.860,2.411,0,NONE,SEARCHING,0.000,0.800,-0.165,0.072,0,0
19:45:05.165,SEARCHING,29.427,18.297,1.067,0.00,0.00,12.31,5.448,4.272,3.589,1.904,1.696,0,NONE,SEARCHING,0.000,0.800,-0.059,0.074,0,0
19:45:05.365,SEARCHING,29.474,18.307,1.068,0.00,0.00,12.57,5.356,4.251,3.540,1.928,2.032,0,NONE,SEARCHING,0.000,0.800,0.051,0.076,0,0
19:45:05.566,SEARCHING,29.521,18.318,1.072,0.00,0.00,12.84,5.350,4.245,3.523,1.932,2.267,0,NONE,SEARCHING,0.000,0.800,-0.044,0.077,0,0
19:45:05.768,SEARCHING,29.568,18.328,1.060,0.00,0.00,13.10,5.325,4.238,3.473,1.948,2.251,0,NONE,SEARCHING,0.000,0.800,-0.077,0.079,0,0
19:45:05.968,SEARCHING,29.614,18.339,1.044,0.00,0.00,13.38,5.322,4.203,3.407,1.963,2.214,0,NONE,SEARCHING,0.000,0.800,-0.076,0.082,0,0
19:45:06.169,SEARCHING,29.661,18.351,1.030,0.00,0.00,13.67,5.321,4.165,3.348,2.010,2.170,0,NONE,SEARCHING,0.000,0.800,-0.046,0.086,0,0
19:45:06.369,SEARCHING,29.708,18.362,1.024,0.00,0.00,13.97,5.249,4.128,3.299,2.054,2.157,0,NONE,SEARCHING,0.000,0.800,-0.011,0.088,0,0
19:45:06.569,SEARCHING,29.809,18.388,1.023,0.00,0.00,14.63,5.147,4.069,3.240,2.050,2.142,0,NONE,SEARCHING,0.000,0.800,-0.003,0.091,0,0
19:45:06.769,SEARCHING,29.963,18.429,1.023,0.00,0.00,15.67,5.129,3.929,3.172,2.001,2.139,0,NONE,SEARCHING,0.000,0.800,-0.001,0.094,0,0
19:45:06.969,SEARCHING,30.063,18.458,1.030,0.00,0.00,16.38,5.119,3.830,3.068,3.581,2.143,0,NONE,SEARCHING,0.000,0.800,0.133,0.099,0,0
19:45:07.170,SEARCHING,30.109,18.471,1.063,0.00,0.00,16.73,5.090,3.768,3.023,3.657,2.228,0,NONE,SEARCHING,0.000,0.800,0.199,0.105,0,0
19:45:07.371,SEARCHING,30.155,18.485,1.100,0.00,0.00,17.10,5.085,3.732,2.987,2.424,2.346,0,NONE,SEARCHING,0.000,0.800,0.102,0.109,0,0
19:45:07.572,SEARCHING,30.201,18.500,1.110,0.00,0.00,17.48,5.122,3.657,2.990,1.888,2.417,0,NONE,SEARCHING,0.000,0.800,-0.048,0.111,0,0
19:45:07.774,SEARCHING,30.247,18.514,1.093,0.00,0.00,17.86,5.097,3.644,2.978,3.088,2.384,0,NONE,SEARCHING,0.000,0.800,-0.045,0.111,0,0
19:45:07.973,SEARCHING,30.292,18.529,1.096,0.00,0.00,18.24,5.086,3.681,2.959,3.669,2.374,0,NONE,SEARCHING,0.000,0.800,0.113,0.112,0,0
19:45:08.175,SEARCHING,30.338,18.544,1.124,0.00,0.00,18.63,5.085,3.689,2.923,3.697,2.424,0,NONE,SEARCHING,0.000,0.800,0.160,0.114,0,0
19:45:08.375,SEARCHING,30.383,18.560,1.157,0.00,0.00,19.03,5.085,3.645,2.886,3.270,2.505,0,NONE,SEARCHING,0.000,0.800,0.148,0.118,0,0
19:45:08.574,SEARCHING,30.429,18.575,1.180,0.00,0.00,19.44,5.041,3.634,2.895,2.211,2.562,0,NONE,SEARCHING,0.000,0.800,0.025,0.119,0,0
19:45:08.775,SEARCHING,30.474,18.591,1.173,0.00,0.00,19.85,5.086,3.595,2.872,2.965,2.561,0,NONE,SEARCHING,0.000,0.800,-0.054,0.120,0,0
19:45:08.976,SEARCHING,30.519,18.608,1.171,0.00,0.00,20.26,5.109,3.539,2.864,3.467,2.565,0,NONE,SEARCHING,0.000,0.800,0.071,0.121,0,0
19:45:09.177,SEARCHING,30.564,18.625,1.189,0.00,0.00,20.68,5.080,3.547,2.850,3.531,2.595,0,NONE,SEARCHING,0.000,0.800,0.110,0.122,0,0
19:45:09.378,SEARCHING,30.609,18.642,1.212,0.00,0.00,21.10,5.018,3.572,2.811,3.558,2.640,0,NONE,SEARCHING,0.000,0.800,0.116,0.124,0,0
19:45:09.578,SEARCHING,30.653,18.659,1.235,0.00,0.00,21.53,4.996,3.575,2.778,3.525,2.718,0,NONE,SEARCHING,0.000,0.800,0.109,0.126,0,0
19:45:09.779,SEARCHING,30.698,18.677,1.256,0.00,0.00,21.97,4.938,3.545,2.752,3.505,2.768,0,NONE,SEARCHING,0.000,0.800,0.098,0.129,0,0
19:45:09.979,SEARCHING,30.742,18.695,1.275,0.00,0.00,22.42,4.948,3.496,2.747,3.487,2.845,0,NONE,SEARCHING,0.000,0.800,0.086,0.130,0,0
19:45:10.180,SEARCHING,30.787,18.713,1.291,0.00,0.00,22.86,4.971,3.468,2.729,3.487,2.909,0,NONE,SEARCHING,0.000,0.800,0.075,0.131,0,0
19:45:10.381,SEARCHING,30.831,18.732,1.306,0.00,0.00,23.31,4.881,3.491,2.721,3.516,2.954,0,NONE,SEARCHING,0.000,0.800,0.068,0.131,0,0
19:45:10.581,SEARCHING,30.875,18.751,1.319,0.00,0.00,23.76,4.870,3.493,2.684,3.520,2.978,0,NONE,SEARCHING,0.000,0.800,0.064,0.132,0,0
19:45:10.782,SEARCHING,30.919,18.771,1.332,0.00,0.00,24.22,4.832,3.477,2.663,3.480,3.007,0,NONE,SEARCHING,0.000,0.800,0.059,0.134,0,0
19:45:10.983,SEARCHING,30.963,18.790,1.343,0.00,0.00,24.68,4.775,3.460,2.661,3.468,3.044,0,NONE,SEARCHING,0.000,0.800,0.038,0.134,0,0
19:45:11.184,SEARCHING,31.006,18.811,1.348,0.00,0.00,25.14,4.768,3.421,2.647,3.452,3.077,0,NONE,SEARCHING,0.000,0.800,0.009,0.134,0,0
19:45:11.385,SEARCHING,31.150,18.880,1.348,0.00,0.00,26.67,4.714,3.392,2.539,3.419,3.072,0,NONE,SEARCHING,0.000,0.800,0.002,0.138,0,0
19:45:11.585,SEARCHING,31.292,18.954,1.348,0.00,0.00,28.27,4.655,3.346,2.439,3.349,3.053,0,NONE,SEARCHING,0.000,0.800,0.001,0.150,0,0
19:45:11.786,SEARCHING,31.432,19.032,1.348,0.00,0.00,30.00,4.697,3.298,2.398,3.298,3.051,0,NONE,SEARCHING,0.000,0.800,0.000,0.158,0,0
19:45:11.986,SEARCHING,31.570,19.114,1.348,0.00,0.00,31.82,4.842,3.334,2.359,3.348,3.051,0,NONE,SEARCHING,0.000,0.800,0.000,0.168,0,0
19:45:12.188,SEARCHING,31.704,19.200,1.348,0.00,0.00,33.76,5.044,3.355,2.332,3.356,3.051,0,NONE,SEARCHING,0.000,0.800,0.000,0.178,0,0
19:45:12.388,SEARCHING,31.836,19.291,1.348,0.00,0.00,35.80,5.334,3.357,2.306,3.384,3.085,0,NONE,SEARCHING,0.000,0.800,0.000,0.188,0,0
19:45:12.589,SEARCHING,31.964,19.387,1.348,0.00,0.00,37.97,5.811,3.451,2.302,3.436,3.091,0,NONE,SEARCHING,0.000,0.800,0.000,0.201,0,0
19:45:12.789,SEARCHING,32.088,19.487,1.348,0.00,0.00,40.29,6.338,3.512,2.245,3.510,3.092,0,NONE,SEARCHING,0.000,0.800,0.000,0.217,0,0
19:45:12.989,SEARCHING,32.208,19.593,1.348,0.00,0.00,42.79,7.065,3.472,2.270,3.476,3.092,0,NONE,SEARCHING,0.000,0.800,0.000,0.232,0,0
19:45:13.190,SEARCHING,32.323,19.704,1.348,0.00,0.00,45.46,7.306,3.329,2.337,3.349,3.065,0,NONE,SEARCHING,0.000,0.800,0.000,0.236,0,0
19:45:13.391,SEARCHING,32.433,19.821,1.348,0.00,0.00,48.15,6.707,3.346,2.394,3.367,3.064,0,NONE,SEARCHING,0.000,0.800,0.000,0.225,0,0
19:45:13.592,SEARCHING,32.537,19.942,1.348,0.00,0.00,50.70,5.943,3.574,2.461,3.605,3.068,0,NONE,SEARCHING,0.000,0.800,0.017,0.206,0,0
19:45:13.793,SEARCHING,32.568,19.979,1.354,0.00,0.00,51.37,5.528,3.720,2.524,3.761,3.061,0,NONE,SEARCHING,0.000,0.800,0.056,0.185,0,0
19:45:13.992,SEARCHING,32.598,20.017,1.367,0.00,0.00,51.99,5.301,3.808,2.530,3.836,3.082,0,NONE,SEARCHING,0.000,0.800,0.071,0.172,0,0
19:45:14.193,SEARCHING,32.627,20.055,1.381,0.00,0.00,52.56,5.152,3.903,2.542,3.903,3.126,0,NONE,SEARCHING,0.000,0.800,0.075,0.164,0,0
19:45:14.394,SEARCHING,32.656,20.093,1.396,0.00,0.00,53.11,5.011,3.985,2.589,3.985,3.193,0,NONE,SEARCHING,0.000,0.800,0.075,0.155,0,0
19:45:14.596,SEARCHING,32.685,20.132,1.411,0.00,0.00,53.64,4.963,4.099,2.571,4.065,3.219,0,NONE,SEARCHING,0.000,0.800,0.075,0.150,0,0
19:45:14.805,SEARCHING,32.736,20.203,1.426,0.00,0.00,54.58,4.764,4.323,2.496,4.172,3.270,0,NONE,SEARCHING,0.000,0.800,0.079,0.151,0,0
19:45:15.006,SEARCHING,32.764,20.242,1.443,0.00,0.00,55.11,4.605,4.474,2.411,4.206,3.304,0,NONE,SEARCHING,0.000,0.800,0.079,0.154,0,0
19:45:15.208,SEARCHING,32.791,20.281,1.458,0.00,0.00,55.64,4.468,4.551,2.372,4.234,3.338,0,NONE,SEARCHING,0.000,0.800,0.077,0.157,0,0
19:45:15.410,SEARCHING,32.818,20.321,1.473,0.00,0.00,56.18,4.396,4.620,2.322,4.159,3.362,0,NONE,SEARCHING,0.000,0.800,0.072,0.160,0,0
19:45:15.611,SEARCHING,32.845,20.361,1.487,0.00,0.00,56.74,4.291,4.648,2.272,4.138,3.406,0,NONE,SEARCHING,0.000,0.800,0.067,0.163,0,0
19:45:15.812,SEARCHING,32.871,20.401,1.500,0.00,0.00,57.30,4.148,4.813,2.239,4.086,3.414,0,NONE,SEARCHING,0.000,0.800,0.062,0.165,0,0
19:45:16.013,SEARCHING,32.897,20.442,1.512,0.00,0.00,57.87,4.090,4.950,2.217,4.072,3.444,0,NONE,SEARCHING,0.000,0.800,0.057,0.166,0,0
19:45:16.215,SEARCHING,32.922,20.483,1.523,0.00,0.00,58.44,3.971,5.005,2.221,4.026,3.481,0,NONE,SEARCHING,0.000,0.800,0.037,0.163,0,0
19:45:16.415,SEARCHING,32.947,20.524,1.528,0.00,0.00,58.99,3.867,5.248,2.299,4.029,3.516,0,NONE,SEARCHING,0.000,0.800,0.009,0.151,0,0
19:45:16.616,SEARCHING,33.028,20.662,1.528,0.00,0.00,60.70,3.711,5.784,2.361,4.021,3.531,0,NONE,SEARCHING,0.000,0.800,0.002,0.136,0,0
19:45:16.817,SEARCHING,33.104,20.802,1.528,0.00,0.00,62.24,3.524,6.180,2.492,4.026,3.536,0,NONE,SEARCHING,0.000,0.800,0.001,0.113,0,0
19:45:17.017,SEARCHING,33.177,20.945,1.528,0.00,0.00,63.50,3.412,6.416,2.581,3.990,3.539,0,NONE,SEARCHING,0.000,0.800,0.000,0.090,0,0
19:45:17.217,SEARCHING,33.248,21.088,1.528,0.00,0.00,64.50,3.244,7.037,2.746,4.003,3.571,0,NONE,SEARCHING,0.000,0.800,0.000,0.065,0,0
19:45:17.418,SEARCHING,33.316,21.233,1.528,0.00,0.00,65.22,3.128,6.737,2.806,4.013,3.575,0,NONE,SEARCHING,0.000,0.800,0.000,0.043,0,0
19:45:17.618,SEARCHING,33.382,21.379,1.528,0.00,0.00,65.69,3.038,6.227,2.874,4.004,3.558,0,NONE,SEARCHING,0.000,0.800,0.000,0.026,0,0
19:45:17.819,SEARCHING,33.448,21.525,1.528,0.00,0.00,65.97,2.991,6.074,2.946,4.013,3.557,0,NONE,SEARCHING,0.000,0.800,0.000,0.012,0,0
19:45:18.020,SEARCHING,33.513,21.671,1.528,0.00,0.00,66.10,2.966,5.977,2.980,4.029,3.559,0,NONE,SEARCHING,0.000,0.800,0.000,0.003,0,0
19:45:18.221,SEARCHING,33.577,21.817,1.528,0.00,0.00,66.13,2.976,5.993,3.068,4.068,3.532,0,NONE,SEARCHING,0.000,0.800,0.000,-0.004,0,0
19:45:18.421,SEARCHING,33.642,21.964,1.528,0.00,0.00,66.08,2.927,5.928,3.058,4.052,3.522,0,NONE,SEARCHING,0.000,0.800,0.000,-0.009,0,0
19:45:18.622,SEARCHING,33.707,22.110,1.528,0.00,0.00,65.97,2.923,5.913,3.031,4.115,3.532,0,NONE,SEARCHING,0.000,0.800,0.000,-0.010,0,0
19:45:18.823,SEARCHING,33.772,22.256,1.528,0.00,0.00,65.85,2.932,6.009,3.034,4.151,3.551,0,NONE,SEARCHING,0.000,0.800,0.000,-0.009,0,0
19:45:19.023,SEARCHING,33.815,22.351,1.530,0.00,0.00,65.78,2.931,6.152,3.049,4.223,3.560,0,NONE,SEARCHING,0.000,0.800,0.035,-0.010,0,0
19:45:19.224,SEARCHING,33.835,22.394,1.538,0.00,0.00,65.75,2.925,6.108,3.061,4.230,3.549,0,NONE,SEARCHING,0.000,0.800,0.049,-0.011,0,0
19:45:19.424,SEARCHING,33.854,22.438,1.548,0.00,0.00,65.71,2.940,6.021,3.094,4.184,3.589,0,NONE,SEARCHING,0.000,0.800,0.036,-0.012,0,0
19:45:19.625,SEARCHING,33.874,22.482,1.553,0.00,0.00,65.66,2.937,6.153,3.099,4.163,3.581,0,NONE,SEARCHING,0.000,0.800,0.009,-0.014,0,0
19:45:19.826,SEARCHING,33.940,22.628,1.553,0.00,0.00,65.51,2.934,6.217,3.057,4.138,3.601,0,NONE,SEARCHING,0.000,0.800,0.002,-0.012,0,0
