timestamp,state,x,y,z,roll_deg,pitch_deg,yaw_deg,dist_left,dist_center,dist_right,dist_top,dist_bottom,dtof_alert,collision_event,best_dir,max_space,cmd_vx,cmd_vz,cmd_yaw
22:18:54.655,SEARCHING,0.000,0.000,0.000,0.00,0.00,0.00,10.000,10.000,10.000,10.000,10.000,0,0,SEARCHING,0.000,0.800,0.000,0.000
22:18:55.999,SEARCHING,0.032,0.000,1.000,0.00,0.00,0.00,10.000,10.000,10.000,10.000,10.000,0,0,SEARCHING,0.000,0.800,0.000,0.000
22:18:56.200,SEARCHING,0.192,0.000,1.000,0.00,0.00,0.00,10.000,10.000,10.000,10.000,10.000,0,0,SEARCHING,0.000,0.800,0.000,0.000
22:18:56.400,SEARCHING,0.352,0.000,1.000,0.00,0.00,0.00,10.000,10.000,10.000,10.000,10.000,0,0,SEARCHING,0.000,0.800,0.000,0.000
22:18:56.638,INSPECTING,0.490,-0.000,1.000,0.00,0.00,-1.59,0.612,0.660,6.444,0.655,0.660,0,0,SEARCHING,0.000,0.000,0.000,-1.000
22:18:56.802,INSPECTING,0.525,-0.003,1.000,0.00,0.00,-9.00,0.520,0.724,4.937,0.721,0.718,0,0,INSPECT_RIGHT,0.000,0.100,0.000,-0.600
22:18:57.002,SEARCHING,0.544,-0.007,1.000,0.00,0.00,-15.88,0.530,4.415,3.889,4.703,2.011,0,0,INSPECT_TOP,0.000,0.100,0.500,0.000
22:18:57.203,SEARCHING,0.605,-0.026,1.079,0.00,0.00,-20.46,0.568,6.321,3.332,5.724,2.626,0,0,SEARCHING,0.000,0.800,0.247,-1.000
22:18:57.403,SEARCHING,0.665,-0.050,1.126,0.00,0.00,-25.04,0.613,5.575,2.943,5.365,2.739,0,0,SEARCHING,0.000,0.800,0.214,-1.000
22:18:57.604,SEARCHING,0.722,-0.079,1.166,0.00,0.00,-27.55,2.966,4.717,2.706,4.764,2.857,0,0,SEARCHING,0.000,0.800,0.168,0.026
22:18:57.805,SEARCHING,0.779,-0.108,1.199,0.00,0.00,-27.43,3.031,4.760,2.742,4.765,2.842,0,0,SEARCHING,0.000,0.800,0.170,0.028
22:18:58.005,SEARCHING,0.836,-0.138,1.231,0.00,0.00,-27.30,3.076,4.679,2.735,4.767,3.038,0,0,SEARCHING,0.000,0.800,0.143,0.033
22:18:58.206,SEARCHING,0.892,-0.167,1.258,0.00,0.00,-27.15,3.117,4.732,2.709,4.767,3.129,0,0,SEARCHING,0.000,0.800,0.132,0.039
22:18:58.405,SEARCHING,0.949,-0.196,1.284,0.00,0.00,-26.97,3.152,4.698,2.689,4.767,3.210,0,0,SEARCHING,0.000,0.800,0.122,0.044
22:18:58.607,SEARCHING,1.006,-0.225,1.309,0.00,0.00,-26.76,3.113,4.673,2.636,4.718,3.256,0,0,SEARCHING,0.000,0.800,0.114,0.047
22:18:58.808,SEARCHING,1.064,-0.254,1.331,0.00,0.00,-26.54,3.175,4.671,2.619,4.705,3.282,0,0,SEARCHING,0.000,0.800,0.111,0.053
22:18:59.009,SEARCHING,1.121,-0.283,1.353,0.00,0.00,-26.28,3.254,4.731,2.603,4.734,3.310,0,0,SEARCHING,0.000,0.800,0.109,0.061
22:18:59.208,SEARCHING,1.178,-0.311,1.374,0.00,0.00,-25.99,3.303,4.766,2.610,4.767,3.403,0,0,SEARCHING,0.000,0.800,0.101,0.064
22:18:59.409,SEARCHING,1.272,-0.356,1.394,0.00,0.00,-25.52,3.292,4.767,2.652,4.767,3.487,0,0,SEARCHING,0.000,0.800,0.092,0.059
22:18:59.610,SEARCHING,1.330,-0.383,1.412,0.00,0.00,-25.24,3.249,4.867,2.592,4.737,3.506,0,0,SEARCHING,0.000,0.800,0.089,0.062
22:18:59.811,SEARCHING,1.388,-0.411,1.430,0.00,0.00,-24.96,3.243,4.875,2.636,4.736,3.563,0,0,SEARCHING,0.000,0.800,0.083,0.057
22:19:00.011,SEARCHING,1.446,-0.438,1.447,0.00,0.00,-24.70,3.225,4.869,2.634,4.767,3.617,0,0,SEARCHING,0.000,0.800,0.080,0.056
22:19:00.211,SEARCHING,1.504,-0.464,1.462,0.00,0.00,-24.45,3.180,4.935,2.592,4.767,3.632,0,0,SEARCHING,0.000,0.800,0.079,0.057
22:19:00.412,SEARCHING,1.562,-0.491,1.477,0.00,0.00,-24.20,3.147,5.005,2.644,4.685,3.690,0,0,SEARCHING,0.000,0.800,0.069,0.048
22:19:00.614,SEARCHING,1.621,-0.517,1.491,0.00,0.00,-23.99,3.116,5.078,2.645,4.694,3.736,0,0,SEARCHING,0.000,0.800,0.066,0.046
22:19:00.814,SEARCHING,1.679,-0.543,1.504,0.00,0.00,-23.79,3.089,5.029,2.635,4.670,3.796,0,0,SEARCHING,0.000,0.800,0.059,0.045
22:19:01.014,SEARCHING,1.738,-0.568,1.516,0.00,0.00,-23.60,3.090,5.185,2.707,4.600,3.809,0,0,SEARCHING,0.000,0.800,0.054,0.037
22:19:01.215,SEARCHING,1.797,-0.594,1.527,0.00,0.00,-23.43,3.066,5.272,2.685,4.650,3.814,0,0,SEARCHING,0.000,0.800,0.057,0.037
22:19:01.415,SEARCHING,1.855,-0.619,1.538,0.00,0.00,-23.25,3.094,5.420,2.670,4.579,3.846,0,0,SEARCHING,0.000,0.800,0.000,0.041
22:19:01.616,SEARCHING,1.958,-0.663,1.543,0.00,0.00,-22.93,3.093,5.578,2.661,4.588,3.830,0,0,SEARCHING,0.000,0.800,0.052,0.042
22:19:01.817,SEARCHING,2.062,-0.707,1.548,0.00,0.00,-22.60,3.092,5.785,2.691,4.577,3.827,0,0,SEARCHING,0.000,0.800,0.051,0.039
22:19:02.017,SEARCHING,2.165,-0.749,1.553,0.00,0.00,-22.29,3.061,6.120,2.675,4.543,3.875,0,0,SEARCHING,0.000,0.800,0.000,0.038
22:19:02.218,SEARCHING,2.269,-0.792,1.558,0.00,0.00,-21.97,3.063,6.312,2.648,4.576,3.823,0,0,SEARCHING,0.000,0.800,0.052,0.041
22:19:02.418,SEARCHING,2.328,-0.816,1.570,0.00,0.00,-21.78,3.045,6.355,2.569,4.531,3.906,0,0,SEARCHING,0.000,0.800,0.000,0.049
22:19:02.618,SEARCHING,2.477,-0.874,1.570,0.00,0.00,-21.22,3.020,6.356,2.529,4.567,3.932,0,0,SEARCHING,0.000,0.800,0.000,0.051
22:19:02.819,SEARCHING,2.626,-0.932,1.570,0.00,0.00,-20.62,2.975,6.216,2.537,4.526,3.903,0,0,SEARCHING,0.000,0.800,0.000,0.046
22:19:03.019,SEARCHING,2.776,-0.987,1.570,0.00,0.00,-20.07,2.977,5.994,2.512,4.525,3.927,0,0,SEARCHING,0.000,0.800,0.000,0.050
22:19:03.221,SEARCHING,2.965,-1.055,1.570,0.00,0.00,-19.40,2.966,5.639,2.530,4.533,3.909,0,0,SEARCHING,0.000,0.800,0.000,0.046
22:19:03.420,SEARCHING,3.078,-1.094,1.570,0.00,0.00,-19.01,2.925,5.394,2.550,4.574,3.894,0,0,SEARCHING,0.000,0.800,0.000,0.040
22:19:03.621,SEARCHING,3.229,-1.146,1.570,0.00,0.00,-18.55,2.882,5.247,2.600,4.576,3.936,0,0,SEARCHING,0.000,0.800,0.000,0.030
22:19:03.822,SEARCHING,3.381,-1.196,1.570,0.00,0.00,-18.22,2.829,5.011,2.572,4.557,3.878,0,0,SEARCHING,0.000,0.800,0.000,0.028
22:19:04.022,SEARCHING,3.533,-1.246,1.570,0.00,0.00,-17.91,2.774,4.861,2.608,4.576,3.904,0,0,SEARCHING,0.000,0.800,0.000,0.018
22:19:04.223,SEARCHING,3.686,-1.295,1.570,0.00,0.00,-17.67,2.742,4.720,2.590,4.574,3.816,0,0,SEARCHING,0.000,0.800,0.052,0.017
22:19:04.423,SEARCHING,3.792,-1.329,1.575,0.00,0.00,-17.53,2.645,4.705,2.576,4.471,3.889,0,0,SEARCHING,0.000,0.800,0.000,0.008
22:19:04.624,SEARCHING,3.945,-1.377,1.575,0.00,0.00,-17.44,2.476,4.580,2.578,4.424,3.944,0,0,SEARCHING,0.000,0.800,0.000,-0.013
22:19:04.825,SEARCHING,4.136,-1.437,1.575,0.00,0.00,-17.61,2.357,4.557,2.520,4.447,3.945,0,0,SEARCHING,0.000,0.800,0.000,-0.022
22:19:05.025,SEARCHING,4.250,-1.473,1.575,0.00,0.00,-17.80,2.284,4.412,2.525,4.429,3.945,0,0,SEARCHING,0.000,0.800,0.000,-0.033
22:19:05.225,SEARCHING,4.402,-1.523,1.575,0.00,0.00,-18.26,2.276,4.485,3.030,4.484,3.956,0,0,SEARCHING,0.000,0.800,0.000,-0.088
22:19:05.426,SEARCHING,4.554,-1.574,1.575,0.00,0.00,-19.22,2.283,4.503,2.978,4.508,3.945,0,0,SEARCHING,0.000,0.800,0.000,-0.082
22:19:05.627,SEARCHING,4.705,-1.628,1.575,0.00,0.00,-20.14,2.282,4.349,2.873,4.383,3.910,0,0,SEARCHING,0.000,0.800,0.000,-0.072
22:19:05.828,SEARCHING,4.854,-1.684,1.575,0.00,0.00,-20.97,2.292,4.206,2.768,4.241,3.903,0,0,SEARCHING,0.000,0.800,0.000,-0.060
22:19:06.028,SEARCHING,5.004,-1.742,1.575,0.00,0.00,-21.66,2.281,4.113,2.656,4.163,3.873,0,0,SEARCHING,0.000,0.800,0.000,-0.049
22:19:06.229,SEARCHING,5.152,-1.802,1.575,0.00,0.00,-22.22,2.301,4.070,2.532,4.132,3.898,0,0,SEARCHING,0.000,0.800,0.000,-0.032
22:19:06.430,SEARCHING,5.300,-1.863,1.575,0.00,0.00,-22.60,2.265,4.027,2.492,4.133,3.850,0,0,SEARCHING,0.000,0.800,0.000,-0.032
22:19:06.630,SEARCHING,5.447,-1.925,1.575,0.00,0.00,-22.96,2.267,3.997,2.443,4.123,3.865,0,0,SEARCHING,0.000,0.800,0.000,-0.025
22:19:06.832,SEARCHING,5.595,-1.987,1.575,0.00,0.00,-23.26,2.254,4.040,2.389,4.160,3.937,0,0,SEARCHING,0.000,0.800,0.000,-0.020
22:19:07.032,SEARCHING,5.741,-2.051,1.575,0.00,0.00,-23.45,2.253,4.025,2.344,4.159,3.931,0,0,SEARCHING,0.000,0.800,0.000,-0.014
22:19:07.232,SEARCHING,5.888,-2.115,1.575,0.00,0.00,-23.57,2.334,3.763,2.312,4.085,3.890,0,0,SEARCHING,0.000,0.800,0.000,0.003
22:19:07.433,SEARCHING,6.035,-2.179,1.575,0.00,0.00,-23.53,2.404,3.690,2.305,4.078,3.878,0,0,SEARCHING,0.000,0.800,0.000,0.014
22:19:07.634,SEARCHING,6.182,-2.242,1.575,0.00,0.00,-23.36,2.448,4.019,2.341,4.013,3.870,0,0,SEARCHING,0.000,0.800,0.000,0.015
22:19:07.835,SEARCHING,6.329,-2.306,1.575,0.00,0.00,-23.18,2.453,4.015,2.309,4.067,3.647,0,0,SEARCHING,0.000,0.800,0.000,0.020
22:19:08.035,SEARCHING,6.476,-2.368,1.575,0.00,0.00,-22.97,2.421,3.956,2.277,3.982,3.803,0,0,SEARCHING,0.000,0.800,0.000,0.021
22:19:08.236,SEARCHING,6.660,-2.446,1.575,0.00,0.00,-22.71,2.328,3.851,2.257,3.863,3.788,0,0,SEARCHING,0.000,0.800,0.000,0.011
22:19:08.436,SEARCHING,6.771,-2.492,1.575,0.00,0.00,-22.62,2.164,3.827,2.095,3.882,3.755,0,0,SEARCHING,0.000,0.800,0.000,0.012
22:19:08.637,SEARCHING,6.956,-2.569,1.575,0.00,0.00,-22.46,2.009,3.818,1.949,3.941,3.769,0,0,SEARCHING,0.000,0.800,0.000,0.012
22:19:08.837,SEARCHING,7.066,-2.615,1.575,0.00,0.00,-22.36,1.844,3.858,1.795,3.911,3.726,0,0,SEARCHING,0.000,0.800,0.000,0.012
22:19:09.037,SEARCHING,7.214,-2.675,1.575,0.00,0.00,-22.23,1.697,3.916,1.637,3.846,3.750,0,0,SEARCHING,0.000,0.800,0.000,0.017
22:19:09.238,SEARCHING,7.363,-2.736,1.575,0.00,0.00,-22.07,1.547,3.873,1.553,3.718,3.724,0,0,SEARCHING,0.000,0.800,0.000,-0.002
22:19:09.440,SEARCHING,7.511,-2.796,1.575,0.00,0.00,-22.14,1.412,4.200,1.568,3.557,3.736,0,0,SEARCHING,0.000,0.800,0.000,-0.056
22:19:09.640,SEARCHING,7.659,-2.857,1.575,0.00,0.00,-22.70,1.425,7.665,1.522,3.432,3.856,0,0,SEARCHING,0.000,0.800,0.000,-0.036
22:19:09.840,SEARCHING,7.762,-2.900,1.569,0.00,0.00,-23.04,1.430,9.430,1.523,3.314,3.843,0,0,SEARCHING,0.000,0.800,0.000,-0.034
22:19:10.042,SEARCHING,7.865,-2.944,1.563,0.00,0.00,-23.32,1.466,9.940,1.520,3.197,3.837,0,0,SEARCHING,0.000,0.800,-0.063,-0.019
22:19:11.363,SEARCHING,7.946,-2.979,1.550,0.00,0.00,-23.43,1.464,9.993,1.511,3.153,3.825,0,0,SEARCHING,0.000,0.800,-0.067,-0.017
22:19:11.387,SEARCHING,7.946,-2.979,1.537,0.00,0.00,-23.43,1.466,9.996,1.508,3.144,3.788,0,0,SEARCHING,0.000,0.800,-0.065,-0.015
22:19:11.542,SEARCHING,8.005,-3.005,1.523,0.00,0.00,-23.49,1.458,9.999,1.470,2.994,3.706,0,0,SEARCHING,0.000,0.800,-0.077,-0.004
22:19:11.737,SEARCHING,8.063,-3.030,1.507,0.00,0.00,-23.52,1.443,10.000,1.490,2.948,3.717,0,0,SEARCHING,0.000,0.800,-0.084,-0.018
22:19:11.938,SEARCHING,8.122,-3.056,1.490,0.00,0.00,-23.60,1.450,10.000,1.489,2.876,3.621,0,0,SEARCHING,0.000,0.800,-0.086,-0.014
22:19:12.137,SEARCHING,8.181,-3.081,1.473,0.00,0.00,-23.67,1.477,10.000,1.508,2.807,3.631,0,0,SEARCHING,0.000,0.800,-0.097,-0.011
22:19:12.339,SEARCHING,8.239,-3.107,1.453,0.00,0.00,-23.74,1.447,10.000,1.527,2.778,3.535,0,0,SEARCHING,0.000,0.800,-0.092,-0.029
22:19:12.541,SEARCHING,8.298,-3.133,1.434,0.00,0.00,-23.86,1.447,10.000,1.493,2.706,3.505,0,0,SEARCHING,0.000,0.800,-0.101,-0.017
22:19:12.742,SEARCHING,8.356,-3.159,1.413,0.00,0.00,-23.92,1.451,9.999,1.474,2.647,3.418,0,0,SEARCHING,0.000,0.800,-0.102,-0.009
22:19:12.943,SEARCHING,8.415,-3.185,1.393,0.00,0.00,-23.97,1.449,9.974,1.490,2.584,3.359,0,0,SEARCHING,0.000,0.800,-0.107,-0.015
22:19:13.144,SEARCHING,8.473,-3.211,1.371,0.00,0.00,-24.01,1.484,10.000,1.475,2.526,3.322,0,0,SEARCHING,0.000,0.800,-0.114,0.003
22:19:13.342,SEARCHING,8.532,-3.237,1.348,0.00,0.00,-24.00,1.478,10.000,1.460,2.469,3.220,0,0,SEARCHING,0.000,0.800,-0.113,0.007
22:19:13.542,SEARCHING,8.590,-3.263,1.325,0.00,0.00,-23.99,1.452,10.000,1.496,2.420,3.243,0,0,SEARCHING,0.000,0.800,-0.126,-0.016
22:19:13.741,SEARCHING,8.649,-3.289,1.300,0.00,0.00,-24.07,1.468,9.997,1.495,2.416,3.192,0,0,SEARCHING,0.000,0.800,-0.121,-0.010
22:19:13.943,SEARCHING,8.707,-3.315,1.277,0.00,0.00,-24.11,1.467,9.957,1.478,2.436,3.124,0,0,SEARCHING,0.000,0.800,-0.108,-0.004
22:19:14.143,SEARCHING,8.765,-3.341,1.256,0.00,0.00,-24.13,1.470,9.950,1.484,2.497,3.093,0,0,SEARCHING,0.000,0.800,-0.093,-0.005
22:19:14.344,SEARCHING,8.824,-3.367,1.239,0.00,0.00,-24.13,1.481,9.793,1.470,2.563,3.011,0,0,SEARCHING,0.000,0.800,-0.070,0.004
22:19:14.544,SEARCHING,8.882,-3.394,1.225,0.00,0.00,-24.11,1.459,9.558,1.465,3.495,2.989,0,0,SEARCHING,0.000,0.800,0.058,-0.002
22:19:14.745,SEARCHING,8.941,-3.420,1.244,0.00,0.00,-24.14,1.434,9.930,1.499,4.517,3.006,0,0,SEARCHING,0.000,0.800,0.134,-0.024
22:19:14.946,SEARCHING,8.999,-3.446,1.268,0.00,0.00,-24.24,1.473,9.955,1.496,3.925,3.082,0,0,SEARCHING,0.000,0.800,0.084,-0.008
22:19:15.146,SEARCHING,9.057,-3.472,1.288,0.00,0.00,-24.27,1.457,9.950,1.486,4.524,3.118,0,0,SEARCHING,0.000,0.800,0.120,-0.011
22:19:15.347,SEARCHING,9.116,-3.499,1.312,0.00,0.00,-24.32,1.444,9.949,1.463,4.490,3.205,0,0,SEARCHING,0.000,0.800,0.107,-0.007
22:19:15.547,SEARCHING,9.174,-3.525,1.333,0.00,0.00,-24.48,1.560,9.955,1.437,4.311,3.234,0,0,SEARCHING,0.000,0.800,0.093,0.044
22:19:15.749,SEARCHING,9.269,-3.568,1.350,0.00,0.00,-23.92,1.730,9.757,1.605,4.339,3.315,0,0,SEARCHING,0.000,0.800,0.085,0.036
22:19:15.948,SEARCHING,9.327,-3.594,1.370,0.00,0.00,-23.86,1.766,9.946,1.821,4.756,3.328,0,0,SEARCHING,0.000,0.800,0.108,-0.014
22:19:16.149,SEARCHING,9.386,-3.620,1.391,0.00,0.00,-23.94,1.735,9.897,1.803,4.834,3.364,0,0,SEARCHING,0.000,0.800,0.109,-0.017
22:19:16.350,SEARCHING,9.444,-3.646,1.413,0.00,0.00,-24.01,1.729,9.941,1.768,4.815,3.449,0,0,SEARCHING,0.000,0.800,0.099,-0.010
22:19:16.550,SEARCHING,9.503,-3.672,1.432,0.00,0.00,-24.05,1.727,9.819,1.749,4.864,3.476,0,0,SEARCHING,0.000,0.800,0.099,-0.006
22:19:16.752,SEARCHING,9.561,-3.698,1.452,0.00,0.00,-24.08,1.781,9.662,1.761,4.838,3.541,0,0,SEARCHING,0.000,0.800,0.091,0.005
22:19:16.952,SEARCHING,9.620,-3.724,1.470,0.00,0.00,-24.04,1.779,9.555,1.754,4.778,3.624,0,0,SEARCHING,0.000,0.800,0.080,0.007
22:19:17.152,SEARCHING,9.715,-3.766,1.485,0.00,0.00,-23.99,1.759,9.560,1.774,4.700,3.663,0,0,SEARCHING,0.000,0.800,0.072,-0.004
22:19:17.353,SEARCHING,9.773,-3.792,1.499,0.00,0.00,-24.00,1.774,9.742,1.771,4.708,3.694,0,0,SEARCHING,0.000,0.800,0.070,0.001
22:19:17.553,SEARCHING,9.832,-3.818,1.513,0.00,0.00,-24.00,1.744,9.570,1.739,4.662,3.745,0,0,SEARCHING,0.000,0.800,0.063,0.002
22:19:17.753,SEARCHING,9.890,-3.844,1.526,0.00,0.00,-24.01,1.755,9.535,1.762,4.741,3.648,0,0,SEARCHING,0.000,0.800,0.076,-0.002
22:19:17.955,SEARCHING,9.949,-3.870,1.540,0.00,0.00,-24.01,1.761,9.171,1.769,4.732,3.799,0,0,SEARCHING,0.000,0.800,0.062,-0.002
22:19:18.156,SEARCHING,10.007,-3.896,1.552,0.00,0.00,-24.03,1.748,9.279,1.771,4.589,3.846,0,0,SEARCHING,0.000,0.800,0.051,-0.006
22:19:18.356,SEARCHING,10.066,-3.922,1.562,0.00,0.00,-24.06,1.755,9.228,1.779,4.598,3.853,0,0,SEARCHING,0.000,0.800,0.051,-0.006
22:19:18.556,SEARCHING,10.168,-3.968,1.567,0.00,0.00,-24.09,1.743,9.231,1.732,4.603,3.878,0,0,SEARCHING,0.000,0.800,0.000,0.003
22:19:18.757,SEARCHING,10.314,-4.033,1.567,0.00,0.00,-24.08,1.654,9.214,1.708,4.571,3.846,0,0,SEARCHING,0.000,0.800,0.000,-0.015
22:19:18.957,SEARCHING,10.460,-4.099,1.567,0.00,0.00,-24.36,5.213,9.154,6.733,4.627,3.909,0,0,SEARCHING,0.000,0.800,0.000,-0.035
22:19:19.158,SEARCHING,10.605,-4.165,1.567,0.00,0.00,-24.96,5.271,8.868,9.140,4.583,3.924,0,0,SEARCHING,0.000,0.800,0.000,-0.064
22:19:19.359,SEARCHING,10.750,-4.234,1.567,0.00,0.00,-25.69,5.319,8.674,8.971,4.520,3.884,0,0,SEARCHING,0.000,0.800,0.000,-0.061
22:19:19.560,SEARCHING,10.894,-4.304,1.567,0.00,0.00,-26.40,5.321,8.461,8.803,4.505,3.960,0,0,SEARCHING,0.000,0.800,0.000,-0.059
22:19:19.760,SEARCHING,11.037,-4.376,1.567,0.00,0.00,-27.08,5.321,8.335,8.344,4.540,3.963,0,0,SEARCHING,0.000,0.800,0.000,-0.054
22:19:19.960,SEARCHING,11.179,-4.449,1.567,0.00,0.00,-27.71,5.353,7.926,8.376,4.537,3.944,0,0,SEARCHING,0.000,0.800,0.000,-0.054
22:19:20.162,SEARCHING,11.320,-4.525,1.567,0.00,0.00,-28.31,5.204,7.631,8.003,4.497,3.937,0,0,SEARCHING,0.000,0.800,0.000,-0.054
22:19:20.363,SEARCHING,11.461,-4.601,1.567,0.00,0.00,-28.91,5.416,7.618,7.913,4.537,3.912,0,0,SEARCHING,0.000,0.800,0.000,-0.047
22:19:20.563,SEARCHING,11.600,-4.679,1.567,0.00,0.00,-29.43,5.896,7.979,7.318,4.525,3.879,0,0,SEARCHING,0.000,0.800,0.000,-0.026
22:19:20.764,SEARCHING,11.739,-4.758,1.567,0.00,0.00,-29.78,5.979,7.933,7.640,4.514,3.760,0,0,SEARCHING,0.000,0.800,0.053,-0.029
22:19:20.964,SEARCHING,11.837,-4.814,1.573,0.00,0.00,-30.02,6.059,7.832,7.305,4.543,3.856,0,0,SEARCHING,0.000,0.800,0.000,-0.023
22:19:21.166,SEARCHING,11.975,-4.894,1.573,0.00,0.00,-30.29,6.142,7.527,7.301,4.573,3.870,0,0,SEARCHING,0.000,0.800,0.000,-0.021
22:19:21.364,SEARCHING,12.113,-4.975,1.573,0.00,0.00,-30.52,6.128,7.864,7.071,4.624,3.878,0,0,SEARCHING,0.000,0.800,0.000,-0.017
22:19:21.564,SEARCHING,12.251,-5.057,1.573,0.00,0.00,-30.74,5.946,7.687,6.901,4.543,3.895,0,0,SEARCHING,0.000,0.800,0.000,-0.019
22:19:21.764,SEARCHING,12.388,-5.139,1.573,0.00,0.00,-30.98,5.991,7.415,6.401,4.618,3.785,0,0,SEARCHING,0.000,0.800,0.057,-0.009
22:19:21.966,SEARCHING,12.484,-5.196,1.579,0.00,0.00,-31.05,5.896,7.162,6.590,4.490,3.805,0,0,SEARCHING,0.000,0.800,0.000,-0.014
22:19:22.166,SEARCHING,12.621,-5.279,1.579,0.00,0.00,-31.22,5.831,7.141,6.243,4.560,3.924,0,0,SEARCHING,0.000,0.800,0.000,-0.009
22:19:22.366,SEARCHING,12.758,-5.362,1.579,0.00,0.00,-31.33,5.867,7.114,5.659,4.586,3.908,0,0,SEARCHING,0.000,0.800,0.000,0.005
22:19:22.568,SEARCHING,12.894,-5.445,1.579,0.00,0.00,-31.28,5.739,6.960,5.441,4.539,3.910,0,0,SEARCHING,0.000,0.800,0.000,0.008
22:19:22.767,SEARCHING,13.031,-5.528,1.579,0.00,0.00,-31.09,5.625,6.934,6.456,4.560,3.911,0,0,SEARCHING,0.000,0.800,0.000,-0.018
22:19:22.968,SEARCHING,13.168,-5.611,1.579,0.00,0.00,-31.13,5.517,6.934,6.732,4.585,3.943,0,0,SEARCHING,0.000,0.800,0.000,-0.026
22:19:23.169,SEARCHING,13.305,-5.694,1.579,0.00,0.00,-31.42,5.464,6.768,6.583,4.509,3.945,0,0,SEARCHING,0.000,0.800,0.000,-0.025
22:19:23.369,SEARCHING,13.441,-5.777,1.579,0.00,0.00,-31.70,5.448,6.706,6.374,4.493,3.943,0,0,SEARCHING,0.000,0.800,0.000,-0.021
22:19:23.569,SEARCHING,13.577,-5.862,1.579,0.00,0.00,-31.96,5.339,6.585,6.146,4.444,3.947,0,0,SEARCHING,0.000,0.800,0.000,-0.020
22:19:23.770,SEARCHING,13.713,-5.947,1.579,0.00,0.00,-32.20,5.244,6.541,5.976,4.490,3.946,0,0,SEARCHING,0.000,0.800,0.000,-0.019
22:19:23.970,SEARCHING,13.848,-6.032,1.579,0.00,0.00,-32.40,5.114,6.419,5.547,4.484,3.945,0,0,SEARCHING,0.000,0.800,0.000,-0.012
22:19:24.171,SEARCHING,13.983,-6.118,1.579,0.00,0.00,-32.54,5.087,6.380,5.537,4.485,3.945,0,0,SEARCHING,0.000,0.800,0.000,-0.013
22:19:24.372,SEARCHING,14.118,-6.204,1.579,0.00,0.00,-32.70,5.058,6.134,5.433,4.540,3.928,0,0,SEARCHING,0.000,0.800,0.000,-0.011
22:19:24.572,SEARCHING,14.252,-6.291,1.579,0.00,0.00,-32.86,4.807,6.047,5.110,4.528,3.872,0,0,SEARCHING,0.000,0.800,0.000,-0.010
22:19:24.774,SEARCHING,14.387,-6.378,1.579,0.00,0.00,-32.99,4.813,5.735,5.194,4.577,3.912,0,0,SEARCHING,0.000,0.800,0.000,-0.012
22:19:24.974,SEARCHING,14.554,-6.487,1.579,0.00,0.00,-33.17,4.747,5.528,5.005,4.515,3.937,0,0,SEARCHING,0.000,0.800,0.000,-0.009
22:19:25.174,SEARCHING,14.688,-6.575,1.579,0.00,0.00,-33.29,4.527,5.388,4.895,4.563,3.886,0,0,SEARCHING,0.000,0.800,0.000,-0.013
22:19:25.375,SEARCHING,14.789,-6.641,1.579,0.00,0.00,-33.40,4.441,5.234,4.742,4.575,3.956,0,0,SEARCHING,0.000,0.800,0.000,-0.011
22:19:25.581,SEARCHING,14.922,-6.729,1.579,0.00,0.00,-33.53,4.353,5.144,4.672,4.589,3.948,0,0,SEARCHING,0.000,0.800,0.000,-0.013
22:19:25.777,SEARCHING,15.055,-6.817,1.579,0.00,0.00,-33.67,4.318,4.997,4.557,4.595,3.930,0,0,SEARCHING,0.000,0.800,0.000,-0.010
22:19:25.977,SEARCHING,15.188,-6.906,1.579,0.00,0.00,-33.78,4.201,4.772,4.424,4.567,3.941,0,0,SEARCHING,0.000,0.800,0.000,-0.010
22:19:26.178,SEARCHING,15.321,-6.995,1.579,0.00,0.00,-33.90,3.977,4.621,4.374,4.601,3.928,0,0,SEARCHING,0.000,0.800,0.000,-0.018
22:19:26.379,SEARCHING,15.454,-7.085,1.579,0.00,0.00,-34.14,4.054,4.484,4.290,4.623,3.947,0,0,SEARCHING,0.000,0.800,0.000,-0.011
22:19:26.580,SEARCHING,15.586,-7.175,1.579,0.00,0.00,-34.39,3.960,4.305,4.191,4.537,3.999,0,0,SEARCHING,0.000,0.800,0.000,-0.011
22:19:26.781,SEARCHING,15.751,-7.288,1.579,0.00,0.00,-34.70,3.318,4.127,4.119,4.574,3.916,0,0,SEARCHING,0.000,0.800,0.000,-0.047
22:19:26.981,SEARCHING,15.849,-7.357,1.579,0.00,0.00,-35.09,3.420,4.014,4.070,4.623,3.867,0,0,SEARCHING,0.000,0.800,0.051,-0.037
22:19:27.186,SEARCHING,15.941,-7.421,1.584,0.00,0.00,-35.37,3.478,3.832,3.983,4.574,3.843,0,0,SEARCHING,0.000,0.800,0.000,-0.029
22:19:27.387,SEARCHING,16.032,-7.486,1.589,0.00,0.00,-35.61,3.429,3.629,3.945,4.576,3.769,0,0,SEARCHING,0.000,0.800,0.056,-0.030
22:19:27.588,SEARCHING,16.084,-7.524,1.601,0.00,0.00,-35.75,3.379,3.540,3.896,4.498,3.685,0,0,SEARCHING,0.000,0.800,0.059,-0.031
22:19:27.788,SEARCHING,16.136,-7.561,1.613,0.00,0.00,-35.90,3.271,3.514,3.895,4.487,3.584,0,0,SEARCHING,0.000,0.800,0.067,-0.039
22:19:27.990,SEARCHING,16.188,-7.599,1.626,0.00,0.00,-36.08,3.253,3.447,3.879,4.411,3.508,0,0,SEARCHING,0.000,0.800,0.070,-0.040
22:19:28.190,SEARCHING,16.240,-7.636,1.640,0.00,0.00,-36.26,3.156,3.389,3.849,4.391,3.492,0,0,SEARCHING,0.000,0.800,0.070,-0.046
22:19:28.390,SEARCHING,16.291,-7.674,1.655,0.00,0.00,-36.47,3.096,3.402,3.814,4.400,3.448,0,0,SEARCHING,0.000,0.800,0.075,-0.049
22:19:28.592,SEARCHING,16.342,-7.712,1.670,0.00,0.00,-36.70,3.016,3.373,3.775,4.354,3.397,0,0,SEARCHING,0.000,0.800,0.078,-0.053
22:19:28.791,SEARCHING,16.394,-7.751,1.686,0.00,0.00,-36.95,2.957,3.309,3.744,4.278,3.329,0,0,SEARCHING,0.000,0.800,0.080,-0.057
22:19:28.995,SEARCHING,16.445,-7.789,1.702,0.00,0.00,-37.21,2.962,3.294,3.709,4.256,3.317,0,0,SEARCHING,0.000,0.800,0.080,-0.054
22:19:29.193,SEARCHING,16.496,-7.828,1.719,0.00,0.00,-37.46,2.936,3.245,3.655,4.233,3.237,0,0,SEARCHING,0.000,0.800,0.087,-0.054
22:19:29.392,SEARCHING,16.546,-7.867,1.736,0.00,0.00,-37.70,2.953,3.167,3.640,4.163,3.153,0,0,SEARCHING,0.000,0.800,0.092,-0.051
22:19:29.591,SEARCHING,16.597,-7.906,1.755,0.00,0.00,-37.95,2.792,3.040,3.597,4.160,3.054,0,0,SEARCHING,0.000,0.800,0.104,-0.064
22:19:29.792,SEARCHING,16.647,-7.946,1.776,0.00,0.00,-38.24,2.856,3.021,3.576,4.049,2.986,0,0,SEARCHING,0.000,0.800,0.106,-0.056
22:19:29.993,SEARCHING,16.698,-7.986,1.798,0.00,0.00,-38.50,2.909,2.968,3.526,4.016,2.947,0,0,SEARCHING,0.000,0.800,0.108,-0.048
22:19:30.193,SEARCHING,16.748,-8.025,1.820,0.00,0.00,-38.71,2.933,2.888,3.483,3.952,2.884,0,0,SEARCHING,0.000,0.800,0.112,-0.043
22:19:30.394,SEARCHING,16.798,-8.066,1.843,0.00,0.00,-38.91,2.894,2.805,3.518,3.842,2.821,0,0,SEARCHING,0.000,0.800,0.113,-0.049
22:19:30.595,SEARCHING,16.847,-8.106,1.866,0.00,0.00,-39.14,2.789,2.746,3.501,3.821,2.770,0,0,SEARCHING,0.000,0.800,0.119,-0.058
22:19:30.795,SEARCHING,16.897,-8.146,1.890,0.00,0.00,-39.42,2.628,2.687,3.450,3.765,2.702,0,0,SEARCHING,0.000,0.800,0.125,-0.073
22:19:30.995,SEARCHING,16.946,-8.187,1.916,0.00,0.00,-39.77,2.569,2.681,3.386,3.702,2.609,0,0,SEARCHING,0.000,0.800,0.136,-0.075
22:19:31.198,SEARCHING,17.026,-8.254,1.943,0.00,0.00,-40.34,2.476,2.623,3.367,3.613,2.473,0,0,SEARCHING,0.000,0.800,0.153,-0.085
22:19:31.396,SEARCHING,17.075,-8.295,1.977,0.00,0.00,-40.72,2.505,6.216,3.301,3.553,2.301,0,0,SEARCHING,0.000,0.800,0.184,-0.077
22:19:31.598,SEARCHING,17.123,-8.337,2.015,0.00,0.00,-40.90,3.477,6.511,3.283,3.468,2.251,0,0,SEARCHING,0.000,0.800,0.187,0.014
22:19:31.797,SEARCHING,17.171,-8.379,2.051,0.00,0.00,-40.84,3.527,6.404,3.273,3.356,2.258,0,0,SEARCHING,0.000,0.800,0.174,0.018
22:19:31.999,SEARCHING,17.220,-8.421,2.085,0.00,0.00,-40.76,3.521,6.357,3.229,3.258,2.280,0,0,SEARCHING,0.000,0.800,0.158,0.021
22:19:32.200,SEARCHING,17.268,-8.463,2.116,0.00,0.00,-40.66,3.504,6.356,3.216,3.187,2.244,0,0,SEARCHING,0.000,0.800,0.158,0.020
22:19:32.399,SEARCHING,17.317,-8.504,2.148,0.00,0.00,-40.57,3.459,6.324,3.214,3.132,2.217,0,0,SEARCHING,0.000,0.800,0.158,0.018
22:19:32.600,SEARCHING,17.365,-8.546,2.181,0.00,0.00,-40.49,3.427,6.192,3.190,3.033,2.137,0,0,SEARCHING,0.000,0.800,0.166,0.017
22:19:32.801,SEARCHING,17.414,-8.588,2.216,0.00,0.00,-40.41,3.465,6.187,3.214,2.892,2.036,0,0,SEARCHING,0.000,0.800,0.174,0.018
22:19:33.001,SEARCHING,17.463,-8.629,2.252,0.00,0.00,-40.34,3.434,6.184,3.272,2.853,1.986,0,0,SEARCHING,0.000,0.800,0.184,0.012
22:19:33.202,SEARCHING,17.512,-8.670,2.288,0.00,0.00,-40.28,3.390,6.103,3.253,2.766,1.929,0,0,SEARCHING,0.000,0.800,0.188,0.010
22:19:33.403,SEARCHING,17.561,-8.712,2.326,0.00,0.00,-40.24,3.332,6.063,3.242,2.697,1.898,0,0,SEARCHING,0.000,0.800,0.187,0.007
22:19:33.604,SEARCHING,17.609,-8.753,2.362,0.00,0.00,-40.21,3.284,6.032,3.241,2.597,4.464,0,0,SEARCHING,0.000,0.800,-0.193,0.003
22:19:33.804,SEARCHING,17.658,-8.794,2.320,0.00,0.00,-40.20,3.203,6.010,3.202,2.653,5.658,0,0,SEARCHING,0.000,0.800,-0.240,0.000
22:19:34.004,SEARCHING,17.707,-8.836,2.273,0.00,0.00,-40.20,3.137,6.004,3.205,2.750,5.548,0,0,SEARCHING,0.000,0.800,-0.220,-0.005
22:19:34.204,SEARCHING,17.756,-8.877,2.231,0.00,0.00,-40.24,3.094,5.874,3.248,2.874,5.468,0,0,SEARCHING,0.000,0.800,-0.198,-0.012
22:19:34.405,SEARCHING,17.805,-8.918,2.193,0.00,0.00,-40.29,3.064,5.858,3.165,2.990,5.448,0,0,SEARCHING,0.000,0.800,-0.181,-0.008
22:19:34.606,SEARCHING,17.854,-8.960,2.157,0.00,0.00,-40.32,3.009,5.851,3.095,3.097,5.446,0,0,SEARCHING,0.000,0.800,-0.167,-0.007
22:19:34.806,SEARCHING,17.903,-9.001,2.125,0.00,0.00,-40.36,2.954,5.692,3.124,3.141,5.325,0,0,SEARCHING,0.000,0.800,-0.157,-0.015
22:19:35.007,SEARCHING,17.951,-9.043,2.095,0.00,0.00,-40.42,2.963,5.650,3.100,3.263,5.246,0,0,SEARCHING,0.000,0.800,-0.139,-0.012
22:19:35.208,SEARCHING,18.000,-9.084,2.067,0.00,0.00,-40.47,2.935,5.645,3.059,3.304,5.201,0,0,SEARCHING,0.000,0.800,-0.132,-0.011
22:19:35.408,SEARCHING,18.049,-9.126,2.041,0.00,0.00,-40.53,2.940,5.582,3.185,3.401,5.092,0,0,SEARCHING,0.000,0.800,-0.117,-0.021
22:19:35.610,SEARCHING,18.097,-9.167,2.018,0.00,0.00,-40.69,2.935,5.564,3.804,3.427,5.002,0,0,SEARCHING,0.000,0.800,-0.110,-0.062
22:19:35.809,SEARCHING,18.146,-9.209,1.996,0.00,0.00,-41.00,2.934,5.659,4.184,3.464,4.975,0,0,SEARCHING,0.000,0.800,-0.105,-0.081
22:19:36.012,SEARCHING,18.194,-9.251,1.976,0.00,0.00,-41.37,2.966,5.774,4.248,3.513,4.921,0,0,SEARCHING,0.000,0.800,-0.098,-0.081
22:19:36.212,SEARCHING,18.242,-9.294,1.957,0.00,0.00,-41.74,2.935,5.866,4.176,3.595,4.878,0,0,SEARCHING,0.000,0.800,-0.088,-0.081
22:19:36.414,SEARCHING,18.289,-9.336,1.941,0.00,0.00,-42.09,2.969,6.009,3.969,3.665,4.853,0,0,SEARCHING,0.000,0.800,-0.080,-0.068
22:19:36.615,SEARCHING,18.337,-9.379,1.925,0.00,0.00,-42.41,2.976,6.113,3.930,3.686,4.868,0,0,SEARCHING,0.000,0.800,-0.079,-0.065
22:19:36.816,SEARCHING,18.384,-9.423,1.909,0.00,0.00,-42.71,2.982,6.176,3.960,3.713,4.802,0,0,SEARCHING,0.000,0.800,-0.073,-0.066
22:19:37.017,SEARCHING,18.431,-9.466,1.895,0.00,0.00,-43.00,3.006,6.348,3.945,3.779,4.768,0,0,SEARCHING,0.000,0.800,-0.066,-0.063
22:19:37.215,SEARCHING,18.478,-9.510,1.882,0.00,0.00,-43.29,3.005,6.356,3.900,3.804,4.753,0,0,SEARCHING,0.000,0.800,-0.063,-0.061
22:19:37.415,SEARCHING,18.524,-9.554,1.870,0.00,0.00,-43.57,3.010,6.356,3.846,3.830,4.648,0,0,SEARCHING,0.000,0.800,-0.055,-0.058
22:19:37.616,SEARCHING,18.571,-9.598,1.859,0.00,0.00,-43.83,3.002,6.472,3.909,3.868,4.666,0,0,SEARCHING,0.000,0.800,-0.053,-0.062
22:19:37.816,SEARCHING,18.617,-9.643,1.849,0.00,0.00,-44.11,3.054,6.443,3.932,3.895,4.600,0,0,SEARCHING,0.000,0.800,0.000,-0.058
22:19:38.017,SEARCHING,18.697,-9.721,1.844,0.00,0.00,-44.59,3.019,6.536,3.899,3.908,4.645,0,0,SEARCHING,0.000,0.800,0.000,-0.060
22:19:38.218,SEARCHING,18.810,-9.834,1.844,0.00,0.00,-45.27,3.085,6.538,3.786,3.922,4.583,0,0,SEARCHING,0.000,0.800,0.000,-0.048
22:19:38.418,SEARCHING,18.922,-9.948,1.844,0.00,0.00,-45.84,3.093,6.544,3.745,3.878,4.613,0,0,SEARCHING,0.000,0.800,0.000,-0.045
22:19:38.619,SEARCHING,19.033,-10.063,1.844,0.00,0.00,-46.35,3.217,6.634,3.678,3.862,4.581,0,0,SEARCHING,0.000,0.800,0.000,-0.031
22:19:38.819,SEARCHING,19.143,-10.179,1.844,0.00,0.00,-46.73,3.248,6.728,3.606,3.898,4.576,0,0,SEARCHING,0.000,0.800,0.000,-0.024
22:19:39.020,SEARCHING,19.253,-10.296,1.844,0.00,0.00,-47.00,3.294,6.730,3.558,3.906,4.627,0,0,SEARCHING,0.000,0.800,0.000,-0.018
22:19:39.221,SEARCHING,19.362,-10.413,1.844,0.00,0.00,-47.22,3.267,6.652,3.517,3.884,4.582,0,0,SEARCHING,0.000,0.800,0.000,-0.017
22:19:39.421,SEARCHING,19.470,-10.531,1.844,0.00,0.00,-47.42,3.273,6.633,3.446,3.944,4.574,0,0,SEARCHING,0.000,0.800,0.000,-0.012
22:19:39.622,SEARCHING,19.578,-10.649,1.844,0.00,0.00,-47.58,3.228,6.542,3.373,3.915,4.557,0,0,SEARCHING,0.000,0.800,0.000,-0.011
22:19:39.823,SEARCHING,19.686,-10.767,1.844,0.00,0.00,-47.71,3.124,6.535,3.345,3.879,4.594,0,0,SEARCHING,0.000,0.800,0.000,-0.017
22:19:40.023,SEARCHING,19.793,-10.886,1.844,0.00,0.00,-47.89,3.121,6.532,3.317,3.944,4.555,0,0,SEARCHING,0.000,0.800,0.000,-0.015
22:19:40.223,SEARCHING,19.901,-11.004,1.844,0.00,0.00,-48.07,3.091,6.364,3.255,3.881,4.577,0,0,SEARCHING,0.000,0.800,0.000,-0.013
22:19:40.424,SEARCHING,20.007,-11.124,1.844,0.00,0.00,-48.22,3.154,6.270,3.287,3.880,4.623,0,0,SEARCHING,0.000,0.800,0.000,-0.010
22:19:40.625,SEARCHING,20.114,-11.243,1.844,0.00,0.00,-48.34,3.161,6.355,3.234,3.902,4.577,0,0,SEARCHING,0.000,0.800,0.000,-0.006
22:19:40.826,SEARCHING,20.215,-11.357,1.839,0.00,0.00,-48.43,3.199,6.187,3.200,3.875,4.578,0,0,SEARCHING,0.000,0.800,0.000,-0.000
22:19:41.027,SEARCHING,20.294,-11.446,1.839,0.00,0.00,-48.44,3.197,6.184,3.267,3.901,4.588,0,0,SEARCHING,0.000,0.800,0.000,-0.005
22:19:41.226,SEARCHING,20.400,-11.566,1.839,0.00,0.00,-48.50,3.196,6.047,3.201,3.934,4.565,0,0,SEARCHING,0.000,0.800,0.000,-0.000
22:19:41.427,SEARCHING,20.506,-11.686,1.839,0.00,0.00,-48.51,3.203,6.017,3.250,3.880,4.571,0,0,SEARCHING,0.000,0.800,0.000,-0.004
22:19:41.628,SEARCHING,20.612,-11.806,1.839,0.00,0.00,-48.55,3.220,5.872,3.234,3.935,4.576,0,0,SEARCHING,0.000,0.800,0.000,-0.001
22:19:41.829,SEARCHING,20.718,-11.926,1.839,0.00,0.00,-48.57,3.141,5.693,3.178,3.937,4.520,0,0,SEARCHING,0.000,0.800,0.000,-0.003
22:19:42.030,SEARCHING,20.824,-12.046,1.839,0.00,0.00,-48.59,3.084,5.624,3.225,3.926,4.575,0,0,SEARCHING,0.000,0.800,0.000,-0.011
22:19:42.231,SEARCHING,20.930,-12.166,1.839,0.00,0.00,-48.72,3.014,5.482,3.590,3.945,4.611,0,0,SEARCHING,0.000,0.800,0.000,-0.043
22:19:42.431,SEARCHING,21.035,-12.286,1.839,0.00,0.00,-49.16,2.961,5.550,3.881,3.878,4.577,0,0,SEARCHING,0.000,0.800,0.000,-0.064
22:19:42.631,SEARCHING,21.139,-12.408,1.839,0.00,0.00,-49.86,2.992,5.556,3.886,3.936,4.576,0,0,SEARCHING,0.000,0.800,0.000,-0.062
22:19:42.832,SEARCHING,21.242,-12.531,1.839,0.00,0.00,-50.56,2.980,5.648,3.846,3.976,4.576,0,0,SEARCHING,0.000,0.800,0.000,-0.060
22:19:43.032,SEARCHING,21.343,-12.655,1.839,0.00,0.00,-51.25,3.029,5.713,3.807,3.904,4.576,0,0,SEARCHING,0.000,0.800,0.000,-0.054
22:19:43.234,SEARCHING,21.442,-12.780,1.839,0.00,0.00,-51.88,3.033,5.812,3.810,3.914,4.582,0,0,SEARCHING,0.000,0.800,0.000,-0.054
22:19:43.434,SEARCHING,21.540,-12.907,1.839,0.00,0.00,-52.48,3.117,5.855,3.803,3.906,4.576,0,0,SEARCHING,0.000,0.800,0.000,-0.046
22:19:44.879,SEARCHING,21.637,-13.034,1.839,0.00,0.00,-53.01,3.085,5.862,3.746,3.894,4.576,0,0,SEARCHING,0.000,0.800,0.000,-0.046
22:19:44.891,SEARCHING,21.757,-13.194,1.839,0.00,0.00,-53.65,3.085,5.862,3.746,3.894,4.576,0,0,SEARCHING,0.000,0.800,0.000,-0.046
22:19:44.995,SEARCHING,21.828,-13.291,1.839,0.00,0.00,-54.05,3.081,6.022,3.702,3.925,4.554,0,0,SEARCHING,0.000,0.800,0.000,-0.044
22:19:45.183,SEARCHING,21.921,-13.421,1.839,0.00,0.00,-54.57,3.079,5.877,3.654,3.903,4.576,0,0,SEARCHING,0.000,0.800,0.000,-0.041
22:19:45.382,SEARCHING,22.013,-13.552,1.839,0.00,0.00,-55.07,3.079,5.730,3.638,3.931,4.576,0,0,SEARCHING,0.000,0.800,0.000,-0.040
22:19:45.582,SEARCHING,22.104,-13.683,1.839,0.00,0.00,-55.53,3.048,5.552,3.602,3.854,4.576,0,0,SEARCHING,0.000,0.800,0.000,-0.040
22:19:45.782,SEARCHING,22.194,-13.816,1.839,0.00,0.00,-55.98,3.085,5.349,3.561,3.905,4.531,0,0,SEARCHING,0.000,0.800,0.000,-0.035
22:19:45.984,SEARCHING,22.283,-13.948,1.839,0.00,0.00,-56.37,3.061,5.208,3.540,3.926,4.518,0,0,SEARCHING,0.000,0.800,0.000,-0.035
22:19:46.183,SEARCHING,22.372,-14.082,1.839,0.00,0.00,-56.75,3.102,5.025,3.521,3.921,4.518,0,0,SEARCHING,0.000,0.800,0.000,-0.031
22:19:46.385,SEARCHING,22.459,-14.216,1.839,0.00,0.00,-57.10,3.078,4.857,3.500,3.886,4.587,0,0,SEARCHING,0.000,0.800,0.000,-0.031
22:19:46.582,SEARCHING,22.546,-14.351,1.839,0.00,0.00,-57.46,3.043,4.715,3.485,3.943,4.582,0,0,SEARCHING,0.000,0.800,0.000,-0.033
22:19:46.782,SEARCHING,22.631,-14.486,1.839,0.00,0.00,-57.84,3.069,4.535,3.408,3.920,4.588,0,0,SEARCHING,0.000,0.800,0.000,-0.026
22:19:46.982,SEARCHING,22.716,-14.621,1.839,0.00,0.00,-58.15,3.057,4.445,3.401,3.944,4.661,0,0,SEARCHING,0.000,0.800,0.000,-0.026
22:19:47.182,SEARCHING,22.800,-14.758,1.839,0.00,0.00,-58.44,3.051,4.261,3.427,3.945,4.476,0,0,SEARCHING,0.000,0.800,0.000,-0.029
22:19:47.384,SEARCHING,22.884,-14.894,1.839,0.00,0.00,-58.77,3.067,4.097,3.444,3.945,4.232,0,0,SEARCHING,0.000,0.800,0.000,-0.029
22:19:47.584,SEARCHING,22.966,-15.031,1.839,0.00,0.00,-59.09,3.089,3.902,3.382,3.931,3.958,0,0,SEARCHING,0.000,0.800,0.000,-0.022
22:19:47.784,SEARCHING,23.048,-15.169,1.839,0.00,0.00,-59.36,3.091,3.654,3.353,3.790,3.824,0,0,SEARCHING,0.000,0.800,0.000,-0.020
22:19:47.985,SEARCHING,23.150,-15.341,1.839,0.00,0.00,-59.64,3.131,3.427,3.313,3.597,3.606,0,0,SEARCHING,0.000,0.800,0.000,-0.014
22:19:48.186,SEARCHING,23.210,-15.444,1.839,0.00,0.00,-59.76,3.094,3.335,3.239,3.451,3.484,0,0,SEARCHING,0.000,0.800,0.000,-0.012
22:19:48.386,SEARCHING,23.291,-15.583,1.839,0.00,0.00,-59.88,3.112,3.270,3.087,3.345,3.289,0,0,SEARCHING,0.000,0.800,0.000,0.002
22:19:48.587,SEARCHING,23.371,-15.721,1.839,0.00,0.00,-59.88,2.953,3.166,3.060,3.197,3.194,0,0,SEARCHING,0.000,0.800,0.000,-0.009
22:19:48.787,SEARCHING,23.451,-15.860,1.839,0.00,0.00,-60.04,2.596,2.980,2.968,3.045,3.009,0,0,SEARCHING,0.000,0.800,0.000,-0.039
22:19:48.987,SEARCHING,23.530,-15.999,1.839,0.00,0.00,-60.47,2.603,2.769,2.905,2.856,2.845,0,0,SEARCHING,0.000,0.800,0.000,-0.032
22:19:49.189,SEARCHING,23.609,-16.138,1.839,0.00,0.00,-60.84,2.588,2.687,2.819,2.719,2.707,0,0,SEARCHING,0.000,0.800,0.000,-0.025
22:19:49.389,SEARCHING,23.686,-16.278,1.839,0.00,0.00,-61.15,2.477,2.546,2.781,2.543,2.560,0,0,SEARCHING,0.000,0.800,0.000,-0.035
22:19:49.590,SEARCHING,23.763,-16.418,1.839,0.00,0.00,-61.54,2.360,2.360,2.726,2.396,2.386,0,0,SEARCHING,0.000,0.800,0.000,-0.046
22:19:49.790,SEARCHING,23.839,-16.559,1.839,0.00,0.00,-62.06,2.196,2.237,2.651,2.243,2.233,0,0,SEARCHING,0.000,0.800,0.000,-0.063
22:19:49.991,SEARCHING,23.913,-16.701,1.839,0.00,0.00,-62.78,2.050,2.154,2.575,2.164,2.157,0,0,SEARCHING,0.000,0.800,0.000,-0.080
22:19:50.192,SEARCHING,23.985,-16.844,1.839,0.00,0.00,-63.70,1.891,2.017,2.470,2.063,2.045,0,0,SEARCHING,0.000,0.793,0.000,-0.099
22:19:50.392,SEARCHING,24.054,-16.986,1.839,0.00,0.00,-64.83,1.721,1.944,2.357,1.966,1.958,0,0,SEARCHING,0.000,0.722,0.000,-0.125
22:19:50.593,SEARCHING,24.115,-17.118,1.859,0.00,0.00,-66.26,1.592,3.630,2.275,3.044,2.827,0,0,SEARCHING,0.000,0.800,0.000,-0.151
22:19:50.794,SEARCHING,24.162,-17.229,1.859,0.00,0.00,-67.60,1.322,3.501,2.125,3.481,3.482,0,0,SEARCHING,0.000,0.800,0.000,-0.228
22:19:50.994,SEARCHING,24.234,-17.415,1.859,0.00,0.00,-70.67,1.260,3.280,2.012,3.303,3.277,0,0,SEARCHING,0.000,0.800,0.000,-0.237
22:19:51.194,SEARCHING,24.272,-17.529,1.859,0.00,0.00,-72.70,1.227,2.967,1.849,2.955,2.962,0,0,SEARCHING,0.000,0.800,0.000,-0.219
22:19:51.395,SEARCHING,24.316,-17.683,1.859,0.00,0.00,-75.27,3.399,2.730,1.721,2.735,2.754,0,0,SEARCHING,0.000,0.800,0.000,0.230
22:19:51.595,SEARCHING,24.357,-17.838,1.859,0.00,0.00,-74.11,3.953,2.615,1.644,2.618,2.628,0,0,SEARCHING,0.000,0.800,0.000,0.284
22:19:51.796,SEARCHING,24.404,-17.990,1.859,0.00,0.00,-70.88,4.280,2.637,1.672,2.640,2.644,0,0,SEARCHING,0.000,0.800,0.000,0.292
22:19:51.996,SEARCHING,24.461,-18.140,1.859,0.00,0.00,-67.52,6.070,2.608,1.735,2.607,2.671,0,0,SEARCHING,0.000,0.800,0.000,0.329
22:19:52.197,SEARCHING,24.526,-18.286,1.859,0.00,0.00,-63.85,6.218,2.728,1.803,2.728,2.706,0,0,SEARCHING,0.000,0.800,0.000,0.315
22:19:52.399,SEARCHING,24.601,-18.428,1.859,0.00,0.00,-60.26,6.306,2.832,1.946,2.841,2.843,0,0,SEARCHING,0.000,0.800,0.000,0.284
22:19:52.599,SEARCHING,24.684,-18.565,1.859,0.00,0.00,-56.98,6.186,2.981,1.910,2.973,2.979,0,0,SEARCHING,0.000,0.800,0.000,0.290
22:19:52.800,SEARCHING,24.774,-18.696,1.859,0.00,0.00,-53.70,6.184,3.261,1.931,3.273,3.237,0,0,SEARCHING,0.000,0.800,0.000,0.285
22:19:53.000,SEARCHING,24.872,-18.823,1.859,0.00,0.00,-50.47,5.843,4.244,2.003,3.587,4.144,0,0,SEARCHING,0.000,0.800,0.000,0.263
22:19:53.203,SEARCHING,24.945,-18.908,1.852,0.00,0.00,-48.37,5.232,5.203,2.020,3.868,4.657,0,0,SEARCHING,0.000,0.800,-0.053,0.243
22:19:53.406,SEARCHING,25.020,-18.991,1.847,0.00,0.00,-46.47,4.828,5.912,2.123,3.830,4.589,0,0,SEARCHING,0.000,0.800,-0.052,0.211
22:19:53.606,SEARCHING,25.099,-19.071,1.841,0.00,0.00,-44.79,4.631,5.955,2.184,3.898,4.501,0,0,SEARCHING,0.000,0.800,0.000,0.194
22:19:53.807,SEARCHING,25.244,-19.209,1.841,0.00,0.00,-42.04,4.224,5.739,2.269,3.940,4.576,0,0,SEARCHING,0.000,0.800,0.000,0.163
22:19:54.008,SEARCHING,25.334,-19.288,1.841,0.00,0.00,-40.66,3.976,5.590,2.415,3.882,4.576,0,0,SEARCHING,0.000,0.800,0.000,0.130
22:19:54.207,SEARCHING,25.456,-19.391,1.841,0.00,0.00,-39.30,3.709,5.463,3.194,3.882,4.554,0,0,SEARCHING,0.000,0.800,0.000,0.035
22:19:54.409,SEARCHING,25.580,-19.492,1.841,0.00,0.00,-38.87,3.669,5.267,3.336,3.888,4.552,0,0,SEARCHING,0.000,0.800,0.000,0.022
22:19:54.607,SEARCHING,25.705,-19.592,1.841,0.00,0.00,-38.61,3.633,5.130,3.402,3.922,4.570,0,0,SEARCHING,0.000,0.800,0.000,0.015
22:19:54.807,SEARCHING,25.830,-19.691,1.841,0.00,0.00,-38.43,3.578,4.953,3.429,3.874,4.601,0,0,SEARCHING,0.000,0.800,0.000,0.010
22:19:55.006,SEARCHING,25.918,-19.761,1.836,0.00,0.00,-38.34,3.561,4.819,3.545,3.901,4.583,0,0,SEARCHING,0.000,0.800,0.000,0.001
22:19:55.207,SEARCHING,26.044,-19.860,1.836,0.00,0.00,-38.32,3.486,4.683,3.603,3.887,4.579,0,0,SEARCHING,0.000,0.800,0.000,-0.007
22:19:55.408,SEARCHING,26.201,-19.984,1.836,0.00,0.00,-38.39,3.493,4.582,3.621,3.858,4.509,0,0,SEARCHING,0.000,0.800,0.000,-0.008
22:19:55.608,SEARCHING,26.295,-20.059,1.836,0.00,0.00,-38.45,3.519,4.498,3.622,3.886,4.487,0,0,SEARCHING,0.000,0.800,0.000,-0.006
22:19:55.809,SEARCHING,26.420,-20.158,1.836,0.00,0.00,-38.52,3.455,4.283,3.580,3.881,4.334,0,0,SEARCHING,0.000,0.800,0.000,-0.008
22:19:56.009,SEARCHING,26.545,-20.258,1.836,0.00,0.00,-38.61,3.467,4.181,3.563,3.875,4.240,0,0,SEARCHING,0.000,0.800,0.000,-0.006
22:19:56.210,SEARCHING,26.670,-20.358,1.836,0.00,0.00,-38.72,3.461,4.035,3.617,3.887,4.029,0,0,SEARCHING,0.000,0.800,0.000,-0.010
22:19:56.410,SEARCHING,26.795,-20.458,1.836,0.00,0.00,-38.85,3.412,3.835,3.642,3.878,3.827,0,0,SEARCHING,0.000,0.800,0.000,-0.015
22:19:56.610,SEARCHING,26.919,-20.559,1.836,0.00,0.00,-39.01,3.387,3.671,3.538,3.675,3.718,0,0,SEARCHING,0.000,0.800,0.000,-0.010
22:19:56.812,SEARCHING,27.074,-20.685,1.836,0.00,0.00,-39.10,3.466,3.542,3.398,3.538,3.556,0,0,SEARCHING,0.000,0.800,0.000,0.005
22:19:57.012,SEARCHING,27.168,-20.760,1.836,0.00,0.00,-39.05,3.438,3.430,3.254,3.430,3.424,0,0,SEARCHING,0.000,0.800,0.000,0.013
22:19:57.212,SEARCHING,27.292,-20.861,1.836,0.00,0.00,-38.91,3.374,3.254,3.107,3.253,3.253,0,0,SEARCHING,0.000,0.800,0.000,0.020
22:19:57.413,SEARCHING,27.417,-20.961,1.836,0.00,0.00,-38.69,3.299,3.087,2.924,3.089,3.089,0,0,SEARCHING,0.000,0.800,0.000,0.031
22:19:57.614,SEARCHING,27.542,-21.061,1.836,0.00,0.00,-38.36,3.128,2.914,2.781,2.923,2.923,0,0,SEARCHING,0.000,0.800,0.000,0.032
22:19:57.815,SEARCHING,27.699,-21.185,1.836,0.00,0.00,-37.90,2.962,2.802,2.656,2.785,2.804,0,0,SEARCHING,0.000,0.800,0.000,0.031
22:19:58.015,SEARCHING,27.794,-21.258,1.836,0.00,0.00,-37.63,2.847,2.688,2.516,2.674,2.688,0,0,SEARCHING,0.000,0.800,0.000,0.037
22:19:58.216,SEARCHING,27.921,-21.355,1.836,0.00,0.00,-37.23,2.676,2.488,2.359,2.502,2.495,0,0,SEARCHING,0.000,0.800,0.000,0.040
22:19:58.416,SEARCHING,28.049,-21.452,1.836,0.00,0.00,-36.77,2.491,2.358,2.225,2.357,2.359,0,0,SEARCHING,0.000,0.800,0.000,0.038
22:19:58.617,SEARCHING,28.177,-21.547,1.836,0.00,0.00,-36.31,2.381,2.233,2.085,2.233,2.233,0,0,SEARCHING,0.000,0.800,0.000,0.048
22:19:58.817,SEARCHING,28.306,-21.641,1.836,0.00,0.00,-35.78,2.205,2.049,1.920,2.053,2.046,0,0,SEARCHING,0.000,0.800,0.000,0.054
22:19:59.020,SEARCHING,28.468,-21.756,1.836,0.00,0.00,-35.01,2.045,1.903,1.777,1.903,1.904,0,0,SEARCHING,0.000,0.705,0.000,0.059
22:19:59.219,SEARCHING,28.581,-21.834,1.836,0.00,0.00,-34.30,1.899,1.765,1.641,1.770,1.765,0,0,SEARCHING,0.000,0.606,0.000,0.066
22:19:59.420,SEARCHING,28.655,-21.885,1.836,0.00,0.00,-33.73,1.803,1.664,1.551,1.669,1.658,0,0,SEARCHING,0.000,0.539,0.000,0.072
22:19:59.620,SEARCHING,28.746,-21.944,1.836,0.00,0.00,-32.88,1.711,1.563,1.443,1.561,1.560,0,0,SEARCHING,0.000,0.474,0.000,0.087
22:19:59.821,SEARCHING,28.826,-21.995,1.836,0.00,0.00,-31.89,1.612,1.459,1.338,1.461,1.461,0,0,SEARCHING,0.000,0.412,0.000,0.101
22:20:00.021,SEARCHING,28.897,-22.039,1.836,0.00,0.00,-30.75,1.552,1.405,1.277,1.404,1.404,0,0,SEARCHING,0.000,0.380,0.000,0.111
22:20:00.221,SEARCHING,28.963,-22.077,1.836,0.00,0.00,-29.48,1.477,1.324,1.197,1.318,1.324,0,0,SEARCHING,0.000,0.337,0.000,0.127
22:20:00.421,SEARCHING,29.023,-22.110,1.836,0.00,0.00,-28.04,1.435,1.279,1.147,1.278,1.275,0,0,SEARCHING,0.000,0.314,0.000,0.140
22:20:00.622,SEARCHING,29.078,-22.139,1.836,0.00,0.00,-26.43,1.399,1.221,1.092,1.224,1.219,0,0,SEARCHING,0.000,0.286,0.000,0.161
22:20:00.823,SEARCHING,29.130,-22.164,1.836,0.00,0.00,-24.60,1.353,1.173,1.033,1.174,1.174,0,0,SEARCHING,0.000,0.262,0.000,0.183
22:20:01.028,SEARCHING,29.178,-22.185,1.836,0.00,0.00,-22.52,1.333,1.141,0.999,1.140,1.144,0,0,SEARCHING,0.000,0.250,0.000,0.201
22:20:01.228,SEARCHING,29.225,-22.203,1.836,0.00,0.00,-20.21,1.319,1.110,0.959,1.110,1.111,0,0,SEARCHING,0.000,0.250,0.000,0.228
22:20:01.428,SEARCHING,29.272,-22.220,1.836,0.00,0.00,-17.61,1.315,1.088,0.924,1.087,1.087,0,0,SEARCHING,0.000,0.250,0.000,0.257
22:20:01.629,SEARCHING,29.320,-22.234,1.836,0.00,0.00,-14.67,1.319,1.065,0.893,1.067,1.065,0,0,SEARCHING,0.000,0.250,0.000,0.290
22:20:01.830,SEARCHING,29.369,-22.245,1.836,0.00,0.00,-11.34,1.340,1.053,0.866,1.055,1.053,0,0,SEARCHING,0.000,0.250,0.000,0.326
22:20:02.031,SEARCHING,29.431,-22.255,1.836,0.00,0.00,-6.57,1.387,1.048,0.846,1.054,1.049,0,0,SEARCHING,0.000,0.250,0.000,0.369
22:20:02.231,SEARCHING,29.468,-22.258,1.836,0.00,0.00,-3.36,1.421,1.064,0.832,1.061,1.066,0,0,SEARCHING,0.000,0.250,0.000,0.398
22:20:02.432,SEARCHING,29.518,-22.260,1.836,0.00,0.00,1.14,1.344,1.096,0.830,1.099,1.101,0,0,SEARCHING,0.000,0.250,0.000,0.368
22:20:02.629,SEARCHING,29.568,-22.257,1.836,0.00,0.00,5.40,1.299,1.130,0.831,1.126,1.125,0,0,SEARCHING,0.000,0.250,0.000,0.346
22:20:02.828,SEARCHING,29.617,-22.251,1.836,0.00,0.00,9.31,1.216,1.179,0.839,1.168,1.179,0,0,SEARCHING,0.000,0.250,0.000,0.295
22:20:03.028,SEARCHING,29.667,-22.241,1.836,0.00,0.00,12.68,1.148,1.229,0.856,1.236,1.234,0,0,SEARCHING,0.000,0.267,0.000,0.238
22:20:03.229,SEARCHING,29.718,-22.228,1.836,0.00,0.00,15.47,1.107,1.289,0.861,1.285,1.278,0,0,SEARCHING,0.000,0.289,0.000,0.207
22:20:03.430,SEARCHING,29.773,-22.212,1.836,0.00,0.00,17.85,1.054,1.262,0.866,1.261,1.260,0,0,SEARCHING,0.000,0.280,0.000,0.164
22:20:03.630,SEARCHING,29.826,-22.194,1.836,0.00,0.00,19.76,1.011,1.195,0.864,1.196,1.194,0,0,SEARCHING,0.000,0.255,0.000,0.134
22:20:03.831,SEARCHING,29.874,-22.176,1.836,0.00,0.00,21.32,0.974,1.148,0.869,1.151,1.154,0,0,SEARCHING,0.000,0.250,0.000,0.099
22:20:04.031,SEARCHING,29.921,-22.157,1.836,0.00,0.00,22.48,0.929,1.090,0.864,1.091,1.093,0,0,SEARCHING,0.000,0.250,0.000,0.065
22:20:04.234,SEARCHING,29.978,-22.133,1.836,0.00,0.00,23.37,0.894,1.048,0.861,1.047,1.049,0,0,SEARCHING,0.000,0.250,0.000,0.035
22:20:04.433,SEARCHING,30.013,-22.118,1.836,0.00,0.00,23.63,0.854,1.002,0.851,1.000,1.001,0,0,SEARCHING,0.000,0.250,0.000,0.003
22:20:04.634,SEARCHING,30.058,-22.098,1.836,0.00,0.00,23.68,0.805,0.944,0.830,0.944,0.945,0,0,SEARCHING,0.000,0.250,0.000,-0.030
22:20:04.835,SEARCHING,30.104,-22.078,1.836,0.00,0.00,23.37,0.770,0.905,0.812,0.905,0.905,0,0,SEARCHING,0.000,0.250,0.000,-0.053
22:20:05.035,SEARCHING,30.150,-22.058,1.836,0.00,0.00,22.79,0.722,0.852,0.775,0.852,0.852,0,0,SEARCHING,0.000,0.250,0.000,-0.077
22:20:05.237,SEARCHING,30.208,-22.035,1.836,0.00,0.00,21.69,0.687,0.814,0.748,0.816,0.814,0,0,SEARCHING,0.000,0.250,0.000,-0.096
22:20:05.437,INSPECTING,30.243,-22.021,1.836,0.00,0.00,20.87,0.648,0.773,0.714,0.772,0.772,0,0,INSPECT_BOTTOM,0.000,0.100,-0.500,0.000
22:20:05.638,INSPECTING,30.250,-22.018,1.733,0.00,0.00,20.87,0.637,0.757,0.701,0.757,0.757,0,0,INSPECT_BOTTOM,0.000,0.100,-0.500,0.000
22:20:05.838,INSPECTING,30.258,-22.015,1.633,0.00,0.00,20.87,0.633,0.750,0.699,0.749,0.751,0,0,INSPECT_BOTTOM,0.000,0.100,-0.500,0.000
22:20:06.038,INSPECTING,30.265,-22.012,1.533,0.00,0.00,20.87,0.633,0.744,0.694,0.744,0.743,0,0,INSPECT_TOP,0.000,0.100,0.500,0.000
22:20:06.240,INSPECTING,30.273,-22.010,1.640,0.00,0.00,20.87,0.635,0.735,0.692,0.736,0.735,0,0,INSPECT_TOP,0.000,0.100,0.500,0.000
22:20:06.440,INSPECTING,30.280,-22.007,1.633,0.00,0.00,20.87,0.637,0.726,0.688,0.724,0.725,0,0,INSPECT_BOTTOM,0.000,0.100,-0.500,0.000
22:20:06.640,INSPECTING,30.288,-22.004,1.533,0.00,0.00,20.87,0.633,0.721,0.685,0.721,0.719,0,0,INSPECT_TOP,0.000,0.100,0.500,0.000
22:20:06.842,INSPECTING,30.295,-22.001,1.641,0.00,0.00,20.87,0.627,0.713,0.680,0.713,0.714,0,0,INSPECT_BOTTOM,0.000,0.100,-0.500,0.000
22:20:07.041,TURNING,30.308,-21.996,1.583,0.00,0.00,20.87,0.616,0.701,0.672,0.701,0.701,0,0,TURNING,0.000,0.050,0.000,-1.400
22:20:07.244,TURNING,30.319,-21.993,1.583,0.00,0.00,6.43,0.621,0.721,0.542,0.723,0.723,0,0,TURNING,0.000,0.050,0.000,-1.400
22:20:07.444,TURNING,30.329,-21.993,1.583,0.00,0.00,-9.61,0.678,0.567,0.458,0.567,0.567,0,0,TURNING,0.000,0.050,0.000,-1.400
22:20:07.649,TURNING,30.338,-21.996,1.583,0.00,0.00,-25.65,0.552,0.478,0.420,0.478,0.478,0,0,TURNING,0.000,0.050,0.000,-1.400
22:20:07.850,TURNING,30.347,-22.002,1.583,0.00,0.00,-41.70,0.459,0.440,0.423,0.440,0.440,0,0,TURNING,0.000,0.050,0.000,-1.400
22:20:08.050,TURNING,30.353,-22.009,1.583,0.00,0.00,-57.74,0.401,0.422,0.445,0.422,0.422,0,0,TURNING,0.000,0.050,0.000,-1.400
22:20:08.252,TURNING,30.358,-22.018,1.583,0.00,0.00,-73.78,0.376,0.424,0.488,0.425,0.424,0,0,TURNING,0.000,0.050,0.000,-1.400
22:20:08.452,TURNING,30.359,-22.028,1.583,0.00,0.00,-89.83,0.385,0.485,0.652,0.485,0.484,0,0,TURNING,0.000,0.050,0.000,-1.400
22:20:08.653,TURNING,30.358,-22.038,1.583,0.00,0.00,-105.87,0.441,0.626,1.081,0.627,0.628,0,0,TURNING,0.000,0.050,0.000,-1.400
22:20:08.854,TURNING,30.354,-22.047,1.583,0.00,0.00,-121.91,0.578,0.977,2.381,0.986,0.989,0,0,TURNING,0.000,0.050,0.000,-1.400
22:20:09.054,TURNING,30.348,-22.055,1.583,0.00,0.00,-137.95,0.826,2.048,2.662,2.104,2.064,0,0,TURNING,0.000,0.050,0.000,-1.400
22:20:09.312,RETURNING,30.340,-22.060,1.583,0.00,0.00,-154.00,1.835,2.670,2.935,2.655,2.668,0,0,TURNING,0.000,0.000,0.000,0.000
22:20:09.499,RETURNING,30.280,-22.078,1.583,0.00,0.00,-164.14,2.389,2.801,3.362,2.780,2.805,0,0,RETURNING,0.000,0.800,0.000,-0.097
22:20:09.708,RETURNING,30.126,-22.121,1.583,0.00,0.00,-165.21,2.293,2.688,3.284,2.703,2.705,0,0,RETURNING,0.000,0.800,0.000,-0.105
22:20:09.908,RETURNING,29.971,-22.160,1.583,0.00,0.00,-166.41,2.198,2.596,3.155,2.583,2.582,0,0,RETURNING,0.000,0.800,0.000,-0.110
22:20:10.115,RETURNING,29.854,-22.187,1.583,0.00,0.00,-167.36,2.060,2.449,3.023,2.451,2.452,0,0,RETURNING,0.000,0.800,0.000,-0.124
22:20:10.394,RETURNING,29.658,-22.229,1.583,0.00,0.00,-169.11,1.973,2.363,2.937,2.358,2.350,0,0,RETURNING,0.000,0.800,0.000,-0.133
22:20:10.594,RETURNING,29.501,-22.257,1.583,0.00,0.00,-170.60,1.899,2.281,2.876,2.276,2.285,0,0,RETURNING,0.000,0.800,0.000,-0.143
22:20:10.793,RETURNING,29.343,-22.281,1.583,0.00,0.00,-172.21,1.820,2.205,2.815,2.208,2.207,0,0,RETURNING,0.000,0.800,0.000,-0.155
22:20:10.999,RETURNING,29.184,-22.301,1.583,0.00,0.00,-173.94,1.754,2.127,2.722,2.117,2.128,0,0,RETURNING,0.000,0.800,0.000,-0.162
22:20:11.197,RETURNING,29.025,-22.315,1.583,0.00,0.00,-175.78,1.641,2.026,2.574,2.030,2.035,0,0,RETURNING,0.000,0.760,0.000,-0.177
22:20:11.396,RETURNING,28.869,-22.324,1.583,0.00,0.00,-177.77,1.553,1.942,2.447,1.942,1.942,0,0,RETURNING,0.000,0.695,0.000,-0.188
22:20:11.573,RETURNING,28.727,-22.328,1.583,0.00,0.00,-179.90,1.450,1.831,2.329,1.824,1.833,0,0,RETURNING,0.000,0.616,0.000,-0.208
22:20:11.756,RETURNING,28.600,-22.326,1.583,-0.00,0.00,177.76,1.374,1.746,2.177,1.747,1.749,0,0,RETURNING,0.000,0.559,0.000,-0.215
22:20:11.943,RETURNING,28.487,-22.319,1.583,-0.00,0.00,175.30,1.296,1.697,2.075,1.687,1.690,0,0,RETURNING,0.000,0.523,0.000,-0.232
22:20:12.143,RETURNING,28.383,-22.308,1.583,-0.00,0.00,172.66,1.247,1.654,1.964,1.650,1.658,0,0,RETURNING,0.000,0.494,0.000,-0.234
22:20:12.334,RETURNING,28.285,-22.294,1.583,-0.00,0.00,169.96,1.203,1.630,1.933,1.627,1.634,0,0,RETURNING,0.000,0.477,0.000,-0.251
22:20:12.545,RETURNING,28.191,-22.275,1.583,-0.00,0.00,167.08,1.165,1.618,2.040,1.617,1.623,0,0,RETURNING,0.000,0.466,0.000,-0.294
22:20:12.728,RETURNING,28.101,-22.252,1.583,-0.00,0.00,163.81,1.146,1.619,2.230,1.619,1.621,0,0,RETURNING,0.000,0.465,0.000,-0.339
22:20:12.918,RETURNING,28.034,-22.231,1.583,-0.00,0.00,160.96,1.155,1.472,3.508,1.471,1.471,0,0,RETURNING,0.000,0.397,0.000,-0.465
22:20:13.124,RETURNING,27.955,-22.201,1.583,-0.00,0.00,156.08,1.200,1.371,4.328,1.390,1.391,0,0,RETURNING,0.000,0.358,0.000,-0.482
22:20:13.351,RETURNING,27.873,-22.159,1.583,-0.00,0.00,149.21,1.258,1.651,3.801,1.585,1.623,0,0,RETURNING,0.000,0.494,0.000,-0.425
22:20:13.544,RETURNING,27.796,-22.108,1.583,-0.00,0.00,144.16,1.156,2.261,3.522,2.292,2.271,0,0,RETURNING,0.000,0.800,0.000,-0.465
22:20:13.746,RETURNING,27.678,-22.015,1.583,-0.00,0.00,138.86,1.120,3.421,3.443,3.403,3.403,0,0,RETURNING,0.000,0.800,0.000,-0.482
22:20:13.941,RETURNING,27.563,-21.905,1.583,-0.00,0.00,133.33,1.465,4.088,3.441,3.922,3.918,0,0,RETURNING,0.000,0.800,0.000,-0.314
22:20:14.139,RETURNING,27.457,-21.785,1.583,-0.00,0.00,129.63,2.055,3.532,3.351,3.499,3.911,0,0,RETURNING,0.000,0.800,0.000,-0.151
22:20:14.331,RETURNING,27.381,-21.691,1.583,-0.00,0.00,128.15,2.687,3.268,3.175,3.293,3.554,0,0,RETURNING,0.000,0.800,0.000,-0.046
22:20:14.520,RETURNING,27.259,-21.533,1.583,-0.00,0.00,127.34,2.737,3.150,3.154,3.161,3.339,0,0,RETURNING,0.000,0.800,0.000,-0.039
22:20:14.721,RETURNING,27.186,-21.438,1.583,-0.00,0.00,127.02,2.795,2.915,2.877,2.924,3.050,0,0,RETURNING,0.000,0.800,0.000,-0.008
22:20:14.925,RETURNING,27.090,-21.310,1.583,-0.00,0.00,126.82,2.858,2.749,2.701,2.781,2.834,0,0,RETURNING,0.000,0.800,0.000,0.016
22:20:15.140,RETURNING,26.970,-21.150,1.583,-0.00,0.00,127.00,2.842,2.655,2.675,2.682,2.707,0,0,RETURNING,0.000,0.800,0.000,0.018
22:20:15.350,RETURNING,26.874,-21.022,1.583,-0.00,0.00,127.21,2.786,2.482,2.516,2.512,2.527,0,0,RETURNING,0.000,0.800,0.000,0.031
22:20:15.538,RETURNING,26.777,-20.895,1.583,-0.00,0.00,127.57,2.814,2.331,2.361,2.361,2.381,0,0,RETURNING,0.000,0.800,0.000,0.054
22:20:15.728,RETURNING,26.679,-20.769,1.583,-0.00,0.00,128.19,2.738,2.238,2.210,2.243,2.263,0,0,RETURNING,0.000,0.800,0.000,0.070
22:20:15.929,RETURNING,26.604,-20.675,1.583,-0.00,0.00,128.78,2.637,2.085,1.985,2.082,2.100,0,0,RETURNING,0.000,0.800,0.000,0.100
22:20:16.129,RETURNING,26.503,-20.551,1.583,-0.00,0.00,129.86,2.552,1.951,1.822,1.986,2.012,0,0,RETURNING,0.000,0.741,0.000,0.126
22:20:16.336,RETURNING,26.380,-20.407,1.583,-0.00,0.00,131.60,2.444,1.880,1.663,1.887,1.886,0,0,RETURNING,0.000,0.674,0.000,0.154
22:20:16.543,RETURNING,26.311,-20.331,1.583,-0.00,0.00,132.88,2.311,3.880,1.497,1.724,3.409,0,0,RETURNING,0.000,0.800,-0.344,0.188
22:20:16.735,RETURNING,26.239,-20.255,1.548,-0.00,0.00,134.31,2.233,4.399,1.417,3.911,3.870,0,0,RETURNING,0.000,0.800,0.000,0.206
22:20:16.940,RETURNING,26.154,-20.170,1.548,-0.00,0.00,136.09,2.092,3.902,1.293,3.940,3.830,0,0,RETURNING,0.000,0.800,0.000,0.236
22:20:18.425,RETURNING,26.037,-20.062,1.548,-0.00,0.00,138.77,1.934,3.522,1.212,3.472,3.518,0,0,RETURNING,0.000,0.800,0.000,0.246
22:20:18.540,RETURNING,25.976,-20.010,1.548,-0.00,0.00,140.13,1.912,3.444,1.211,3.418,3.442,0,0,RETURNING,0.000,0.800,0.000,0.242
22:20:18.640,RETURNING,25.914,-19.959,1.548,-0.00,0.00,141.50,1.749,3.081,3.261,3.079,3.080,0,0,RETURNING,0.000,0.800,0.000,-0.212
22:20:18.842,RETURNING,25.721,-19.816,1.548,-0.00,0.00,145.70,1.498,2.579,4.638,2.547,2.562,0,0,RETURNING,0.000,0.800,0.000,-0.362
22:20:19.047,RETURNING,25.554,-19.707,1.548,-0.00,0.00,146.09,1.425,2.436,4.356,2.439,2.436,0,0,RETURNING,0.000,0.800,0.000,-0.378
22:20:19.251,RETURNING,25.362,-19.563,1.548,-0.00,0.00,139.94,1.450,2.535,5.032,2.503,2.517,0,0,RETURNING,0.000,0.800,0.000,-0.393
22:20:19.449,RETURNING,25.214,-19.428,1.548,-0.00,0.00,134.46,1.657,2.664,7.387,2.674,2.651,0,0,RETURNING,0.000,0.800,0.000,-0.374
22:20:19.643,RETURNING,25.081,-19.279,1.548,-0.00,0.00,128.89,1.766,2.937,7.360,2.947,2.931,0,0,RETURNING,0.000,0.800,0.000,-0.344
22:20:19.827,RETURNING,24.985,-19.151,1.548,-0.00,0.00,124.87,1.870,3.406,6.359,3.400,3.352,0,0,RETURNING,0.000,0.800,0.000,-0.302
22:20:20.012,RETURNING,24.897,-19.018,1.548,-0.00,0.00,121.37,2.017,3.818,5.455,3.928,3.771,0,0,RETURNING,0.000,0.800,0.000,-0.250
22:20:20.226,RETURNING,24.817,-18.879,1.548,-0.00,0.00,118.46,2.167,5.089,4.742,4.439,3.869,0,0,RETURNING,0.000,0.800,0.000,-0.200
22:20:20.427,RETURNING,24.743,-18.737,1.548,-0.00,0.00,116.10,2.411,8.335,4.240,4.638,3.878,0,0,RETURNING,0.000,0.800,0.051,-0.143
22:20:20.607,RETURNING,24.729,-18.708,1.563,-0.00,0.00,115.82,2.610,7.603,3.859,4.623,3.878,0,0,RETURNING,0.000,0.800,0.000,-0.099
22:20:20.797,RETURNING,24.712,-18.672,1.568,-0.00,0.00,115.49,2.624,7.126,3.651,4.644,3.895,0,0,RETURNING,0.000,0.800,0.000,-0.086
22:20:20.999,RETURNING,24.678,-18.600,1.573,-0.00,0.00,115.01,2.689,6.889,3.611,4.599,3.923,0,0,RETURNING,0.000,0.800,0.000,-0.076
22:20:21.197,RETURNING,24.611,-18.454,1.573,-0.00,0.00,114.09,2.835,6.780,3.509,4.584,3.916,0,0,RETURNING,0.000,0.800,0.000,-0.054
22:20:21.404,RETURNING,24.547,-18.308,1.573,-0.00,0.00,113.40,2.983,6.547,3.440,4.600,3.944,0,0,RETURNING,0.000,0.800,0.000,-0.036
22:20:21.597,RETURNING,24.468,-18.124,1.573,-0.00,0.00,112.85,3.007,6.368,3.364,4.577,3.945,0,0,RETURNING,0.000,0.800,0.000,-0.028
22:20:21.814,RETURNING,24.422,-18.013,1.573,-0.00,0.00,112.60,2.921,6.223,3.327,4.582,3.928,0,0,RETURNING,0.000,0.800,0.000,-0.033
22:20:22.007,RETURNING,24.346,-17.828,1.573,-0.00,0.00,112.15,2.865,6.045,3.242,4.576,3.947,0,0,RETURNING,0.000,0.800,0.000,-0.032
22:20:22.199,RETURNING,24.301,-17.717,1.573,-0.00,0.00,111.87,2.932,5.674,3.168,4.641,3.954,0,0,RETURNING,0.000,0.800,0.000,-0.020
22:20:22.401,RETURNING,24.241,-17.569,1.573,-0.00,0.00,111.58,3.775,5.600,3.076,4.489,3.937,0,0,RETURNING,0.000,0.800,0.000,0.048
22:20:22.616,RETURNING,24.182,-17.420,1.573,-0.00,0.00,111.96,4.106,5.535,3.029,4.628,3.945,0,0,RETURNING,0.000,0.800,0.000,0.069
22:20:22.797,RETURNING,24.122,-17.272,1.573,-0.00,0.00,112.69,4.164,5.643,3.050,4.624,3.733,0,0,RETURNING,0.000,0.800,0.062,0.070
22:20:23.014,RETURNING,24.091,-17.198,1.579,-0.00,0.00,113.09,4.123,5.635,3.122,4.635,3.942,0,0,RETURNING,0.000,0.800,0.000,0.062
22:20:23.207,RETURNING,24.011,-17.015,1.579,-0.00,0.00,114.02,4.069,5.591,3.159,4.573,3.945,0,0,RETURNING,0.000,0.800,0.000,0.057
22:20:23.404,RETURNING,23.961,-16.905,1.579,-0.00,0.00,114.52,4.086,5.707,3.212,4.576,3.945,0,0,RETURNING,0.000,0.800,0.000,0.053
22:20:23.604,RETURNING,23.877,-16.724,1.579,-0.00,0.00,115.32,4.137,5.618,3.233,4.571,3.903,0,0,RETURNING,0.000,0.800,0.000,0.054
22:20:23.802,RETURNING,23.825,-16.616,1.579,-0.00,0.00,115.77,4.142,5.704,3.196,4.576,3.936,0,0,RETURNING,0.000,0.800,0.000,0.057
22:20:24.020,RETURNING,23.737,-16.436,1.579,-0.00,0.00,116.58,4.109,5.837,3.191,4.564,3.956,0,0,RETURNING,0.000,0.800,0.000,0.056
22:20:24.209,RETURNING,23.683,-16.329,1.579,-0.00,0.00,117.08,4.060,5.903,3.145,4.531,3.945,0,0,RETURNING,0.000,0.800,0.000,0.057
22:20:24.402,RETURNING,23.610,-16.187,1.579,-0.00,0.00,117.72,3.948,5.988,3.151,4.576,3.945,0,0,RETURNING,0.000,0.800,0.000,0.051
22:20:24.610,RETURNING,23.535,-16.046,1.579,-0.00,0.00,118.33,3.848,6.181,3.142,4.576,3.949,0,0,RETURNING,0.000,0.800,0.000,0.047
22:20:24.804,RETURNING,23.458,-15.905,1.579,-0.00,0.00,118.87,3.803,6.396,3.111,4.609,3.888,0,0,RETURNING,0.000,0.800,0.000,0.047
22:20:25.006,RETURNING,23.380,-15.765,1.579,-0.00,0.00,119.42,3.730,6.493,3.121,4.570,3.896,0,0,RETURNING,0.000,0.800,0.000,0.042
22:20:25.207,RETURNING,23.301,-15.626,1.579,-0.00,0.00,119.92,3.647,6.503,3.112,4.562,3.949,0,0,RETURNING,0.000,0.800,0.000,0.038
22:20:25.414,RETURNING,23.221,-15.488,1.579,-0.00,0.00,120.36,3.579,6.367,3.248,4.571,3.946,0,0,RETURNING,0.000,0.800,0.000,0.023
22:20:25.605,RETURNING,23.140,-15.350,1.579,-0.00,0.00,120.68,3.532,6.195,3.286,4.576,3.912,0,0,RETURNING,0.000,0.800,0.000,0.017
22:20:25.816,RETURNING,23.058,-15.213,1.579,-0.00,0.00,120.90,3.549,6.015,3.216,4.530,3.945,0,0,RETURNING,0.000,0.800,0.000,0.023
22:20:26.018,RETURNING,22.975,-15.075,1.579,-0.00,0.00,121.14,3.573,5.776,3.210,4.564,3.941,0,0,RETURNING,0.000,0.800,0.000,0.025
22:20:26.220,RETURNING,22.892,-14.939,1.579,-0.00,0.00,121.42,3.554,5.439,3.147,4.531,3.945,0,0,RETURNING,0.000,0.800,0.000,0.029
22:20:26.432,RETURNING,22.787,-14.768,1.579,-0.00,0.00,121.82,3.511,5.463,3.115,4.564,3.949,0,0,RETURNING,0.000,0.800,0.000,0.029
22:20:26.630,RETURNING,22.724,-14.666,1.579,-0.00,0.00,122.06,3.474,5.473,3.103,4.579,3.945,0,0,RETURNING,0.000,0.800,0.000,0.027
22:20:26.838,RETURNING,22.617,-14.497,1.579,-0.00,0.00,122.47,3.379,5.225,3.086,4.600,3.912,0,0,RETURNING,0.000,0.800,0.000,0.022
22:20:27.034,RETURNING,22.553,-14.396,1.579,-0.00,0.00,122.67,3.207,5.019,3.058,4.600,3.944,0,0,RETURNING,0.000,0.800,0.000,0.012
22:20:27.223,RETURNING,22.444,-14.228,1.579,-0.00,0.00,122.87,3.040,4.857,3.028,4.577,3.937,0,0,RETURNING,0.000,0.800,0.000,0.001
22:20:27.422,RETURNING,22.379,-14.127,1.579,-0.00,0.00,122.89,2.869,4.758,3.081,4.531,3.987,0,0,RETURNING,0.000,0.800,0.000,-0.019
22:20:27.629,RETURNING,22.292,-13.993,1.579,-0.00,0.00,122.75,2.759,4.676,3.021,4.499,3.955,0,0,RETURNING,0.000,0.800,0.000,-0.025
22:20:27.830,RETURNING,22.185,-13.824,1.579,-0.00,0.00,122.52,7.162,4.588,2.992,4.494,3.967,0,0,RETURNING,0.000,0.800,0.000,0.156
22:20:28.012,RETURNING,22.120,-13.723,1.579,-0.00,0.00,123.38,9.914,4.419,2.970,4.556,3.954,0,0,RETURNING,0.000,0.800,0.000,0.189
22:20:28.217,RETURNING,22.029,-13.591,1.579,-0.00,0.00,125.54,3.403,4.189,3.142,4.469,3.932,0,0,RETURNING,0.000,0.800,0.000,0.019
22:20:28.426,RETURNING,21.936,-13.462,1.579,-0.00,0.00,126.05,3.434,4.016,3.275,4.513,3.889,0,0,RETURNING,0.000,0.800,0.000,0.011
22:20:28.619,RETURNING,21.842,-13.332,1.579,-0.00,0.00,126.07,3.480,3.833,3.292,4.490,3.846,0,0,RETURNING,0.000,0.800,0.000,0.013
22:20:28.878,RETURNING,21.747,-13.203,1.579,-0.00,0.00,126.23,9.139,3.622,3.430,4.484,3.725,0,0,RETURNING,0.000,0.800,0.055,0.146
22:20:29.078,RETURNING,21.743,-13.197,1.590,-0.00,0.00,126.31,9.846,3.579,3.414,4.487,3.666,0,0,RETURNING,0.000,0.800,0.060,0.153
22:20:29.258,RETURNING,21.738,-13.190,1.603,-0.00,0.00,126.40,9.695,3.583,3.400,4.499,3.666,0,0,RETURNING,0.000,0.800,0.061,0.153
22:20:29.443,RETURNING,21.709,-13.152,1.614,-0.00,0.00,126.92,8.977,3.607,3.402,4.460,3.656,0,0,RETURNING,0.000,0.800,0.059,0.146
22:20:29.635,RETURNING,21.685,-13.120,1.626,-0.00,0.00,127.34,8.187,3.557,3.458,4.469,3.586,0,0,RETURNING,0.000,0.800,0.066,0.134
22:20:29.854,RETURNING,21.671,-13.101,1.639,-0.00,0.00,127.57,8.428,3.476,3.452,4.424,3.559,0,0,RETURNING,0.000,0.800,0.066,0.137
22:20:30.173,RETURNING,21.631,-13.050,1.646,-0.00,0.00,128.20,8.037,3.521,3.460,4.396,3.525,0,0,RETURNING,0.000,0.800,0.067,0.132
22:20:30.418,RETURNING,21.601,-13.012,1.667,-0.00,0.00,128.65,6.002,3.469,3.460,4.380,3.492,0,0,RETURNING,0.000,0.800,0.070,0.098
22:20:30.698,RETURNING,21.591,-13.000,1.680,-0.00,0.00,128.77,4.187,3.497,3.466,4.363,3.505,0,0,RETURNING,0.000,0.800,0.067,0.040
22:20:30.897,RETURNING,21.571,-12.975,1.701,-0.00,0.00,128.86,3.131,3.376,3.394,4.316,3.422,0,0,RETURNING,0.000,0.800,0.073,-0.020
22:20:31.084,RETURNING,21.566,-12.969,1.722,-0.00,0.00,128.89,3.323,3.392,3.396,4.272,3.422,0,0,RETURNING,0.000,0.800,0.070,-0.005
22:20:31.283,RETURNING,21.556,-12.956,1.736,-0.00,0.00,128.93,5.672,3.401,3.369,4.247,3.414,0,0,RETURNING,0.000,0.800,0.069,0.096
22:20:31.472,RETURNING,21.546,-12.944,1.751,-0.00,0.00,129.01,6.896,3.385,3.384,4.194,3.402,0,0,RETURNING,0.000,0.800,0.067,0.120
22:20:31.652,RETURNING,21.531,-12.925,1.764,-0.00,0.00,129.22,5.997,3.328,3.312,4.132,3.348,0,0,RETURNING,0.000,0.800,0.068,0.108
