timestamp,state,x,z,roll_deg,pitch_deg,yaw_deg,left,center,right,top,bottom,cmd_vx,cmd_vz,cmd_roll,cmd_yaw
2026-05-10 20:34:53.542302,SEARCHING,0.000,0.000,0.00,0.00,0.00,10.000,10.000,10.000,10.000,10.000,0.700,0.000,0.000,0.000
2026-05-10 20:34:54.797641,SEARCHING,0.000,1.000,0.00,0.00,0.00,10.000,10.000,10.000,10.000,10.000,0.700,0.000,0.000,0.000
2026-05-10 20:34:54.999249,SEARCHING,0.105,1.000,0.00,0.00,0.00,10.000,10.000,10.000,10.000,10.000,0.700,0.000,0.000,0.000
2026-05-10 20:34:55.218659,SEARCHING,0.245,1.000,0.00,0.00,0.00,10.000,10.000,10.000,10.000,10.000,0.700,0.000,0.000,0.000
2026-05-10 20:34:55.431298,SEARCHING,0.385,1.000,0.00,0.00,0.00,10.000,10.000,10.000,10.000,10.000,0.700,0.000,0.000,0.000
2026-05-10 20:34:55.697460,INSPECTING,0.518,1.000,0.00,0.00,0.00,0.760,0.768,0.781,0.765,0.765,0.350,0.550,-0.552,-0.850
2026-05-10 20:34:55.901123,INSPECTING,0.584,1.000,0.00,0.00,-9.25,0.760,0.768,0.781,0.765,0.765,0.350,0.550,-0.552,-0.850
2026-05-10 20:34:56.121951,INSPECTING,0.652,1.000,0.00,0.00,-18.99,0.581,0.617,2.514,0.617,0.617,0.350,0.550,-0.552,-0.850
2026-05-10 20:34:56.351241,INSPECTING,0.716,1.000,0.00,0.00,-28.73,0.581,0.617,2.514,0.617,0.617,0.350,0.550,-0.552,-0.850
2026-05-10 20:34:56.568688,INSPECTING,0.775,1.000,0.00,0.00,-38.47,0.581,0.617,2.514,0.617,0.617,0.350,0.550,-0.552,-0.850
2026-05-10 20:34:56.818167,INSPECTING,0.826,1.000,0.00,0.00,-48.21,0.581,0.617,2.514,0.617,0.617,0.350,0.550,-0.552,-0.850
2026-05-10 20:34:57.943066,INSPECTING,0.869,1.000,0.00,0.00,-57.95,0.581,0.617,2.514,0.617,0.617,0.350,0.550,-0.552,-0.850
2026-05-10 20:34:59.631542,INSPECTING,0.913,1.000,0.00,0.00,-72.57,1.224,1.122,1.026,1.116,1.116,0.350,0.550,0.552,0.850
2026-05-10 20:34:59.831660,INSPECTING,0.929,1.000,0.00,0.00,-82.31,1.054,1.031,1.012,1.031,1.031,0.350,0.550,0.552,0.850
2026-05-10 20:34:59.990686,INSPECTING,0.934,1.000,0.00,0.00,-86.20,1.022,0.974,0.926,0.970,0.970,0.350,0.550,0.552,0.850
2026-05-10 20:35:00.180375,INSPECTING,0.953,1.000,0.00,0.00,-71.59,1.031,0.923,0.832,0.926,0.923,0.350,0.550,0.552,0.850
2026-05-10 20:35:00.400007,INSPECTING,0.980,1.000,0.00,0.00,-61.85,1.074,0.908,0.789,0.908,0.908,0.350,0.550,0.552,0.850
2026-05-10 20:35:00.608352,INSPECTING,1.018,1.000,0.00,0.00,-52.11,1.105,0.908,0.776,0.908,0.908,0.350,0.550,0.552,0.850
2026-05-10 20:35:00.817430,INSPECTING,1.065,1.000,0.00,0.00,-42.37,1.105,0.908,0.776,0.908,0.908,0.350,0.550,0.552,0.850
2026-05-10 20:35:01.016440,INSPECTING,1.120,1.000,0.00,0.00,-32.63,1.105,0.908,0.776,0.908,0.908,0.350,0.550,0.552,0.850
2026-05-10 20:35:01.239202,INSPECTING,1.198,1.000,0.00,0.00,-20.45,1.105,0.908,0.776,0.908,0.908,0.350,0.550,0.552,0.850
2026-05-10 20:35:01.406468,SEARCHING,1.248,1.000,0.00,0.00,-13.15,2.460,1.346,0.890,1.354,1.362,0.471,-0.003,0.323,0.645
2026-05-10 20:35:01.620124,SEARCHING,1.337,1.000,0.00,0.00,-5.41,2.460,1.346,0.890,1.354,1.362,0.471,-0.003,0.323,0.645
2026-05-10 20:35:01.830180,SEARCHING,1.455,1.000,0.00,0.00,3.83,2.460,1.346,0.890,1.354,1.362,0.471,-0.003,0.323,0.645
2026-05-10 20:35:02.023602,SEARCHING,1.525,1.000,0.00,0.00,9.38,2.460,1.346,0.890,1.354,1.362,0.471,-0.003,0.323,0.645
2026-05-10 20:35:02.245830,SEARCHING,1.617,1.000,0.00,0.00,16.77,2.460,1.346,0.890,1.354,1.362,0.471,-0.003,0.323,0.645
2026-05-10 20:35:02.437704,SEARCHING,1.705,1.000,0.00,0.00,24.16,2.460,1.346,0.890,1.354,1.362,0.471,-0.003,0.323,0.645
2026-05-10 20:35:02.652166,SEARCHING,1.795,1.000,0.00,0.00,30.10,2.692,3.691,6.730,3.751,2.487,0.700,0.081,-0.100,-0.201
2026-05-10 20:35:02.850005,SEARCHING,1.917,1.000,0.00,0.00,27.80,2.692,3.691,6.730,3.751,2.487,0.700,0.081,-0.100,-0.201
2026-05-10 20:35:03.088085,SEARCHING,2.042,1.000,0.00,0.00,25.48,2.460,3.178,6.022,3.223,2.460,0.700,0.058,-0.108,-0.216
2026-05-10 20:35:03.264328,SEARCHING,2.169,1.000,0.00,0.00,23.00,2.460,3.178,6.022,3.223,2.460,0.700,0.058,-0.108,-0.216
2026-05-10 20:35:03.479316,SEARCHING,2.299,1.000,0.00,0.00,20.52,2.335,3.365,6.356,3.365,2.434,0.700,0.068,-0.122,-0.244
2026-05-10 20:35:03.686648,SEARCHING,2.431,1.000,0.00,0.00,17.80,2.335,3.365,6.356,3.365,2.434,0.700,0.068,-0.122,-0.244
2026-05-10 20:35:03.894257,SEARCHING,2.566,1.000,0.00,0.00,15.01,2.335,3.365,6.356,3.365,2.434,0.700,0.068,-0.122,-0.244
2026-05-10 20:35:04.115295,SEARCHING,2.702,1.000,0.00,0.00,12.21,2.384,4.317,6.730,4.317,2.222,0.700,0.131,-0.122,-0.244
2026-05-10 20:35:04.304232,SEARCHING,2.839,1.000,0.00,0.00,9.42,2.384,4.317,6.730,4.317,2.222,0.700,0.131,-0.122,-0.244
2026-05-10 20:35:04.520584,SEARCHING,2.978,1.000,0.00,0.00,6.62,2.384,4.317,6.730,4.317,2.222,0.700,0.131,-0.122,-0.244
2026-05-10 20:35:04.718633,SEARCHING,3.117,1.000,0.00,0.00,3.83,2.384,4.317,6.730,4.317,2.222,0.700,0.131,-0.122,-0.244
2026-05-10 20:35:04.921248,SEARCHING,3.257,1.000,0.00,0.00,1.04,2.384,4.317,6.730,4.317,2.222,0.700,0.131,-0.122,-0.244
2026-05-10 20:35:05.132168,SEARCHING,3.397,1.000,0.00,0.00,-1.76,2.384,4.317,6.730,4.317,2.222,0.700,0.131,-0.122,-0.244
2026-05-10 20:35:05.340833,SEARCHING,3.537,1.000,0.00,0.00,-4.55,2.384,4.317,6.730,4.317,2.222,0.700,0.131,-0.122,-0.244
2026-05-10 20:35:05.554987,SEARCHING,3.676,1.000,0.00,0.00,-7.35,2.384,4.317,6.730,4.317,2.222,0.700,0.131,-0.122,-0.244
2026-05-10 20:35:05.758367,SEARCHING,3.814,1.000,0.00,0.00,-10.14,4.400,7.151,2.138,6.022,2.460,0.700,0.144,0.108,0.216
2026-05-10 20:35:05.952259,SEARCHING,3.952,1.000,0.00,0.00,-9.51,4.400,7.151,2.138,6.022,2.460,0.700,0.144,0.108,0.216
2026-05-10 20:35:06.157452,SEARCHING,4.090,1.000,0.00,0.00,-7.03,4.400,7.151,2.138,6.022,2.460,0.700,0.144,0.108,0.216
2026-05-10 20:35:06.373096,SEARCHING,4.230,1.000,0.00,0.00,-4.59,4.014,6.184,2.138,6.022,2.460,0.700,0.144,0.098,0.197
2026-05-10 20:35:06.565906,SEARCHING,4.369,1.000,0.00,0.00,-2.33,3.632,5.200,2.288,5.200,2.460,0.700,0.128,0.073,0.146
2026-05-10 20:35:06.798262,SEARCHING,4.544,1.000,0.00,0.00,-0.10,3.632,5.200,2.288,5.200,2.460,0.700,0.128,0.073,0.146
2026-05-10 20:35:06.993337,SEARCHING,4.649,1.000,0.00,0.00,1.15,3.269,4.670,3.316,4.670,2.434,0.700,0.118,-0.002,-0.004
2026-05-10 20:35:07.213757,SEARCHING,4.789,1.000,0.00,0.00,1.42,3.134,4.576,3.691,4.576,2.460,0.700,0.113,-0.022,-0.043
2026-05-10 20:35:07.410924,SEARCHING,4.929,1.000,0.00,0.00,0.93,3.051,4.400,4.868,4.400,2.409,0.700,0.113,-0.055,-0.110
2026-05-10 20:35:07.626967,SEARCHING,5.069,1.000,0.00,0.00,-0.15,3.092,4.400,5.085,4.400,2.460,0.700,0.108,-0.057,-0.114
2026-05-10 20:35:07.827885,SEARCHING,5.209,1.000,0.00,0.00,-1.44,3.092,4.400,5.085,4.400,2.460,0.700,0.108,-0.057,-0.114
2026-05-10 20:35:08.041976,SEARCHING,5.349,1.000,0.00,0.00,-2.74,3.092,4.400,5.085,4.400,2.460,0.700,0.108,-0.057,-0.114
2026-05-10 20:35:08.254213,SEARCHING,5.489,1.000,0.00,0.00,-4.05,3.092,4.400,5.085,4.400,2.460,0.700,0.108,-0.057,-0.114
2026-05-10 20:35:08.461474,SEARCHING,5.628,1.000,0.00,0.00,-5.22,2.896,4.670,3.691,4.576,2.460,0.700,0.113,-0.033,-0.067
2026-05-10 20:35:08.663845,SEARCHING,5.768,1.000,0.00,0.00,-5.99,2.896,4.670,3.691,4.576,2.460,0.700,0.113,-0.033,-0.067
2026-05-10 20:35:08.886280,SEARCHING,5.907,1.000,0.00,0.00,-6.75,2.825,4.974,3.520,4.487,2.460,0.700,0.110,-0.031,-0.063
2026-05-10 20:35:09.102121,SEARCHING,6.046,1.000,0.00,0.00,-7.47,2.757,5.200,3.365,4.576,2.460,0.700,0.113,-0.029,-0.059
2026-05-10 20:35:09.319981,SEARCHING,6.185,1.000,0.00,0.00,-8.16,2.757,5.200,3.365,4.576,2.460,0.700,0.113,-0.029,-0.059
2026-05-10 20:35:09.525613,SEARCHING,6.323,1.000,0.00,0.00,-8.84,2.757,5.200,3.365,4.576,2.460,0.700,0.113,-0.029,-0.059
2026-05-10 20:35:09.735155,SEARCHING,6.461,1.000,0.00,0.00,-9.51,2.757,5.200,3.365,4.576,2.460,0.700,0.113,-0.029,-0.059
2026-05-10 20:35:09.945963,SEARCHING,6.599,1.000,0.00,0.00,-10.19,2.757,5.200,3.365,4.576,2.460,0.700,0.113,-0.029,-0.059
2026-05-10 20:35:10.153269,SEARCHING,6.737,1.000,0.00,0.00,-10.87,2.757,5.200,3.365,4.576,2.460,0.700,0.113,-0.029,-0.059
2026-05-10 20:35:10.390219,SEARCHING,6.874,1.000,0.00,0.00,-11.50,2.692,4.487,3.011,3.814,2.434,0.700,0.089,-0.018,-0.035
2026-05-10 20:35:10.589396,SEARCHING,7.011,1.000,0.00,0.00,-11.91,2.692,4.487,3.011,3.814,2.434,0.700,0.089,-0.018,-0.035
2026-05-10 20:35:10.803905,SEARCHING,7.148,1.000,0.00,0.00,-12.31,2.692,4.160,2.934,3.520,2.159,0.700,0.108,-0.014,-0.028
2026-05-10 20:35:11.006609,SEARCHING,7.285,1.000,0.00,0.00,-12.65,2.692,4.160,2.934,3.520,2.159,0.700,0.108,-0.014,-0.028
2026-05-10 20:35:11.221745,SEARCHING,7.421,1.000,0.00,0.00,-12.97,2.661,3.945,2.972,3.134,2.514,0.700,0.047,-0.018,-0.035
2026-05-10 20:35:11.433592,SEARCHING,7.558,1.000,0.00,0.00,-13.31,2.661,3.751,2.825,3.134,2.460,0.700,0.052,-0.010,-0.020
2026-05-10 20:35:11.639261,SEARCHING,7.694,1.000,0.00,0.00,-13.54,2.825,3.632,2.790,3.011,2.460,0.700,0.045,0.002,0.004
2026-05-10 20:35:11.830618,SEARCHING,7.830,1.000,0.00,0.00,-13.59,2.825,3.632,2.790,3.011,2.460,0.700,0.045,0.002,0.004
2026-05-10 20:35:12.042965,SEARCHING,7.966,1.000,0.00,0.00,-13.54,2.825,3.467,2.896,2.825,2.487,0.700,0.029,-0.004,-0.008
2026-05-10 20:35:12.248145,SEARCHING,8.102,1.000,0.00,0.00,-13.59,2.790,3.365,2.790,2.790,2.487,0.700,0.026,0.000,0.000
2026-05-10 20:35:12.469371,SEARCHING,8.238,1.000,0.00,0.00,-13.59,2.724,3.178,2.896,2.661,2.288,0.700,0.037,-0.010,-0.020
2026-05-10 20:35:12.699228,SEARCHING,8.374,1.000,0.00,0.00,-13.73,2.724,3.178,2.896,2.661,2.288,0.700,0.037,-0.010,-0.020
2026-05-10 20:35:12.906106,SEARCHING,8.510,1.000,0.00,0.00,-13.96,2.724,3.178,2.896,2.661,2.288,0.700,0.037,-0.010,-0.020
2026-05-10 20:35:13.109308,SEARCHING,8.646,1.000,0.00,0.00,-14.12,2.825,2.860,2.790,2.630,2.384,0.700,0.024,0.002,0.004
2026-05-10 20:35:13.309165,SEARCHING,8.782,1.000,0.00,0.00,-14.07,2.825,2.860,2.790,2.630,2.384,0.700,0.024,0.002,0.004
2026-05-10 20:35:13.530587,SEARCHING,8.918,1.000,0.00,0.00,-14.03,2.825,2.860,2.790,2.630,2.384,0.700,0.024,0.002,0.004
2026-05-10 20:35:13.741029,SEARCHING,9.054,1.000,0.00,0.00,-13.98,2.825,2.860,2.790,2.630,2.384,0.700,0.024,0.002,0.004
2026-05-10 20:35:13.952218,SEARCHING,9.189,1.000,0.00,0.00,-13.94,2.825,2.860,2.790,2.630,2.384,0.700,0.024,0.002,0.004
2026-05-10 20:35:14.175976,SEARCHING,9.325,1.000,0.00,0.00,-13.89,2.080,2.222,2.600,2.200,2.200,0.700,0.000,-0.043,-0.087
2026-05-10 20:35:14.378017,SEARCHING,9.461,1.000,0.00,0.00,-14.55,2.007,2.138,2.571,2.138,2.138,0.700,0.000,-0.049,-0.098
2026-05-10 20:35:14.585906,SEARCHING,9.596,1.000,0.00,0.00,-15.68,2.007,2.138,2.571,2.138,2.138,0.700,0.000,-0.049,-0.098
2026-05-10 20:35:14.791996,SEARCHING,9.731,1.000,0.00,0.00,-16.81,2.007,2.138,2.571,2.138,2.138,0.700,0.000,-0.049,-0.098
2026-05-10 20:35:15.018484,SEARCHING,9.864,1.000,0.00,0.00,-17.93,1.476,2.409,2.243,2.288,2.460,0.700,-0.018,-0.104,-0.208
2026-05-10 20:35:15.211081,SEARCHING,9.997,1.000,0.00,0.00,-19.88,1.476,2.409,2.243,2.288,2.460,0.700,-0.018,-0.104,-0.208
2026-05-10 20:35:15.430553,SEARCHING,10.128,1.000,0.00,0.00,-22.39,1.257,2.434,2.061,1.990,2.288,0.700,-0.039,-0.140,-0.279
2026-05-10 20:35:15.629361,SEARCHING,10.256,1.000,0.00,0.00,-25.59,1.257,2.434,2.061,1.990,2.288,0.700,-0.039,-0.140,-0.279
2026-05-10 20:35:15.825773,SEARCHING,10.380,1.000,0.00,0.00,-28.79,2.384,2.434,1.695,1.720,2.434,0.700,-0.102,0.077,0.153
2026-05-10 20:35:16.070971,SEARCHING,10.503,1.000,0.00,0.00,-27.75,3.814,2.359,1.557,1.525,2.335,0.700,-0.136,0.171,0.342
2026-05-10 20:35:16.273967,SEARCHING,10.629,1.000,0.00,0.00,-23.86,3.814,2.359,1.557,1.525,2.335,0.700,-0.136,0.171,0.342
2026-05-10 20:35:16.481569,SEARCHING,10.758,1.000,0.00,0.00,-19.93,3.814,2.359,1.557,1.525,2.335,0.700,-0.136,0.171,0.342
2026-05-10 20:35:16.698349,SEARCHING,10.891,1.000,0.00,0.00,-16.03,3.814,2.790,1.695,1.230,2.460,0.700,-0.244,0.147,0.295
2026-05-10 20:35:16.913892,SEARCHING,11.027,1.000,0.00,0.00,-12.51,3.814,2.790,1.695,1.230,2.460,0.700,-0.244,0.147,0.295
2026-05-10 20:35:17.133288,SEARCHING,11.164,1.000,0.00,0.00,-9.76,3.011,2.692,2.409,1.035,2.460,0.700,-0.336,0.037,0.075
2026-05-10 20:35:17.319323,SEARCHING,11.303,1.000,0.00,0.00,-8.91,3.011,2.692,2.409,1.035,2.460,0.700,-0.336,0.037,0.075
2026-05-10 20:35:17.534647,SEARCHING,11.441,1.000,0.00,0.00,-8.05,3.011,2.692,2.409,1.035,2.460,0.700,-0.336,0.037,0.075
2026-05-10 20:35:17.746515,SEARCHING,11.580,1.000,0.00,0.00,-7.19,3.011,2.692,2.409,1.035,2.460,0.700,-0.336,0.037,0.075
2026-05-10 20:35:17.968635,SEARCHING,11.719,1.000,0.00,0.00,-6.34,3.011,2.692,2.409,1.035,2.460,0.700,-0.336,0.037,0.075
2026-05-10 20:35:18.170027,SEARCHING,11.858,1.000,0.00,0.00,-5.48,3.011,2.692,2.409,1.035,2.460,0.700,-0.336,0.037,0.075
2026-05-10 20:35:18.397980,SEARCHING,11.997,1.000,0.00,0.00,-4.62,3.011,2.692,2.409,1.035,2.460,0.700,-0.336,0.037,0.075
2026-05-10 20:35:18.609091,SEARCHING,12.137,1.000,0.00,0.00,-3.77,3.011,2.692,2.409,1.035,2.460,0.700,-0.336,0.037,0.075
2026-05-10 20:35:18.813480,SEARCHING,12.277,1.000,0.00,0.00,-2.91,3.011,2.692,2.409,1.035,2.460,0.700,-0.336,0.037,0.075
2026-05-10 20:35:19.027026,SEARCHING,12.417,1.000,0.00,0.00,-2.05,3.011,2.692,2.409,1.035,2.460,0.700,-0.336,0.037,0.075
2026-05-10 20:35:19.231126,SEARCHING,12.557,1.000,0.00,0.00,-1.20,3.011,2.692,2.409,1.035,2.460,0.700,-0.336,0.037,0.075
2026-05-10 20:35:19.452348,SEARCHING,12.697,1.000,0.00,0.00,-0.34,3.011,2.692,2.409,1.035,2.460,0.700,-0.336,0.037,0.075
2026-05-10 20:35:19.648683,SEARCHING,12.837,1.000,0.00,0.00,0.51,3.011,2.692,2.409,1.035,2.460,0.700,-0.336,0.037,0.075
2026-05-10 20:35:19.884125,SEARCHING,12.977,1.000,0.00,0.00,1.37,3.011,2.692,2.409,1.035,2.460,0.700,-0.336,0.037,0.075
2026-05-10 20:35:20.083471,SEARCHING,13.117,1.000,0.00,0.00,2.23,3.011,2.692,2.409,1.035,2.460,0.700,-0.336,0.037,0.075
2026-05-10 20:35:20.298614,SEARCHING,13.256,1.000,0.00,0.00,3.08,3.011,2.692,2.409,1.035,2.460,0.700,-0.336,0.037,0.075
2026-05-10 20:35:20.505709,SEARCHING,13.396,1.000,0.00,0.00,3.94,3.011,2.692,2.409,1.035,2.460,0.700,-0.336,0.037,0.075
2026-05-10 20:35:20.710763,SEARCHING,13.536,1.000,0.00,0.00,4.80,3.011,2.692,2.409,1.035,2.460,0.700,-0.336,0.037,0.075
2026-05-10 20:35:20.914171,SEARCHING,13.675,1.000,0.00,0.00,5.65,3.011,2.692,2.409,1.035,2.460,0.700,-0.336,0.037,0.075
2026-05-10 20:35:21.130555,SEARCHING,13.814,1.000,0.00,0.00,6.51,3.011,2.692,2.409,1.035,2.460,0.700,-0.336,0.037,0.075
2026-05-10 20:35:21.326276,SEARCHING,13.953,1.000,0.00,0.00,7.37,3.011,2.692,2.409,1.035,2.460,0.700,-0.336,0.037,0.075
2026-05-10 20:35:21.548354,SEARCHING,14.092,1.000,0.00,0.00,8.22,3.011,2.692,2.409,1.035,2.460,0.700,-0.336,0.037,0.075
2026-05-10 20:35:21.737711,SEARCHING,14.230,1.000,0.00,0.00,9.08,3.011,2.692,2.409,1.035,2.460,0.700,-0.336,0.037,0.075
2026-05-10 20:35:21.962017,SEARCHING,14.369,1.000,0.00,0.00,9.93,3.011,2.692,2.409,1.035,2.460,0.700,-0.336,0.037,0.075
2026-05-10 20:35:22.152279,SEARCHING,14.506,1.000,0.00,0.00,10.79,3.011,2.692,2.409,1.035,2.460,0.700,-0.336,0.037,0.075
2026-05-10 20:35:22.359686,SEARCHING,14.644,1.000,0.00,0.00,11.65,3.011,2.692,2.409,1.035,2.460,0.700,-0.336,0.037,0.075
2026-05-10 20:35:22.575975,SEARCHING,14.781,1.000,0.00,0.00,12.50,3.011,2.692,2.409,1.035,2.460,0.700,-0.336,0.037,0.075
2026-05-10 20:35:22.814960,SEARCHING,14.917,1.000,0.00,0.00,13.36,3.011,2.692,2.409,1.035,2.460,0.700,-0.336,0.037,0.075
2026-05-10 20:35:23.021273,SEARCHING,15.053,1.000,0.00,0.00,14.22,3.011,2.692,2.409,1.035,2.460,0.700,-0.336,0.037,0.075
2026-05-10 20:35:23.241829,SEARCHING,15.189,1.000,0.00,0.00,15.07,3.011,2.692,2.409,1.035,2.460,0.700,-0.336,0.037,0.075
2026-05-10 20:35:23.454088,SEARCHING,15.323,1.000,0.00,0.00,15.93,3.011,2.692,2.409,1.035,2.460,0.700,-0.336,0.037,0.075
2026-05-10 20:35:23.663742,SEARCHING,15.491,1.000,0.00,0.00,17.00,3.011,2.692,2.409,1.035,2.460,0.700,-0.336,0.037,0.075
2026-05-10 20:35:23.890365,SEARCHING,15.592,1.000,0.00,0.00,17.64,3.011,2.692,2.409,1.035,2.460,0.700,-0.336,0.037,0.075
2026-05-10 20:35:24.086394,SEARCHING,15.725,1.000,0.00,0.00,18.50,3.011,2.692,2.409,1.035,2.460,0.700,-0.336,0.037,0.075
2026-05-10 20:35:24.311155,SEARCHING,15.857,1.000,0.00,0.00,19.35,3.011,2.692,2.409,1.035,2.460,0.700,-0.336,0.037,0.075
2026-05-10 20:35:24.512180,SEARCHING,15.989,1.000,0.00,0.00,20.21,3.011,2.692,2.409,1.035,2.460,0.700,-0.336,0.037,0.075
2026-05-10 20:35:24.744771,SEARCHING,16.120,1.000,0.00,0.00,21.07,3.011,2.692,2.409,1.035,2.460,0.700,-0.336,0.037,0.075
2026-05-10 20:35:24.967250,SEARCHING,16.250,1.000,0.00,0.00,21.92,3.011,2.692,2.409,1.035,2.460,0.700,-0.336,0.037,0.075
2026-05-10 20:35:25.172963,INSPECTING,16.389,1.000,0.05,0.01,17.52,3.011,2.692,2.409,1.035,2.460,-0.150,-0.450,0.600,0.800
2026-05-10 20:35:25.364339,INSPECTING,16.391,1.000,0.15,-0.00,12.71,3.011,2.692,2.409,1.035,2.460,-0.150,-0.450,0.600,0.800
2026-05-10 20:35:25.645137,INSPECTING,16.384,1.000,0.19,-0.00,17.56,3.011,2.692,2.409,1.035,2.460,-0.150,-0.450,0.600,0.800
2026-05-10 20:35:25.783150,SEARCHING,16.378,1.000,0.27,-0.00,15.91,3.011,2.692,2.409,1.035,2.460,0.700,-0.336,0.037,0.075
2026-05-10 20:35:26.056939,SEARCHING,16.379,1.000,0.37,0.00,16.35,3.011,2.692,2.409,1.035,2.460,0.350,-0.550,0.552,0.850
2026-05-10 20:35:26.194676,INSPECTING,16.380,1.001,0.40,-0.02,16.35,3.011,2.692,2.409,1.035,2.460,-0.150,-0.450,0.600,0.800
2026-05-10 20:35:26.398062,SEARCHING,16.363,1.001,0.46,0.00,18.66,0.519,4.576,3.467,5.321,0.847,0.700,0.595,-0.737,-1.475
2026-05-10 20:35:26.685815,SEARCHING,16.370,1.001,0.56,0.00,9.93,0.519,4.576,3.467,5.321,0.847,0.350,0.000,0.000,0.000
2026-05-10 20:35:26.875393,SEARCHING,16.378,1.001,0.64,0.03,10.12,0.519,4.576,3.467,5.321,0.847,0.350,0.000,0.000,0.000
2026-05-10 20:35:27.081594,SEARCHING,16.375,1.000,0.71,0.03,8.74,0.519,4.576,3.467,5.321,0.847,0.350,0.000,0.000,0.000
2026-05-10 20:35:27.278179,SEARCHING,16.378,1.000,0.81,0.06,7.88,0.519,4.576,3.467,5.321,0.847,0.350,0.000,0.000,0.000
2026-05-10 20:35:27.533459,SEARCHING,16.380,1.000,0.88,0.08,7.26,0.519,4.576,3.467,5.321,0.847,0.350,0.000,0.000,0.000
2026-05-10 20:35:27.657595,INSPECTING,16.380,1.000,0.97,0.14,4.85,0.519,4.576,3.467,5.321,0.847,-0.150,0.450,-0.600,-0.800
2026-05-10 20:35:27.880761,INSPECTING,16.385,1.000,1.11,0.14,5.65,0.643,4.487,3.316,5.085,1.198,-0.150,0.450,-0.600,-0.800
2026-05-10 20:35:28.122446,INSPECTING,16.382,1.000,1.18,0.22,2.34,0.643,4.487,3.316,5.085,1.198,-0.150,0.450,-0.600,-0.800
2026-05-10 20:35:28.286834,SEARCHING,16.373,1.000,1.23,0.14,1.11,10.000,10.000,10.000,10.000,10.000,0.700,0.000,0.000,0.000
2026-05-10 20:35:28.490616,INSPECTING,16.386,1.000,1.32,0.28,0.93,10.000,10.000,10.000,10.000,10.000,-0.150,-0.450,-0.600,-0.800
2026-05-10 20:35:28.758281,INSPECTING,16.386,1.000,1.37,0.33,-0.45,10.000,10.000,10.000,10.000,10.000,-0.150,-0.450,-0.600,-0.800
2026-05-10 20:35:28.918277,INSPECTING,16.387,0.999,1.42,0.22,-0.20,10.000,10.000,10.000,10.000,10.000,-0.150,-0.450,-0.600,-0.800
2026-05-10 20:35:29.180366,INSPECTING,16.400,0.999,1.60,0.24,4.41,10.000,10.000,10.000,10.000,10.000,-0.150,-0.450,-0.600,-0.800
2026-05-10 20:35:30.270546,SEARCHING,16.401,0.999,1.65,0.11,6.52,10.000,10.000,10.000,10.000,10.000,0.700,0.000,0.000,0.000
2026-05-10 20:35:31.959380,SEARCHING,16.393,0.999,1.85,0.51,-3.58,10.000,10.000,10.000,10.000,10.000,0.350,0.550,0.552,0.850
2026-05-10 20:35:32.092175,INSPECTING,16.398,0.999,1.91,0.59,-3.96,10.000,10.000,10.000,10.000,10.000,-0.150,-0.450,-0.600,-0.800
2026-05-10 20:35:32.301831,INSPECTING,16.395,0.999,1.98,0.39,-4.30,10.000,10.000,10.000,10.000,10.000,-0.150,-0.450,-0.600,-0.800
2026-05-10 20:35:32.547740,SEARCHING,16.394,0.998,2.08,0.37,-2.86,10.000,10.000,10.000,10.000,10.000,0.700,0.000,0.000,0.000
2026-05-10 20:35:32.805717,SEARCHING,16.404,0.999,2.27,1.15,-0.45,10.000,10.000,10.000,10.000,10.000,0.350,0.550,0.552,0.850
2026-05-10 20:35:33.007620,SEARCHING,16.421,0.999,2.33,0.85,3.43,10.000,10.000,10.000,10.000,10.000,0.350,0.550,0.552,0.850
2026-05-10 20:35:33.209187,SEARCHING,16.420,0.998,2.37,0.40,2.38,10.000,10.000,10.000,10.000,10.000,0.350,0.550,0.552,0.850
2026-05-10 20:35:33.386438,INSPECTING,16.432,0.998,2.49,0.32,5.98,10.000,10.000,10.000,10.000,10.000,-0.150,-0.450,-0.600,-0.800
2026-05-10 20:35:33.618575,INSPECTING,16.443,0.997,2.64,0.09,10.21,10.000,10.000,10.000,10.000,10.000,-0.150,-0.450,-0.600,-0.800
2026-05-10 20:35:33.816927,SEARCHING,16.433,0.997,2.67,-0.03,8.99,10.000,10.000,10.000,10.000,10.000,0.700,0.000,0.000,0.000
2026-05-10 20:35:34.068177,SEARCHING,16.447,0.996,2.72,-0.43,11.28,10.000,10.000,10.000,10.000,10.000,0.350,0.550,0.552,0.850
2026-05-10 20:35:34.300052,SEARCHING,16.440,0.996,2.82,-0.15,6.98,10.000,10.000,10.000,10.000,10.000,0.350,0.550,0.552,0.850
2026-05-10 20:35:34.437124,INSPECTING,16.446,0.997,3.09,0.52,6.89,10.000,10.000,10.000,10.000,10.000,-0.150,-0.450,-0.600,-0.800
2026-05-10 20:35:34.661630,SEARCHING,16.436,0.996,3.13,0.01,6.10,10.000,10.000,10.000,10.000,10.000,0.700,0.000,0.000,0.000
2026-05-10 20:35:34.936644,SEARCHING,16.454,0.996,3.12,0.04,10.27,6.934,4.487,2.790,4.974,1.278,0.350,0.550,0.552,0.850
2026-05-10 20:35:35.076256,INSPECTING,16.467,0.995,3.09,-0.58,13.39,6.934,4.487,2.790,4.974,1.278,-0.150,0.450,0.600,0.800
2026-05-10 20:35:35.307036,INSPECTING,16.460,0.996,3.47,-0.16,16.77,6.934,4.487,2.790,4.974,1.278,-0.150,0.450,0.600,0.800
2026-05-10 20:35:35.480305,SEARCHING,16.447,0.996,3.51,0.03,17.85,6.934,4.487,2.790,4.974,1.278,0.700,0.349,0.096,0.193
2026-05-10 20:35:35.757849,SEARCHING,16.452,0.997,3.62,-0.05,16.57,6.934,4.487,2.790,4.974,1.278,0.350,0.550,0.552,0.850
2026-05-10 20:35:36.012945,SEARCHING,16.454,0.997,3.76,-0.03,14.90,6.934,4.487,2.790,4.974,1.278,0.350,0.550,0.552,0.850
2026-05-10 20:35:36.143465,INSPECTING,16.454,0.997,3.84,-0.29,13.16,6.934,4.487,2.790,4.974,1.278,-0.150,0.450,0.600,0.800
2026-05-10 20:35:36.382328,INSPECTING,16.451,0.997,3.91,-0.05,14.12,6.934,4.487,2.790,4.974,1.278,-0.150,0.450,0.600,0.800
2026-05-10 20:35:36.584717,SEARCHING,16.432,0.998,3.92,0.04,18.65,0.835,4.767,2.487,5.200,1.264,0.700,0.359,-0.358,-0.716
2026-05-10 20:35:36.857017,SEARCHING,16.437,0.997,3.76,-0.64,10.01,0.823,4.670,2.434,5.200,1.264,0.350,0.000,0.000,0.000
2026-05-10 20:35:36.995099,INSPECTING,16.448,0.998,4.21,0.29,11.08,0.823,4.670,2.434,5.200,1.264,-0.150,0.450,-0.600,-0.800
2026-05-10 20:35:37.217316,INSPECTING,16.455,0.997,4.32,-0.03,13.72,6.538,4.767,2.514,4.974,1.264,-0.150,0.450,0.600,0.800
2026-05-10 20:35:37.413242,SEARCHING,16.435,0.997,4.32,0.05,18.51,6.538,4.767,2.514,4.974,1.264,0.700,0.354,0.110,0.220
2026-05-10 20:35:37.708098,SEARCHING,16.436,0.997,4.63,-0.43,17.31,6.538,4.767,2.514,4.974,1.264,0.350,0.550,0.552,0.850
2026-05-10 20:35:37.849546,INSPECTING,16.445,0.997,4.71,-0.19,15.67,6.538,4.767,2.514,4.974,1.264,-0.150,0.450,0.600,0.800
2026-05-10 20:35:38.062632,SEARCHING,16.437,0.998,4.75,0.05,20.29,6.538,4.767,2.514,4.974,1.264,0.700,0.354,0.110,0.220
2026-05-10 20:35:38.267175,SEARCHING,16.431,0.997,5.03,-0.63,17.32,6.538,4.767,2.514,4.974,1.264,0.700,0.354,0.110,0.220
2026-05-10 20:35:38.548005,SEARCHING,16.435,0.998,5.06,0.00,15.62,6.538,4.767,2.514,4.974,1.264,0.350,0.550,0.552,0.850
2026-05-10 20:35:38.764804,SEARCHING,16.427,0.998,5.31,-0.19,18.02,6.538,4.767,2.514,4.974,1.264,0.350,0.550,0.552,0.850
2026-05-10 20:35:38.897338,INSPECTING,16.433,0.999,5.49,-0.20,15.52,6.538,4.767,2.514,4.974,1.264,-0.150,0.450,0.600,0.800
2026-05-10 20:35:39.129817,SEARCHING,16.408,0.999,5.53,0.06,20.95,6.538,4.767,2.514,4.974,1.264,0.700,0.354,0.110,0.220
2026-05-10 20:35:39.407322,SEARCHING,16.426,1.000,5.83,-0.08,15.51,6.538,4.767,2.514,4.974,1.264,0.350,0.550,0.552,0.850
2026-05-10 20:35:39.558134,INSPECTING,16.419,0.999,5.88,-0.26,21.31,6.538,4.767,2.514,4.974,1.264,-0.150,0.450,0.600,0.800
2026-05-10 20:35:39.783301,SEARCHING,16.408,1.001,6.05,0.16,18.70,6.538,4.767,2.514,4.974,1.264,0.700,0.354,0.110,0.220
2026-05-10 20:35:40.093485,SEARCHING,16.416,1.001,6.42,-0.02,14.93,6.538,4.767,2.514,4.974,1.264,0.350,0.550,0.552,0.850
2026-05-10 20:35:40.214670,INSPECTING,16.413,1.000,6.70,-0.68,19.09,6.538,4.767,2.514,4.974,1.264,-0.150,0.450,0.600,0.800
2026-05-10 20:35:40.425927,SEARCHING,16.398,1.002,6.75,0.02,20.13,6.538,4.767,2.514,4.974,1.264,0.700,0.354,0.110,0.220
2026-05-10 20:35:40.671893,SEARCHING,16.408,1.002,7.11,-0.02,15.81,6.538,4.767,2.514,4.974,1.264,0.350,0.550,0.552,0.850
2026-05-10 20:35:40.924848,SEARCHING,16.403,1.003,7.27,0.05,17.09,6.538,4.767,2.514,4.974,1.264,0.350,0.550,0.552,0.850
2026-05-10 20:35:41.063178,INSPECTING,16.400,1.002,7.60,-0.88,20.96,6.538,4.767,2.514,4.974,1.264,-0.150,0.450,0.600,0.800
2026-05-10 20:35:41.264038,SEARCHING,16.389,1.004,7.70,0.03,19.04,6.538,4.767,2.514,4.974,1.264,0.700,0.354,0.110,0.220
2026-05-10 20:35:41.478173,INSPECTING,16.405,1.004,8.05,0.00,13.33,6.538,4.767,2.514,4.974,1.264,-0.150,0.450,0.600,0.800
2026-05-10 20:35:41.699977,SEARCHING,16.393,1.004,8.10,-0.18,20.45,6.538,4.767,2.514,4.974,1.264,0.700,0.354,0.110,0.220
2026-05-10 20:35:41.970161,SEARCHING,16.396,1.005,8.43,0.10,14.03,6.538,4.767,2.514,4.974,1.264,0.350,0.550,0.552,0.850
2026-05-10 20:35:42.122727,INSPECTING,16.397,1.005,8.61,0.15,14.36,6.538,4.767,2.514,4.974,1.264,-0.150,0.450,0.600,0.800
2026-05-10 20:35:42.342386,INSPECTING,16.379,1.005,8.77,0.00,19.29,6.538,4.767,2.514,4.974,1.264,-0.150,0.450,0.600,0.800
2026-05-10 20:35:42.585782,INSPECTING,16.386,1.005,9.21,-0.84,18.21,6.538,4.767,2.514,4.974,1.264,-0.150,0.450,0.600,0.800
2026-05-10 20:35:42.757825,SEARCHING,16.377,1.005,9.27,-0.55,23.16,6.538,4.767,2.514,4.974,1.264,0.700,0.354,0.110,0.220
2026-05-10 20:35:43.026342,SEARCHING,16.380,1.007,9.57,0.04,14.90,6.538,4.767,2.514,4.974,1.264,0.350,0.550,0.552,0.850
2026-05-10 20:35:43.233521,INSPECTING,16.384,1.008,9.91,0.02,13.61,0.486,0.748,1.939,0.829,0.695,0.350,0.550,-0.552,-0.850
2026-05-10 20:35:43.454594,INSPECTING,16.382,1.007,9.73,-0.29,13.00,0.486,0.748,1.939,0.829,0.695,0.350,0.550,-0.552,-0.850
2026-05-10 20:35:43.649729,INSPECTING,16.377,1.008,10.27,0.71,8.96,0.486,0.748,1.939,0.829,0.695,0.350,0.550,-0.552,-0.850
2026-05-10 20:35:43.866909,INSPECTING,16.375,1.009,10.66,1.51,6.93,0.486,0.748,1.939,0.829,0.695,0.350,0.550,-0.552,-0.850
2026-05-10 20:35:44.042563,INSPECTING,16.372,1.009,10.86,1.94,3.41,10.000,10.000,10.000,10.000,10.000,-0.150,-0.450,-0.600,-0.800
2026-05-10 20:35:44.258649,INSPECTING,16.364,1.008,10.68,0.98,0.17,10.000,10.000,10.000,10.000,10.000,-0.150,-0.450,-0.600,-0.800
2026-05-10 20:35:44.467688,SEARCHING,16.357,1.007,11.09,1.09,-0.44,0.667,2.460,1.907,4.670,1.237,0.700,0.357,-0.439,-0.877
2026-05-10 20:35:44.735469,SEARCHING,16.387,1.005,11.69,0.81,8.05,0.667,2.460,1.907,4.670,1.237,0.350,0.000,0.000,0.000
2026-05-10 20:35:44.892032,INSPECTING,16.390,1.006,12.21,1.45,6.66,0.667,2.460,1.907,4.670,1.237,-0.150,0.450,-0.600,-0.800
2026-05-10 20:35:45.113919,SEARCHING,16.384,1.003,12.29,-0.04,7.55,0.708,2.460,1.891,4.576,1.244,0.700,0.351,-0.397,-0.795
2026-05-10 20:35:45.409154,SEARCHING,16.399,1.003,12.89,0.76,10.88,0.708,2.460,1.891,4.576,1.244,0.350,0.000,0.000,0.000
2026-05-10 20:35:45.540587,INSPECTING,16.397,1.004,13.30,1.58,6.22,10.000,10.000,10.000,10.000,10.000,-0.150,-0.450,-0.600,-0.800
2026-05-10 20:35:45.774083,INSPECTING,16.408,1.002,13.77,0.96,10.17,10.000,10.000,10.000,10.000,10.000,-0.150,-0.450,-0.600,-0.800
2026-05-10 20:35:45.995406,INSPECTING,16.409,1.001,14.11,1.20,9.32,10.000,10.000,10.000,10.000,10.000,-0.150,-0.450,-0.600,-0.800
2026-05-10 20:35:46.194832,INSPECTING,16.416,1.000,14.13,0.37,11.68,10.000,10.000,10.000,10.000,10.000,-0.150,-0.450,-0.600,-0.800
2026-05-10 20:35:46.397785,INSPECTING,16.415,1.000,14.18,0.51,9.81,0.795,2.359,1.845,4.487,1.257,-0.150,0.450,-0.600,-0.800
2026-05-10 20:35:46.623810,INSPECTING,16.414,1.000,14.68,1.18,7.96,0.795,2.359,1.845,4.487,1.257,-0.150,0.450,-0.600,-0.800
2026-05-10 20:35:46.856066,INSPECTING,16.418,0.999,15.08,1.01,8.57,0.795,2.359,1.845,4.487,1.257,-0.150,0.450,-0.600,-0.800
2026-05-10 20:35:47.028888,SEARCHING,16.411,0.997,15.16,0.10,7.71,0.795,2.359,1.845,4.487,1.257,0.700,0.344,-0.323,-0.645
2026-05-10 20:35:47.291114,SEARCHING,16.422,0.996,15.67,0.22,10.26,0.795,2.359,1.845,4.487,1.257,0.350,0.000,0.000,0.000
2026-05-10 20:35:47.504565,SEARCHING,16.430,0.995,15.92,-0.16,11.02,0.795,2.359,1.845,4.487,1.257,0.350,0.000,0.000,0.000
2026-05-10 20:35:47.718807,SEARCHING,16.435,0.994,16.24,-0.50,12.39,0.795,2.359,1.845,4.487,1.257,0.350,0.000,0.000,0.000
2026-05-10 20:35:47.858922,INSPECTING,16.438,0.994,17.00,0.63,12.31,0.795,2.359,1.845,4.487,1.257,-0.150,0.450,-0.600,-0.800
2026-05-10 20:35:48.111313,INSPECTING,16.434,0.994,17.42,0.86,8.28,0.795,2.359,1.845,4.487,1.257,-0.150,0.450,-0.600,-0.800
2026-05-10 20:35:48.296288,SEARCHING,16.426,0.991,17.26,-0.55,7.27,0.795,2.359,1.845,4.487,1.257,0.700,0.344,-0.323,-0.645
2026-05-10 20:35:48.573076,SEARCHING,16.439,0.991,18.06,0.26,10.24,0.795,2.359,1.845,4.487,1.257,0.350,0.000,0.000,0.000
2026-05-10 20:35:48.709800,INSPECTING,16.444,0.992,18.77,1.31,9.49,0.795,2.359,1.845,4.487,1.257,-0.150,0.450,-0.600,-0.800
2026-05-10 20:35:48.968043,SEARCHING,16.445,0.989,19.15,0.48,8.48,0.795,2.359,1.845,4.487,1.257,0.700,0.344,-0.323,-0.645
2026-05-10 20:35:49.242703,SEARCHING,16.444,0.988,19.43,0.28,9.33,1.956,2.243,1.611,4.767,1.271,0.350,0.550,0.552,0.850
2026-05-10 20:35:49.369494,INSPECTING,16.450,0.989,19.90,1.14,9.19,1.956,2.243,1.611,4.767,1.271,-0.150,0.450,0.600,0.800
2026-05-10 20:35:49.602120,INSPECTING,16.439,0.987,19.97,0.22,18.66,4.974,2.179,1.682,4.086,1.300,-0.150,0.450,0.600,0.800
2026-05-10 20:35:49.808430,INSPECTING,16.449,0.986,20.91,-1.33,16.74,0.887,2.243,1.505,4.974,1.285,-0.150,0.450,-0.600,-0.800
2026-05-10 20:35:50.058358,INSPECTING,16.455,0.988,21.43,0.28,12.68,0.887,2.243,1.505,4.974,1.285,-0.150,0.450,-0.600,-0.800
2026-05-10 20:35:50.223998,SEARCHING,16.438,0.988,21.41,0.29,7.54,0.887,2.243,1.505,4.974,1.285,0.700,0.346,-0.208,-0.417
2026-05-10 20:35:50.522867,SEARCHING,16.451,0.986,22.22,-0.00,11.48,10.000,10.000,10.000,10.000,10.000,0.350,0.550,0.552,0.850
2026-05-10 20:35:50.660265,INSPECTING,16.460,0.987,22.86,0.82,11.97,10.000,10.000,10.000,10.000,10.000,-0.150,-0.450,-0.600,-0.800
2026-05-10 20:35:50.874971,SEARCHING,16.438,0.985,23.05,0.04,5.17,10.000,10.000,10.000,10.000,10.000,0.700,0.000,0.000,0.000
2026-05-10 20:35:51.148746,SEARCHING,16.458,0.984,23.86,0.07,15.06,5.200,2.179,1.623,4.014,1.308,0.350,0.550,0.552,0.850
2026-05-10 20:35:51.405306,SEARCHING,16.456,0.984,24.45,-0.56,16.78,5.200,2.179,1.623,4.014,1.308,0.350,0.550,0.552,0.850
2026-05-10 20:35:51.516616,INSPECTING,16.451,0.984,24.88,-1.04,20.27,5.200,2.179,1.623,4.014,1.308,-0.150,0.450,0.600,0.800
2026-05-10 20:35:51.731793,SEARCHING,16.439,0.987,25.29,0.21,18.62,5.200,2.179,1.623,4.014,1.308,0.700,0.309,0.191,0.382
2026-05-10 20:35:52.002677,SEARCHING,16.450,0.987,26.16,-0.40,15.26,5.200,2.179,1.623,4.014,1.308,0.350,0.550,0.552,0.850
2026-05-10 20:35:52.133409,INSPECTING,16.450,0.988,26.78,-0.54,15.06,5.200,2.179,1.623,4.014,1.308,-0.150,0.450,0.600,0.800
2026-05-10 20:35:52.353560,SEARCHING,16.430,0.988,26.80,-0.46,20.85,5.200,2.179,1.623,4.014,1.308,0.700,0.309,0.191,0.382
2026-05-10 20:35:52.658534,SEARCHING,16.441,0.991,27.65,-0.06,15.59,5.200,2.179,1.623,4.014,1.308,0.350,0.550,0.552,0.850
2026-05-10 20:35:52.783868,INSPECTING,16.439,0.991,28.24,-0.33,17.32,5.200,2.179,1.623,4.014,1.308,-0.150,0.450,0.600,0.800
2026-05-10 20:35:53.040563,INSPECTING,16.436,0.992,29.12,-0.68,17.16,6.356,2.179,1.476,4.400,1.264,-0.150,0.450,0.600,0.800
2026-05-10 20:35:53.238837,INSPECTING,16.433,0.995,29.62,0.08,17.24,6.356,2.179,1.476,4.400,1.264,-0.150,0.450,0.600,0.800
2026-05-10 20:35:53.425961,SEARCHING,16.421,0.996,29.81,0.50,18.12,6.356,2.179,1.476,4.400,1.264,0.700,0.338,0.234,0.468
2026-05-10 20:35:53.675722,SEARCHING,16.430,0.996,30.47,-0.54,15.42,6.356,2.179,1.476,4.400,1.264,0.350,0.550,0.552,0.850
2026-05-10 20:35:53.916412,SEARCHING,16.430,0.998,31.02,0.34,13.78,6.356,2.179,1.476,4.400,1.264,0.350,0.550,0.552,0.850
2026-05-10 20:35:54.125327,SEARCHING,16.428,0.999,31.63,0.19,13.91,6.356,2.179,1.476,4.400,1.264,0.350,0.550,0.552,0.850
2026-05-10 20:35:54.270834,INSPECTING,16.427,1.001,32.34,0.38,13.47,6.356,2.179,1.476,4.400,1.264,-0.150,0.450,0.600,0.800
2026-05-10 20:35:54.464322,SEARCHING,16.407,1.001,32.66,0.18,20.15,6.356,2.179,1.476,4.400,1.264,0.700,0.338,0.234,0.468
2026-05-10 20:35:54.745784,SEARCHING,16.414,1.001,33.46,-0.56,16.76,6.356,2.179,1.476,4.400,1.264,0.350,0.550,0.552,0.850
2026-05-10 20:35:54.891917,INSPECTING,16.415,1.003,34.10,-0.18,17.02,6.356,2.179,1.476,4.400,1.264,-0.150,0.450,0.600,0.800
2026-05-10 20:35:55.160578,INSPECTING,16.416,1.006,35.00,0.28,13.16,0.773,2.119,1.412,4.400,1.244,-0.150,0.450,-0.600,-0.800
2026-05-10 20:35:55.349202,INSPECTING,16.413,1.005,35.50,0.35,10.37,0.773,2.119,1.412,4.400,1.244,-0.150,0.450,-0.600,-0.800
2026-05-10 20:35:55.569682,INSPECTING,16.413,1.003,36.05,-0.23,9.02,0.811,2.080,1.496,3.945,1.271,-0.150,0.450,-0.600,-0.800
2026-05-10 20:35:55.770983,INSPECTING,16.420,1.000,36.79,-1.00,10.86,0.811,2.080,1.496,3.945,1.271,-0.150,0.450,-0.600,-0.800
2026-05-10 20:35:55.972406,SEARCHING,16.405,1.000,36.97,-1.19,7.26,0.811,2.080,1.496,3.945,1.271,0.700,0.320,-0.254,-0.507
2026-05-10 20:35:56.224874,SEARCHING,16.420,1.000,37.80,-0.23,12.26,0.811,2.080,1.496,3.945,1.271,0.350,0.000,0.000,0.000
2026-05-10 20:35:56.441390,SEARCHING,16.424,0.998,38.23,-0.97,9.80,0.811,2.080,1.496,3.945,1.271,0.350,0.000,0.000,0.000
2026-05-10 20:35:56.655872,SEARCHING,16.428,0.994,38.93,-2.21,11.88,0.811,2.080,1.496,3.945,1.271,0.350,0.000,0.000,0.000
2026-05-10 20:35:56.878585,SEARCHING,16.423,0.992,39.40,-3.26,7.55,0.811,2.080,1.496,3.945,1.271,0.350,0.000,0.000,0.000
2026-05-10 20:35:57.100105,SEARCHING,16.435,0.990,39.90,-3.73,9.76,0.811,2.080,1.496,3.945,1.271,0.350,0.000,0.000,0.000
2026-05-10 20:35:57.228127,INSPECTING,16.434,0.987,40.42,-4.75,6.76,5.200,2.179,1.430,4.014,1.244,-0.150,0.450,0.600,0.800
2026-05-10 20:35:57.433492,SEARCHING,16.418,0.988,40.49,-4.12,18.29,5.200,2.179,1.430,4.014,1.244,0.700,0.333,0.228,0.456
2026-05-10 20:35:57.724640,SEARCHING,16.428,0.998,40.76,1.03,17.66,5.200,2.179,1.430,4.014,1.244,0.350,0.550,0.552,0.850
2026-05-10 20:35:57.931185,SEARCHING,16.431,1.001,41.28,2.33,16.90,5.200,2.179,1.430,4.014,1.244,0.350,0.550,0.552,0.850
2026-05-10 20:35:58.079179,INSPECTING,16.432,1.005,41.91,4.09,17.19,5.200,2.179,1.430,4.014,1.244,-0.150,0.450,0.600,0.800
2026-05-10 20:35:58.288879,SEARCHING,16.410,1.002,41.90,1.98,21.16,5.448,1.939,1.412,4.086,1.264,0.679,0.328,0.236,0.472
2026-05-10 20:35:58.562252,SEARCHING,16.425,1.002,42.41,1.14,15.67,5.448,1.939,1.412,4.086,1.264,0.350,0.550,0.552,0.850
2026-05-10 20:35:58.767641,SEARCHING,16.426,1.003,42.79,1.21,14.69,5.448,1.939,1.412,4.086,1.264,0.350,0.550,0.552,0.850
2026-05-10 20:35:58.964439,SEARCHING,16.419,1.004,43.24,1.34,15.38,5.448,1.939,1.412,4.086,1.264,0.350,0.550,0.552,0.850
2026-05-10 20:35:59.180595,SEARCHING,16.419,1.006,43.66,1.95,15.65,5.448,1.939,1.412,4.086,1.264,0.350,0.550,0.552,0.850
2026-05-10 20:35:59.405105,SEARCHING,16.413,1.009,44.05,3.29,17.36,5.448,1.939,1.412,4.086,1.264,0.350,0.550,0.552,0.850
2026-05-10 20:35:59.602368,INSPECTING,16.413,1.012,44.45,4.17,17.87,5.448,1.939,1.412,4.086,1.264,-0.150,0.450,0.600,0.800
2026-05-10 20:35:59.782262,INSPECTING,16.407,1.014,44.66,5.37,22.77,5.448,1.939,1.412,4.086,1.264,-0.150,0.450,0.600,0.800
2026-05-10 20:36:00.022987,INSPECTING,16.406,1.017,45.17,6.02,22.17,5.448,1.939,1.412,4.086,1.264,-0.150,0.450,0.600,0.800
2026-05-10 20:36:00.227389,INSPECTING,16.404,1.020,45.57,7.30,22.50,5.448,1.939,1.412,4.086,1.264,-0.150,0.450,0.600,0.800
2026-05-10 20:36:00.440599,SEARCHING,16.390,1.018,45.61,6.18,25.70,5.448,1.939,1.412,4.086,1.264,0.679,0.328,0.236,0.472
2026-05-10 20:36:00.701416,SEARCHING,16.395,1.021,45.95,7.17,21.95,5.448,1.939,1.412,4.086,1.264,0.350,0.550,0.552,0.850
2026-05-10 20:36:00.849314,INSPECTING,16.399,1.025,46.72,9.01,23.06,0.693,1.747,1.278,4.487,0.770,-0.150,0.450,-0.600,-0.800
2026-05-10 20:36:01.045551,SEARCHING,16.376,1.023,46.31,7.52,13.11,0.693,1.747,1.278,4.487,0.770,0.611,0.645,-0.297,-0.594
2026-05-10 20:36:01.298782,SEARCHING,16.398,1.010,45.04,-0.17,11.13,0.693,1.747,1.278,4.487,0.770,0.350,0.000,0.000,0.000
2026-05-10 20:36:01.476446,INSPECTING,16.409,1.008,45.57,-0.45,13.40,0.693,1.747,1.278,4.487,0.770,-0.150,0.450,-0.600,-0.800
2026-05-10 20:36:02.540658,SEARCHING,16.387,1.010,46.06,0.66,6.38,0.693,1.747,1.278,4.487,0.770,0.611,0.645,-0.297,-0.594
2026-05-10 20:36:02.580467,INSPECTING,16.405,1.005,46.58,-1.50,8.05,0.693,1.747,1.278,4.487,0.770,-0.150,0.450,-0.600,-0.800
2026-05-10 20:36:04.165537,INSPECTING,16.410,1.006,47.15,-0.65,9.61,0.693,1.747,1.278,4.487,0.770,-0.150,0.450,-0.600,-0.800
2026-05-10 20:36:04.168387,INSPECTING,16.415,1.005,47.45,-0.99,12.22,0.693,1.747,1.278,4.487,0.770,-0.150,0.450,-0.600,-0.800
2026-05-10 20:36:04.341171,SEARCHING,16.408,1.005,49.56,0.39,10.46,0.693,1.747,1.278,4.487,0.770,0.350,0.000,0.000,0.000
2026-05-10 20:36:04.465022,INSPECTING,16.406,1.003,49.73,-0.58,4.91,0.693,1.747,1.278,4.487,0.770,-0.150,0.450,-0.600,-0.800
2026-05-10 20:36:04.677690,SEARCHING,16.394,0.998,50.07,-2.77,2.76,0.693,1.747,1.278,4.487,0.770,0.611,0.645,-0.297,-0.594
2026-05-10 20:36:04.881886,INSPECTING,16.416,0.992,50.73,-5.68,4.68,0.693,1.747,1.278,4.487,0.770,-0.150,0.450,-0.600,-0.800
2026-05-10 20:36:05.097182,SEARCHING,16.400,0.991,50.80,-6.56,0.55,0.693,1.747,1.278,4.487,0.770,0.611,0.645,-0.297,-0.594
2026-05-10 20:36:05.345303,SEARCHING,16.407,0.990,50.76,-6.64,0.69,4.237,2.600,1.395,3.814,1.457,0.350,0.550,0.552,0.850
2026-05-10 20:36:05.569145,SEARCHING,16.415,0.988,51.09,-7.49,6.76,4.237,2.600,1.395,3.814,1.457,0.350,0.550,0.552,0.850
2026-05-10 20:36:05.706951,INSPECTING,16.426,0.995,50.18,-3.39,12.74,4.237,2.571,1.378,3.878,1.421,-0.150,0.450,0.600,0.800
2026-05-10 20:36:05.986420,INSPECTING,16.422,1.003,50.09,1.05,18.27,0.844,1.990,1.354,4.237,1.244,-0.150,0.450,-0.600,-0.800
2026-05-10 20:36:06.187164,INSPECTING,16.423,1.003,50.42,0.81,10.96,0.844,1.990,1.354,4.237,1.244,-0.150,0.450,-0.600,-0.800
2026-05-10 20:36:06.359103,SEARCHING,16.412,1.001,50.59,-0.02,8.26,0.844,1.990,1.354,4.237,1.244,0.696,0.341,-0.201,-0.401
2026-05-10 20:36:06.629609,SEARCHING,16.426,0.999,51.54,-0.40,12.82,0.844,1.990,1.354,4.237,1.244,0.350,0.000,0.000,0.000
2026-05-10 20:36:06.804948,INSPECTING,16.434,0.999,51.83,0.00,13.33,0.844,1.990,1.354,4.237,1.244,-0.150,0.450,-0.600,-0.800
2026-05-10 20:36:07.024899,INSPECTING,16.424,0.999,51.81,-0.00,8.09,4.576,1.973,1.370,3.945,1.244,-0.150,0.450,0.600,0.800
2026-05-10 20:36:07.259858,INSPECTING,16.427,0.998,52.59,-0.83,19.64,4.576,1.973,1.370,3.945,1.244,-0.150,0.450,0.600,0.800
2026-05-10 20:36:07.483955,INSPECTING,16.426,1.003,53.15,1.71,20.27,4.576,1.973,1.370,3.945,1.244,-0.150,0.450,0.600,0.800
2026-05-10 20:36:07.655036,SEARCHING,16.413,1.005,53.34,3.00,21.28,4.576,1.973,1.370,3.945,1.244,0.690,0.330,0.230,0.460
2026-05-10 20:36:07.890091,INSPECTING,16.422,1.008,53.84,3.81,21.45,4.576,1.973,1.370,3.945,1.244,-0.150,0.450,0.600,0.800
2026-05-10 20:36:08.080900,SEARCHING,16.407,1.007,54.02,2.91,24.07,4.576,1.973,1.370,3.945,1.244,0.690,0.330,0.230,0.460
2026-05-10 20:36:08.350869,SEARCHING,16.416,1.006,54.41,2.12,19.06,4.576,1.973,1.370,3.945,1.244,0.350,0.550,0.552,0.850
2026-05-10 20:36:08.559320,SEARCHING,16.415,1.011,54.75,4.68,18.96,4.576,1.973,1.370,3.945,1.244,0.350,0.550,0.552,0.850
2026-05-10 20:36:08.764829,SEARCHING,16.413,1.011,54.83,4.33,21.09,4.576,1.973,1.370,3.945,1.244,0.350,0.550,0.552,0.850
2026-05-10 20:36:08.963803,SEARCHING,16.410,1.013,55.20,4.93,22.37,4.576,1.973,1.370,3.945,1.244,0.350,0.550,0.552,0.850
2026-05-10 20:36:09.195791,SEARCHING,16.403,1.017,55.47,7.16,24.72,0.731,1.956,0.663,4.767,0.729,0.350,0.000,0.000,0.000
2026-05-10 20:36:09.390268,INSPECTING,16.407,1.016,55.37,6.64,22.84,0.731,1.956,0.663,4.767,0.729,-0.150,0.450,0.600,0.800
2026-05-10 20:36:09.611617,INSPECTING,16.403,1.017,55.53,7.19,26.32,0.731,1.956,0.663,4.767,0.729,-0.150,0.450,0.600,0.800
2026-05-10 20:36:09.820503,INSPECTING,16.396,1.016,55.54,6.42,28.57,0.731,1.956,0.663,4.767,0.729,-0.150,0.450,0.600,0.800
2026-05-10 20:36:10.049093,INSPECTING,16.398,1.019,55.94,7.90,28.46,0.731,1.956,0.663,4.767,0.729,-0.150,0.450,0.600,0.800
2026-05-10 20:36:10.341135,INSPECTING,16.386,1.020,55.99,8.39,30.58,0.669,0.841,0.634,2.860,0.683,0.350,0.550,0.552,0.850
2026-05-10 20:36:10.570477,INSPECTING,16.397,1.026,56.04,11.78,29.65,0.669,0.841,0.634,2.860,0.683,-0.150,0.450,0.600,0.800
2026-05-10 20:36:10.746813,INSPECTING,16.393,1.025,56.15,10.87,29.87,0.669,0.841,0.634,2.860,0.683,0.350,0.550,0.552,0.850
2026-05-10 20:36:11.043432,INSPECTING,16.394,1.030,56.24,14.02,35.93,0.669,0.841,0.634,2.860,0.683,0.350,0.550,0.552,0.850
2026-05-10 20:36:11.177792,INSPECTING,16.392,1.031,56.35,14.35,35.22,0.669,0.841,0.634,2.860,0.683,0.350,0.550,0.552,0.850
2026-05-10 20:36:11.390727,INSPECTING,16.393,1.033,56.41,16.25,39.11,0.669,0.841,0.634,2.860,0.683,0.350,0.550,0.552,0.850
2026-05-10 20:36:11.638458,INSPECTING,16.384,1.036,56.34,17.79,41.06,0.669,0.841,0.634,2.860,0.683,0.350,0.550,0.552,0.850
2026-05-10 20:36:11.906665,INSPECTING,16.390,1.037,56.39,18.47,47.12,0.669,0.841,0.634,2.860,0.683,0.350,0.550,0.552,0.850
2026-05-10 20:36:11.997145,INSPECTING,16.396,1.044,56.69,23.50,44.58,0.669,0.841,0.634,2.860,0.683,-0.150,0.450,0.600,0.800
2026-05-10 20:36:12.260088,INSPECTING,16.383,1.044,56.90,23.83,51.10,0.669,0.841,0.634,2.860,0.683,0.350,0.550,0.552,0.850
2026-05-10 20:36:12.510109,INSPECTING,16.398,1.052,57.16,30.34,51.91,0.669,0.841,0.634,2.860,0.683,0.350,0.550,0.552,0.850
2026-05-10 20:36:12.772396,INSPECTING,16.399,1.055,57.43,33.34,57.87,0.669,0.841,0.634,2.860,0.683,0.350,0.550,0.552,0.850
2026-05-10 20:36:12.936622,INSPECTING,16.406,1.065,58.53,39.86,59.64,0.669,0.841,0.634,2.860,0.683,0.350,0.550,0.552,0.850
2026-05-10 20:36:13.176381,INSPECTING,16.408,1.070,59.80,45.53,66.50,0.669,0.841,0.634,2.860,0.683,0.350,0.550,0.552,0.850
2026-05-10 20:36:13.304067,INSPECTING,16.412,1.076,62.10,50.65,68.81,0.669,0.841,0.634,2.860,0.683,-0.150,0.450,0.600,0.800
2026-05-10 20:36:13.604318,INSPECTING,16.411,1.085,66.30,54.83,81.03,0.669,0.841,0.634,2.860,0.683,0.350,0.550,0.552,0.850
2026-05-10 20:36:13.785227,INSPECTING,16.409,1.088,74.19,59.93,95.34,0.669,0.841,0.634,2.860,0.683,-0.150,0.450,0.600,0.800
2026-05-10 20:36:13.940153,INSPECTING,16.406,1.089,76.71,60.61,103.47,0.669,0.841,0.634,2.860,0.683,-0.150,0.450,0.600,0.800
2026-05-10 20:36:14.137580,INSPECTING,16.404,1.087,72.68,60.62,104.40,0.669,0.841,0.634,2.860,0.683,-0.150,0.450,0.600,0.800
2026-05-10 20:36:14.336632,INSPECTING,16.400,1.085,68.52,60.72,105.79,0.669,0.841,0.634,2.860,0.683,-0.150,0.450,0.600,0.800
2026-05-10 20:36:14.539782,INSPECTING,16.394,1.081,64.22,61.10,108.01,0.669,0.841,0.634,2.860,0.683,-0.150,0.450,0.600,0.800
2026-05-10 20:36:14.775537,INSPECTING,16.387,1.077,59.81,62.11,111.75,0.316,0.361,0.310,0.361,0.338,-0.150,0.450,0.600,0.800
2026-05-10 20:36:14.976613,INSPECTING,16.379,1.070,54.02,63.67,117.25,0.316,0.361,0.310,0.361,0.338,-0.150,0.450,0.600,0.800
2026-05-10 20:36:15.200253,INSPECTING,16.376,1.064,49.24,65.02,122.14,0.316,0.361,0.310,0.361,0.338,-0.150,0.450,0.600,0.800
2026-05-10 20:36:15.379410,INSPECTING,16.376,1.060,45.63,66.08,126.07,0.316,0.361,0.310,0.361,0.338,-0.150,0.450,0.600,0.800
2026-05-10 20:36:15.574429,INSPECTING,16.380,1.055,40.79,67.63,131.73,0.316,0.361,0.310,0.361,0.338,-0.150,0.450,0.600,0.800
2026-05-10 20:36:15.809045,INSPECTING,16.390,1.049,34.84,69.76,139.48,0.316,0.361,0.310,0.361,0.338,-0.150,0.450,0.600,0.800
2026-05-10 20:36:16.008750,INSPECTING,16.391,1.042,29.94,72.31,142.65,0.336,0.313,0.290,0.313,0.287,-0.150,0.450,0.600,0.800
2026-05-10 20:36:16.220034,INSPECTING,16.394,1.037,25.78,74.35,144.80,0.313,0.295,0.280,0.295,0.275,-0.150,0.450,0.600,0.800
2026-05-10 20:36:16.433122,INSPECTING,16.403,1.028,17.23,77.96,147.77,0.313,0.295,0.280,0.295,0.275,-0.150,0.450,0.600,0.800
2026-05-10 20:36:16.631683,INSPECTING,16.412,1.024,11.09,80.14,149.16,0.267,0.261,0.255,0.261,0.247,-0.150,0.450,0.600,0.800
2026-05-10 20:36:16.851482,INSPECTING,16.427,1.018,1.25,83.04,150.05,0.267,0.261,0.255,0.261,0.247,-0.150,0.450,0.600,0.800
2026-05-10 20:36:17.067994,INSPECTING,16.446,1.014,-10.13,85.76,150.06,0.227,0.227,0.227,0.227,0.227,-0.150,-0.450,-0.600,-0.800
2026-05-10 20:36:17.317535,INSPECTING,16.454,1.012,-121.38,89.85,41.10,0.227,0.227,0.227,0.227,0.227,0.000,0.000,0.000,0.000
2026-05-10 20:36:17.533159,INSPECTING,16.441,1.012,-121.40,89.85,36.03,0.227,0.227,0.227,0.227,0.227,0.000,0.000,0.000,0.000
2026-05-10 20:36:17.721855,INSPECTING,16.441,1.012,-121.40,89.85,36.03,0.227,0.227,0.227,0.227,0.227,0.000,0.000,0.000,0.000
2026-05-10 20:36:17.908058,INSPECTING,16.441,1.012,-121.40,89.85,36.03,0.227,0.227,0.227,0.227,0.227,0.000,0.000,0.000,0.000
2026-05-10 20:36:18.121537,INSPECTING,16.441,1.012,-121.40,89.85,36.03,0.227,0.227,0.227,0.227,0.227,0.000,0.000,0.000,0.000
2026-05-10 20:36:18.373947,INSPECTING,16.441,1.012,-121.40,89.85,36.03,0.227,0.227,0.227,0.227,0.227,0.000,0.000,0.000,0.000
2026-05-10 20:36:18.787559,INSPECTING,16.441,1.012,-121.40,89.85,36.03,0.227,0.227,0.227,0.227,0.227,0.000,0.000,0.000,0.000
2026-05-10 20:36:18.931171,INSPECTING,16.441,1.012,-121.40,89.85,36.03,0.227,0.227,0.227,0.227,0.227,0.000,0.000,0.000,0.000
2026-05-10 20:36:19.202984,INSPECTING,16.441,1.012,-121.40,89.85,36.03,0.227,0.227,0.227,0.227,0.227,0.000,0.000,0.000,0.000
2026-05-10 20:36:19.354660,INSPECTING,16.441,1.012,-121.40,89.85,36.03,0.227,0.227,0.227,0.227,0.227,0.000,0.000,0.000,0.000
2026-05-10 20:36:19.648087,TURNING,16.441,1.012,-121.40,89.85,36.03,0.227,0.227,0.227,0.227,0.227,0.000,0.000,0.000,0.800
2026-05-10 20:36:19.830170,TURNING,16.441,1.012,-121.40,89.85,36.03,0.227,0.227,0.227,0.227,0.227,0.000,0.000,0.000,0.800
2026-05-10 20:36:20.028403,TURNING,16.441,1.012,-121.43,89.85,42.43,0.227,0.227,0.227,0.227,0.227,0.000,0.000,0.000,0.800
2026-05-10 20:36:20.206931,TURNING,16.441,1.012,-121.49,89.85,60.69,0.227,0.227,0.227,0.227,0.227,0.000,0.000,0.000,0.800
2026-05-10 20:36:20.444689,TURNING,16.441,1.012,-121.53,89.85,69.83,0.227,0.227,0.227,0.227,0.227,0.000,0.000,0.000,0.800
2026-05-10 20:36:20.615550,TURNING,16.441,1.012,-121.55,89.85,76.68,0.227,0.227,0.227,0.227,0.227,0.000,0.000,0.000,0.800
2026-05-10 20:36:20.830514,TURNING,16.441,1.012,-121.59,89.85,85.81,0.227,0.227,0.227,0.227,0.227,0.000,0.000,0.000,0.800
2026-05-10 20:36:21.048292,TURNING,16.441,1.012,-121.62,89.85,94.94,0.227,0.227,0.227,0.227,0.227,0.000,0.000,0.000,0.800
2026-05-10 20:36:21.253590,TURNING,16.441,1.012,-121.66,89.85,104.07,0.227,0.227,0.227,0.227,0.227,0.000,0.000,0.000,0.800
2026-05-10 20:36:21.468751,TURNING,16.441,1.012,-121.69,89.85,113.21,0.227,0.227,0.227,0.227,0.227,0.000,0.000,0.000,0.800
2026-05-10 20:36:21.673509,INSPECTING,16.440,1.012,-138.10,89.80,107.57,0.227,0.227,0.227,0.227,0.227,-0.150,-0.450,-0.600,-0.800
2026-05-10 20:36:21.887120,INSPECTING,16.440,1.012,-155.38,89.63,88.28,0.227,0.227,0.227,0.227,0.227,0.000,0.000,0.000,0.000
2026-05-10 20:36:22.081718,INSPECTING,16.440,1.012,-155.38,89.63,88.28,0.227,0.227,0.227,0.227,0.227,0.000,0.000,0.000,0.000
2026-05-10 20:36:22.318219,INSPECTING,16.440,1.012,-155.38,89.63,88.28,0.227,0.227,0.227,0.227,0.227,0.000,0.000,0.000,0.000
2026-05-10 20:36:22.542548,INSPECTING,16.440,1.012,-155.38,89.63,88.28,0.227,0.370,0.227,0.370,0.227,0.000,0.000,0.000,0.000
2026-05-10 20:36:22.855063,INSPECTING,16.440,1.012,-155.38,89.63,88.28,0.227,0.370,0.227,0.370,0.227,0.000,0.000,0.000,0.000
2026-05-10 20:36:23.137534,INSPECTING,16.440,1.012,-155.38,89.63,88.28,0.227,0.370,0.227,0.370,0.227,0.000,0.000,0.000,0.000
2026-05-10 20:36:23.256516,INSPECTING,16.440,1.012,-155.38,89.63,88.28,0.227,0.370,0.227,0.370,0.227,0.000,0.000,0.000,0.000
2026-05-10 20:36:23.633232,INSPECTING,16.440,1.012,-155.38,89.63,88.28,0.227,0.370,0.227,0.370,0.227,0.000,0.000,0.000,0.000
2026-05-10 20:36:23.951441,TURNING,16.440,1.012,-155.38,89.63,88.28,0.227,0.370,0.227,0.370,0.227,0.000,0.000,0.000,0.000
2026-05-10 20:36:24.082207,TURNING,16.440,1.012,-155.38,89.63,88.28,0.227,0.370,0.227,0.370,0.227,0.000,0.000,0.000,-0.800
2026-05-10 20:36:24.292009,TURNING,16.440,1.012,-155.41,89.63,79.54,0.227,10.000,0.227,10.000,0.240,0.000,0.000,0.000,-0.800
2026-05-10 20:36:24.506931,TURNING,16.440,1.012,-155.43,89.63,70.34,0.227,0.227,0.227,0.227,7.890,0.000,0.000,0.000,-0.800
2026-05-10 20:36:24.690825,TURNING,16.440,1.012,-155.46,89.63,61.15,0.227,0.227,0.227,0.227,7.890,0.000,0.000,0.000,-0.800
2026-05-10 20:36:24.921104,TURNING,16.440,1.012,-155.49,89.63,51.95,0.227,0.227,0.227,0.227,0.227,0.000,0.000,0.000,-0.800
2026-05-10 20:36:25.121575,TURNING,16.440,1.012,-155.52,89.63,42.76,0.227,0.227,0.227,0.227,0.227,0.000,0.000,0.000,-0.800
2026-05-10 20:36:25.325443,TURNING,16.440,1.012,-155.55,89.63,33.56,0.227,0.227,0.227,0.227,0.227,0.000,0.000,0.000,-0.800
2026-05-10 20:36:25.498094,TURNING,16.440,1.012,-155.58,89.63,24.36,0.227,0.227,0.227,0.227,0.227,0.000,0.000,0.000,-0.800
2026-05-10 20:36:25.720506,TURNING,16.440,1.012,-155.61,89.62,15.17,0.227,0.227,0.227,0.227,0.227,0.000,0.000,0.000,-0.800
2026-05-10 20:36:25.932164,TURNING,16.440,1.012,-155.64,89.62,3.67,0.227,0.227,0.227,0.227,0.227,0.000,0.000,0.000,-0.800
2026-05-10 20:36:26.146538,TURNING,16.440,1.012,-155.66,89.62,-3.22,0.227,0.227,0.227,0.227,0.227,0.000,0.000,0.000,-0.800
2026-05-10 20:36:26.348192,TURNING,16.440,1.012,-155.70,89.62,-14.72,0.227,0.227,0.227,0.227,0.227,0.000,0.000,0.000,-0.800
2026-05-10 20:36:26.603525,TURNING,16.439,1.012,-102.93,89.82,29.39,0.227,0.227,0.227,0.227,0.227,0.000,0.000,0.000,-0.800
2026-05-10 20:36:26.769798,INSPECTING,16.441,1.013,-22.75,89.48,101.68,0.227,0.227,0.227,0.227,0.227,0.000,0.000,0.000,0.000
2026-05-10 20:36:26.981998,INSPECTING,16.442,1.013,-22.74,89.48,99.85,0.227,0.227,0.227,0.227,0.227,0.000,0.000,0.000,0.000
2026-05-10 20:36:27.170728,INSPECTING,16.442,1.013,-22.74,89.48,99.85,0.227,0.227,0.227,0.227,0.227,0.000,0.000,0.000,0.000
2026-05-10 20:36:27.424218,INSPECTING,16.442,1.013,-22.74,89.48,99.85,0.245,0.227,0.242,0.227,0.227,0.000,0.000,0.000,0.000
2026-05-10 20:36:27.616762,INSPECTING,16.442,1.013,-22.74,89.48,99.85,0.245,0.227,0.242,0.227,0.227,0.000,0.000,0.000,0.000
2026-05-10 20:36:27.825145,INSPECTING,16.442,1.013,-22.74,89.48,99.85,0.245,0.227,0.242,0.227,0.227,0.000,0.000,0.000,0.000
2026-05-10 20:36:28.178900,INSPECTING,16.442,1.013,-22.74,89.48,99.85,0.245,0.227,0.242,0.227,0.227,0.000,0.000,0.000,0.000
2026-05-10 20:36:28.554800,INSPECTING,16.442,1.013,-22.74,89.48,99.85,0.245,0.227,0.242,0.227,0.227,0.000,0.000,0.000,0.000
2026-05-10 20:36:28.707470,INSPECTING,16.442,1.013,-22.74,89.48,99.85,0.245,0.227,0.242,0.227,0.227,0.000,0.000,0.000,0.000
2026-05-10 20:36:29.117891,TURNING,16.442,1.013,-22.74,89.48,99.85,0.245,0.227,0.242,0.227,0.227,0.000,0.000,0.000,0.000
2026-05-10 20:36:29.244678,TURNING,16.442,1.013,-22.74,89.48,99.85,0.245,0.227,0.242,0.227,0.227,0.000,0.000,0.000,-0.800
2026-05-10 20:36:29.382754,TURNING,16.442,1.013,-22.74,89.48,99.85,0.245,0.227,0.242,0.227,0.227,0.000,0.000,0.000,-0.800
2026-05-10 20:36:29.613266,TURNING,16.442,1.013,-22.70,89.48,87.51,0.245,0.227,0.241,0.227,0.227,0.000,0.000,0.000,-0.800
2026-05-10 20:36:29.803390,TURNING,16.442,1.013,-22.68,89.48,78.37,0.227,0.227,0.227,0.227,0.244,0.000,0.000,0.000,-0.800
2026-05-10 20:36:29.994773,TURNING,16.442,1.013,-22.64,89.48,66.95,0.227,10.000,0.227,10.000,0.243,0.000,0.000,0.000,-0.800
2026-05-10 20:36:30.208983,INSPECTING,16.440,1.013,-15.64,89.42,67.25,0.227,10.000,0.227,10.000,0.243,-0.150,0.450,-0.600,-0.800
2026-05-10 20:36:30.436754,INSPECTING,16.442,1.013,-126.44,89.90,-51.39,0.227,0.227,0.354,0.227,0.227,0.000,0.000,0.000,0.000
2026-05-10 20:36:30.644871,INSPECTING,16.439,1.014,55.11,89.62,129.36,0.227,0.227,0.354,0.227,0.227,0.000,0.000,0.000,0.000
2026-05-10 20:36:30.870377,INSPECTING,16.439,1.014,55.11,89.62,129.36,0.227,0.227,0.355,0.227,0.227,0.000,0.000,0.000,0.000
2026-05-10 20:36:31.030535,INSPECTING,16.439,1.014,55.11,89.62,129.36,0.227,0.227,0.355,0.227,0.227,0.000,0.000,0.000,0.000
2026-05-10 20:36:31.203847,INSPECTING,16.439,1.014,55.11,89.62,129.36,0.227,0.227,0.355,0.227,0.227,0.000,0.000,0.000,0.000
2026-05-10 20:36:31.427409,INSPECTING,16.439,1.014,55.11,89.62,129.36,0.227,0.227,0.355,0.227,0.227,0.000,0.000,0.000,0.000
2026-05-10 20:36:31.727290,INSPECTING,16.439,1.014,55.11,89.62,129.36,0.227,0.227,0.355,0.227,0.227,0.000,0.000,0.000,0.000
2026-05-10 20:36:32.020841,INSPECTING,16.439,1.014,55.11,89.62,129.36,0.227,0.227,0.355,0.227,0.227,0.000,0.000,0.000,0.000
2026-05-10 20:36:32.340799,INSPECTING,16.439,1.014,55.11,89.62,129.36,0.227,0.227,0.355,0.227,0.227,0.000,0.000,0.000,0.000
2026-05-10 20:36:32.541062,INSPECTING,16.439,1.014,55.11,89.62,129.36,0.227,0.227,0.355,0.227,0.227,0.000,0.000,0.000,0.000
2026-05-10 20:36:32.865863,TURNING,16.439,1.014,55.11,89.62,129.36,0.227,0.227,0.355,0.227,0.227,0.000,0.000,0.000,-0.800
2026-05-10 20:36:33.040814,TURNING,16.439,1.014,55.11,89.62,129.36,0.227,0.227,0.353,0.227,0.227,0.000,0.000,0.000,-0.800
2026-05-10 20:36:33.238107,TURNING,16.439,1.014,55.09,89.62,122.92,10.000,0.227,0.351,0.227,0.227,0.000,0.000,0.000,-0.800
2026-05-10 20:36:33.433651,TURNING,16.439,1.014,55.02,89.62,106.82,10.000,0.227,0.351,0.227,0.227,0.000,0.000,0.000,-0.800
2026-05-10 20:36:33.615124,TURNING,16.439,1.014,54.99,89.62,97.61,0.227,0.465,0.227,0.465,0.227,0.000,0.000,0.000,-0.800
2026-05-10 20:36:33.813573,TURNING,16.439,1.014,54.95,89.62,88.41,0.227,0.465,0.227,0.465,0.227,0.000,0.000,0.000,-0.800
2026-05-10 20:36:34.916464,TURNING,16.439,1.014,54.91,89.62,79.21,0.227,0.465,0.227,0.465,0.227,0.000,0.000,0.000,-0.800
2026-05-10 20:36:36.590968,TURNING,16.439,1.014,54.87,89.62,67.70,0.227,0.465,0.227,0.465,0.227,0.000,0.000,0.000,-0.800
2026-05-10 20:36:36.683332,TURNING,16.439,1.014,54.83,89.62,58.50,0.227,0.465,0.227,0.465,0.227,0.000,0.000,0.000,-0.800
2026-05-10 20:36:36.807776,TURNING,16.439,1.014,54.79,89.62,46.99,0.227,0.465,0.227,0.465,0.227,0.000,0.000,0.000,-0.800
2026-05-10 20:36:37.023513,TURNING,16.439,1.014,54.70,89.62,23.98,0.227,0.227,0.227,0.227,0.227,0.000,0.000,0.000,-0.800
2026-05-10 20:36:37.274327,TURNING,16.439,1.014,54.66,89.62,14.78,0.227,0.227,0.227,0.227,0.227,0.000,0.000,0.000,-0.800
2026-05-10 20:36:37.436186,TURNING,16.439,1.014,54.63,89.62,5.58,0.227,0.227,0.227,0.227,0.227,0.000,0.000,0.000,-0.800
2026-05-10 20:36:37.672246,TURNING,16.439,1.014,54.59,89.62,-3.63,0.227,0.227,0.227,0.227,0.227,0.000,0.000,0.000,-0.800
2026-05-10 20:36:37.882936,TURNING,16.439,1.014,54.55,89.62,-12.80,0.227,0.227,0.227,0.227,0.227,0.000,0.000,0.000,-0.660
2026-05-10 20:36:38.079474,TURNING,16.439,1.014,54.53,89.62,-20.67,0.234,0.276,0.227,0.276,0.227,0.000,0.000,0.000,-0.523
2026-05-10 20:36:38.274438,TURNING,16.439,1.014,54.51,89.62,-26.92,0.227,0.227,0.227,0.227,0.227,0.000,0.000,0.000,-0.414
2026-05-10 20:36:38.497091,TURNING,16.439,1.014,54.50,89.62,-31.98,0.227,0.227,0.227,0.227,0.227,0.000,0.000,0.000,-0.326
2026-05-10 20:36:38.695455,TURNING,16.439,1.014,54.49,89.62,-36.00,0.227,0.227,0.280,0.227,0.227,0.000,0.000,0.000,-0.300
2026-05-10 20:36:38.916946,TURNING,16.439,1.014,54.48,89.62,-40.30,0.227,0.227,0.280,0.227,0.227,0.000,0.000,0.000,-0.300
2026-05-10 20:36:39.114682,TURNING,16.439,1.014,54.48,89.62,-42.88,0.280,0.227,0.279,0.227,0.227,0.000,0.000,0.000,-0.300
2026-05-10 20:36:39.349056,RETURNING,16.439,1.014,54.48,89.62,-46.33,0.280,0.227,0.279,0.227,0.227,0.000,0.000,0.000,0.000
2026-05-10 20:36:39.539090,RETURNING,16.440,1.014,54.47,89.62,-48.55,0.237,0.227,0.283,0.227,0.227,0.076,0.000,0.000,-0.542
2026-05-10 20:36:39.746286,INSPECTING,16.439,1.014,145.76,89.96,42.33,0.237,0.227,0.227,0.227,0.227,0.000,0.000,0.000,0.000
2026-05-10 20:36:39.991280,INSPECTING,16.435,1.014,145.77,89.96,44.17,0.237,0.227,0.227,0.227,0.227,0.000,0.000,0.000,0.000
2026-05-10 20:36:40.169901,INSPECTING,16.435,1.014,145.77,89.96,44.17,0.237,0.227,0.227,0.227,0.227,0.000,0.000,0.000,0.000
2026-05-10 20:36:40.398140,INSPECTING,16.435,1.014,145.77,89.96,44.17,0.237,0.227,0.227,0.227,0.227,0.000,0.000,0.000,0.000
2026-05-10 20:36:40.613145,INSPECTING,16.435,1.014,145.77,89.96,44.17,0.237,0.227,0.227,0.227,0.227,0.000,0.000,0.000,0.000
2026-05-10 20:36:40.859164,INSPECTING,16.435,1.014,145.77,89.96,44.17,0.237,0.227,0.227,0.227,0.227,0.000,0.000,0.000,0.000
2026-05-10 20:36:41.316069,INSPECTING,16.435,1.014,145.77,89.96,44.17,0.237,0.227,0.227,0.227,0.227,0.000,0.000,0.000,0.000
2026-05-10 20:36:41.512101,INSPECTING,16.435,1.014,145.77,89.96,44.17,0.237,0.227,0.227,0.227,0.227,0.000,0.000,0.000,0.000
2026-05-10 20:36:41.712216,INSPECTING,16.435,1.014,145.77,89.96,44.17,0.237,0.227,0.227,0.227,0.227,0.000,0.000,0.000,0.000
2026-05-10 20:36:42.108874,TURNING,16.435,1.014,145.77,89.96,44.17,0.237,0.227,0.227,0.227,0.227,0.000,0.000,0.000,0.000
2026-05-10 20:36:42.200342,TURNING,16.435,1.014,145.77,89.96,44.17,0.237,0.227,0.227,0.227,0.227,0.000,0.000,0.000,-0.800
2026-05-10 20:36:42.364996,TURNING,16.435,1.014,145.78,89.96,39.15,0.237,0.227,0.227,0.227,0.227,0.000,0.000,0.000,-0.800
2026-05-10 20:36:42.599664,TURNING,16.435,1.014,145.82,89.96,30.01,0.237,0.227,0.227,0.227,0.227,0.000,0.000,0.000,-0.800
2026-05-10 20:36:42.820773,TURNING,16.435,1.014,145.86,89.96,20.88,0.227,0.322,0.227,0.322,0.227,0.000,0.000,0.000,-0.800
2026-05-10 20:36:43.022750,TURNING,16.435,1.014,145.90,89.96,9.47,0.227,0.322,0.227,0.322,0.227,0.000,0.000,0.000,-0.800
2026-05-10 20:36:43.209711,TURNING,16.435,1.014,145.93,89.96,2.62,0.521,0.227,0.227,0.227,0.227,0.000,0.000,0.000,-0.800
2026-05-10 20:36:43.446060,TURNING,16.435,1.014,145.96,89.96,-6.51,0.227,0.227,0.227,0.227,0.227,0.000,0.000,0.000,-0.800
2026-05-10 20:36:43.627289,TURNING,16.435,1.014,146.00,89.96,-15.64,0.227,0.227,0.227,0.227,0.227,0.000,0.000,0.000,-0.800
2026-05-10 20:36:43.895540,TURNING,16.435,1.014,146.04,89.96,-24.77,0.227,0.227,0.227,0.227,0.227,0.000,0.000,0.000,-0.800
2026-05-10 20:36:44.081389,TURNING,16.435,1.014,146.07,89.96,-33.90,0.227,0.227,0.227,0.227,0.227,0.000,0.000,0.000,-0.800
2026-05-10 20:36:44.293009,TURNING,16.435,1.014,146.11,89.96,-43.04,0.227,0.227,0.227,0.227,0.227,0.000,0.000,0.000,-0.800
2026-05-10 20:36:44.526345,TURNING,16.435,1.014,146.14,89.96,-52.17,0.227,0.227,0.227,0.227,0.227,0.000,0.000,0.000,-0.800
2026-05-10 20:36:44.725159,TURNING,16.435,1.014,146.18,89.96,-61.30,0.227,0.227,0.227,0.227,0.227,0.000,0.000,0.000,-0.800
2026-05-10 20:36:44.971820,TURNING,16.435,1.014,146.22,89.96,-70.43,0.227,0.227,0.227,0.227,0.227,0.000,0.000,0.000,-0.800
2026-05-10 20:36:45.144554,TURNING,16.435,1.014,146.25,89.96,-79.56,0.227,0.227,0.227,0.227,0.227,0.000,0.000,0.000,-0.800
2026-05-10 20:36:45.368780,TURNING,16.435,1.014,146.29,89.96,-88.69,0.227,0.227,0.227,0.227,0.227,0.000,0.000,0.000,-0.800
2026-05-10 20:36:45.566696,TURNING,16.435,1.014,146.32,89.96,-97.82,0.242,0.227,0.284,0.227,0.227,0.000,0.000,0.000,-0.663
2026-05-10 20:36:45.763592,TURNING,16.435,1.014,146.35,89.96,-105.62,0.239,0.227,0.239,0.227,0.227,0.000,0.000,0.000,-0.527
2026-05-10 20:36:45.983630,TURNING,16.435,1.014,146.37,89.96,-111.98,0.227,0.227,0.227,0.227,0.239,0.000,0.000,0.000,-0.416
2026-05-10 20:36:46.198030,TURNING,16.435,1.014,146.38,89.96,-118.07,0.227,0.227,0.227,0.227,0.239,0.000,0.000,0.000,-0.310
2026-05-10 20:36:46.389705,TURNING,16.435,1.014,146.39,89.96,-120.86,0.227,0.236,0.227,0.236,0.242,0.000,0.000,0.000,-0.300
2026-05-10 20:36:46.638958,TURNING,16.435,1.014,146.39,89.96,-124.29,0.227,0.235,0.227,0.235,0.241,0.000,0.000,0.000,-0.300
2026-05-10 20:36:46.834910,TURNING,16.435,1.014,146.40,89.96,-127.73,0.227,0.235,0.227,0.235,0.241,0.000,0.000,0.000,-0.300
2026-05-10 20:36:47.079643,RETURNING,16.435,1.014,146.40,89.96,-131.16,0.227,0.227,0.227,0.227,0.227,0.076,0.000,0.000,0.000
2026-05-10 20:36:47.243808,RETURNING,16.431,1.014,146.40,89.96,-132.70,0.227,0.227,0.227,0.227,0.227,0.076,0.000,0.000,0.000
2026-05-10 20:36:47.470398,RETURNING,16.421,1.014,146.40,89.96,-132.70,0.227,0.227,0.227,0.227,0.227,0.076,0.000,0.000,0.000
