timestamp,state,x,z,roll_deg,pitch_deg,yaw_deg,left,center,right,top,bottom,cmd_vx,cmd_vz,cmd_roll,cmd_yaw
2026-05-10 20:32:44.918349,SEARCHING,0.000,1.000,0.00,0.00,0.00,10.000,10.000,10.000,10.000,10.000,0.700,0.000,0.000,0.000
2026-05-10 20:32:45.120378,SEARCHING,0.105,1.000,0.00,0.00,0.00,10.000,10.000,10.000,10.000,10.000,0.700,0.000,0.000,0.000
2026-05-10 20:32:45.321588,SEARCHING,0.245,1.000,0.00,0.00,0.00,10.000,10.000,10.000,10.000,10.000,0.700,0.000,0.000,0.000
2026-05-10 20:32:45.539658,SEARCHING,0.420,1.000,0.00,0.00,0.00,10.000,10.000,10.000,10.000,10.000,0.700,0.000,0.000,0.000
2026-05-10 20:32:45.800019,INSPECTING,0.525,1.000,0.00,0.00,0.00,0.748,0.811,5.448,0.789,0.800,0.350,-0.550,-0.552,-0.850
2026-05-10 20:32:45.997763,INSPECTING,0.584,1.000,0.00,0.00,-7.31,0.587,0.683,5.321,0.681,0.691,0.350,-0.550,-0.552,-0.850
2026-05-10 20:32:46.223670,INSPECTING,0.653,1.000,0.00,0.00,-17.05,0.535,0.726,6.356,0.731,0.729,0.350,0.550,-0.552,-0.850
2026-05-10 20:32:46.424878,INSPECTING,0.718,1.000,0.00,0.00,-26.79,0.535,0.726,6.356,0.731,0.729,0.350,0.550,-0.552,-0.850
2026-05-10 20:32:46.644814,INSPECTING,0.778,1.000,0.00,0.00,-36.53,0.535,0.726,6.356,0.731,0.729,0.350,0.550,-0.552,-0.850
2026-05-10 20:32:46.865992,INSPECTING,0.831,1.000,0.00,0.00,-46.27,0.535,0.726,6.356,0.731,0.729,0.350,0.550,-0.552,-0.850
2026-05-10 20:32:47.131969,INSPECTING,0.875,1.000,0.00,0.00,-56.01,0.535,0.726,6.356,0.731,0.729,0.350,0.550,-0.552,-0.850
2026-05-10 20:32:47.431538,INSPECTING,0.916,1.000,0.00,0.00,-68.18,1.557,1.271,1.079,1.271,1.271,0.350,0.550,0.552,0.850
2026-05-10 20:32:47.580583,INSPECTING,0.938,1.000,0.00,0.00,-74.03,1.557,1.271,1.079,1.271,1.271,0.350,0.550,0.552,0.850
2026-05-10 20:32:48.580240,INSPECTING,0.962,1.000,0.00,0.00,-64.29,1.557,1.271,1.079,1.271,1.271,0.350,0.550,0.552,0.850
2026-05-10 20:32:48.665292,INSPECTING,0.970,1.000,0.00,0.00,-61.85,1.557,1.271,1.079,1.271,1.271,0.350,0.550,0.552,0.850
2026-05-10 20:32:50.271434,INSPECTING,1.054,1.000,0.00,0.00,-42.37,1.557,1.271,1.079,1.271,1.271,0.350,0.550,0.552,0.850
2026-05-10 20:32:50.503938,INSPECTING,1.109,1.000,0.00,0.00,-32.63,5.581,1.264,0.934,1.257,1.257,0.350,0.550,0.552,0.850
2026-05-10 20:32:50.691838,SEARCHING,1.187,1.000,0.00,0.00,-20.45,4.576,1.412,0.991,1.439,1.457,0.494,-0.005,0.356,0.712
2026-05-10 20:32:50.903420,SEARCHING,1.258,1.000,0.00,0.00,-14.34,4.576,1.412,0.991,1.439,1.457,0.494,-0.005,0.356,0.712
2026-05-10 20:32:51.116960,SEARCHING,1.361,1.000,0.00,0.00,-7.24,2.972,4.670,2.266,4.670,2.487,0.700,0.113,0.047,0.094
2026-05-10 20:32:51.337902,SEARCHING,1.500,1.000,0.00,0.00,-6.16,2.972,4.670,2.266,4.670,2.487,0.700,0.113,0.047,0.094
2026-05-10 20:32:51.540010,SEARCHING,1.639,1.000,0.00,0.00,-5.08,2.972,4.670,2.266,4.670,2.487,0.700,0.113,0.047,0.094
2026-05-10 20:32:51.747657,SEARCHING,1.779,1.000,0.00,0.00,-3.99,2.972,4.670,2.266,4.670,2.487,0.700,0.113,0.047,0.094
2026-05-10 20:32:51.976723,SEARCHING,1.919,1.000,0.00,0.00,-2.91,2.972,4.670,2.266,4.670,2.487,0.700,0.113,0.047,0.094
2026-05-10 20:32:52.172532,SEARCHING,2.059,1.000,0.00,0.00,-1.83,2.972,4.670,2.266,4.670,2.487,0.700,0.113,0.047,0.094
2026-05-10 20:32:52.387418,SEARCHING,2.199,1.000,0.00,0.00,-0.75,2.080,3.092,4.868,3.051,2.434,0.700,0.050,-0.124,-0.248
2026-05-10 20:32:52.604511,SEARCHING,2.373,1.000,0.00,0.00,-2.93,2.080,3.092,4.868,3.051,2.434,0.700,0.050,-0.124,-0.248
2026-05-10 20:32:52.789825,SEARCHING,2.478,1.000,0.00,0.00,-5.06,2.080,3.092,4.868,3.051,2.434,0.700,0.050,-0.124,-0.248
2026-05-10 20:32:53.023579,SEARCHING,2.617,1.000,0.00,0.00,-7.94,1.990,2.825,5.085,2.825,2.434,0.700,0.034,-0.138,-0.275
2026-05-10 20:32:53.235907,SEARCHING,2.755,1.000,0.00,0.00,-11.10,1.990,2.825,5.085,2.825,2.434,0.700,0.034,-0.138,-0.275
2026-05-10 20:32:53.473710,SEARCHING,2.892,1.000,0.00,0.00,-14.25,1.990,2.825,5.085,2.825,2.434,0.700,0.034,-0.138,-0.275
2026-05-10 20:32:53.682703,SEARCHING,3.027,1.000,0.00,0.00,-17.41,1.990,2.825,5.085,2.825,2.434,0.700,0.034,-0.138,-0.275
2026-05-10 20:32:53.888510,SEARCHING,3.159,1.000,0.00,0.00,-20.56,1.990,2.825,5.085,2.825,2.434,0.700,0.034,-0.138,-0.275
2026-05-10 20:32:54.103581,SEARCHING,3.321,1.000,0.00,0.00,-24.51,1.990,2.825,5.085,2.825,2.434,0.700,0.034,-0.138,-0.275
2026-05-10 20:32:54.316509,SEARCHING,3.416,1.000,0.00,0.00,-26.87,1.990,2.825,5.085,2.825,2.434,0.700,0.034,-0.138,-0.275
2026-05-10 20:32:54.523484,SEARCHING,3.539,1.000,0.00,0.00,-30.03,1.990,2.825,5.085,2.825,2.434,0.700,0.034,-0.138,-0.275
2026-05-10 20:32:54.751392,SEARCHING,3.659,1.000,0.00,0.00,-32.72,2.514,4.317,2.571,4.237,2.460,0.700,0.102,-0.004,-0.008
2026-05-10 20:32:54.951536,SEARCHING,3.776,1.000,0.00,0.00,-32.81,2.514,4.317,2.571,4.237,2.460,0.700,0.102,-0.004,-0.008
2026-05-10 20:32:55.152116,SEARCHING,3.894,1.000,0.00,0.00,-32.71,2.661,3.575,2.266,3.575,2.266,0.700,0.097,0.029,0.059
2026-05-10 20:32:55.361723,SEARCHING,4.012,1.000,0.00,0.00,-32.06,2.692,3.575,2.335,3.520,2.359,0.700,0.084,0.026,0.051
2026-05-10 20:32:55.569799,SEARCHING,4.131,1.000,0.00,0.00,-31.47,4.487,3.520,2.266,3.467,2.460,0.700,0.071,0.098,0.197
2026-05-10 20:32:55.790413,SEARCHING,4.251,1.000,0.00,0.00,-29.64,4.487,3.520,2.266,3.467,2.460,0.700,0.071,0.098,0.197
2026-05-10 20:32:56.007436,SEARCHING,4.374,1.000,0.00,0.00,-27.38,4.487,3.520,2.266,3.467,2.460,0.700,0.071,0.098,0.197
2026-05-10 20:32:56.228214,SEARCHING,4.500,1.000,0.00,0.00,-25.58,2.288,3.632,2.080,3.632,2.487,0.700,0.076,0.020,0.039
2026-05-10 20:32:56.431715,SEARCHING,4.626,1.000,0.00,0.00,-25.13,2.288,3.632,2.080,3.632,2.487,0.700,0.076,0.020,0.039
2026-05-10 20:32:56.631525,SEARCHING,4.753,1.000,0.00,0.00,-24.68,2.288,3.632,2.080,3.632,2.487,0.700,0.076,0.020,0.039
2026-05-10 20:32:56.851424,SEARCHING,4.881,1.000,0.00,0.00,-24.23,2.288,3.632,2.080,3.632,2.487,0.700,0.076,0.020,0.039
2026-05-10 20:32:57.066489,SEARCHING,5.008,1.000,0.00,0.00,-23.78,2.790,3.520,2.159,3.520,2.460,0.700,0.073,0.047,0.094
2026-05-10 20:32:57.279159,SEARCHING,5.137,1.000,0.00,0.00,-22.85,2.790,3.520,2.159,3.520,2.460,0.700,0.073,0.047,0.094
2026-05-10 20:32:57.491619,SEARCHING,5.266,1.000,0.00,0.00,-21.77,2.790,3.520,2.159,3.520,2.460,0.700,0.073,0.047,0.094
2026-05-10 20:32:57.687349,SEARCHING,5.397,1.000,0.00,0.00,-20.69,2.790,3.520,2.159,3.520,2.460,0.700,0.073,0.047,0.094
2026-05-10 20:32:57.915719,SEARCHING,5.528,1.000,0.00,0.00,-19.61,2.790,3.520,2.159,3.520,2.460,0.700,0.073,0.047,0.094
2026-05-10 20:32:58.130856,SEARCHING,5.660,1.000,0.00,0.00,-18.53,2.790,3.520,2.159,3.520,2.460,0.700,0.073,0.047,0.094
2026-05-10 20:32:58.340151,SEARCHING,5.794,1.000,0.00,0.00,-17.44,2.790,3.520,2.159,3.520,2.460,0.700,0.073,0.047,0.094
2026-05-10 20:32:58.575989,SEARCHING,5.927,1.000,0.00,0.00,-16.36,2.790,3.520,2.159,3.520,2.460,0.700,0.073,0.047,0.094
2026-05-10 20:32:58.776711,SEARCHING,6.096,1.000,0.00,0.00,-15.01,2.790,3.520,2.159,3.520,2.460,0.700,0.073,0.047,0.094
2026-05-10 20:32:58.979834,SEARCHING,6.197,1.000,0.00,0.00,-14.20,2.790,3.520,2.159,3.520,2.460,0.700,0.073,0.047,0.094
2026-05-10 20:32:59.191699,SEARCHING,6.334,1.000,0.00,0.00,-13.12,2.790,3.520,2.159,3.520,2.460,0.700,0.073,0.047,0.094
2026-05-10 20:32:59.411283,SEARCHING,6.470,1.000,0.00,0.00,-12.04,2.790,3.520,2.159,3.520,2.460,0.700,0.073,0.047,0.094
2026-05-10 20:32:59.619652,SEARCHING,6.607,1.000,0.00,0.00,-10.95,2.790,3.520,2.159,3.520,2.460,0.700,0.073,0.047,0.094
2026-05-10 20:32:59.851841,SEARCHING,6.779,1.000,0.00,0.00,-9.60,2.179,2.434,2.200,3.814,2.043,0.700,0.136,-0.002,-0.004
2026-05-10 20:33:00.057024,SEARCHING,6.883,1.000,0.00,0.00,-9.52,2.179,2.434,2.200,3.814,2.043,0.700,0.136,-0.002,-0.004
2026-05-10 20:33:00.285213,SEARCHING,7.021,1.000,0.00,0.00,-9.57,2.179,2.434,2.200,3.814,2.043,0.700,0.136,-0.002,-0.004
2026-05-10 20:33:00.487922,SEARCHING,7.159,1.000,0.00,0.00,-9.61,2.179,2.434,2.200,3.814,2.043,0.700,0.136,-0.002,-0.004
2026-05-10 20:33:00.687806,SEARCHING,7.297,1.000,0.00,0.00,-9.66,2.179,2.434,2.200,3.814,2.043,0.700,0.136,-0.002,-0.004
2026-05-10 20:33:00.912592,SEARCHING,7.435,1.000,0.00,0.00,-9.70,2.179,2.434,2.200,3.814,2.043,0.700,0.136,-0.002,-0.004
2026-05-10 20:33:01.112874,SEARCHING,7.573,1.000,0.00,0.00,-9.75,2.179,2.434,2.200,3.814,2.043,0.700,0.136,-0.002,-0.004
2026-05-10 20:33:01.320218,SEARCHING,7.711,1.000,0.00,0.00,-9.79,2.179,2.434,2.200,3.814,2.043,0.700,0.136,-0.002,-0.004
2026-05-10 20:33:01.541463,SEARCHING,7.849,1.000,0.00,0.00,-9.84,2.179,2.434,2.200,3.814,2.043,0.700,0.136,-0.002,-0.004
2026-05-10 20:33:01.747454,SEARCHING,7.987,1.000,0.00,0.00,-9.88,2.179,2.434,2.200,3.814,2.043,0.700,0.136,-0.002,-0.004
2026-05-10 20:33:01.959727,SEARCHING,8.125,1.000,0.00,0.00,-9.93,2.179,2.434,2.200,3.814,2.043,0.700,0.136,-0.002,-0.004
2026-05-10 20:33:02.183606,SEARCHING,8.263,1.000,0.00,0.00,-9.97,2.179,2.434,2.200,3.814,2.043,0.700,0.136,-0.002,-0.004
2026-05-10 20:33:02.392439,SEARCHING,8.401,1.000,0.00,0.00,-10.02,2.179,2.434,2.200,3.814,2.043,0.700,0.136,-0.002,-0.004
2026-05-10 20:33:02.598428,SEARCHING,8.539,1.000,0.00,0.00,-10.06,2.179,2.434,2.200,3.814,2.043,0.700,0.136,-0.002,-0.004
2026-05-10 20:33:02.826815,SEARCHING,8.676,1.000,0.00,0.00,-10.11,2.179,2.434,2.200,3.814,2.043,0.700,0.136,-0.002,-0.004
2026-05-10 20:33:03.026843,SEARCHING,8.814,1.000,0.00,0.00,-9.85,2.288,2.200,1.816,2.159,0.863,0.700,0.417,0.051,0.102
2026-05-10 20:33:03.237052,SEARCHING,8.987,1.000,0.00,0.00,-8.38,2.288,2.200,1.816,2.159,0.863,0.700,0.417,0.051,0.102
2026-05-10 20:33:03.453428,SEARCHING,9.091,1.000,0.00,0.00,-7.51,2.288,2.200,1.816,2.159,0.863,0.700,0.417,0.051,0.102
2026-05-10 20:33:03.669447,SEARCHING,9.230,1.000,0.00,0.00,-6.33,2.288,2.200,1.816,2.159,0.863,0.700,0.417,0.051,0.102
2026-05-10 20:33:03.890189,SEARCHING,9.369,1.000,0.00,0.00,-5.16,2.288,2.200,1.816,2.159,0.863,0.700,0.417,0.051,0.102
2026-05-10 20:33:04.111497,SEARCHING,9.509,1.000,0.00,0.00,-3.57,1.708,2.266,1.162,2.266,0.857,0.700,0.435,0.124,0.248
2026-05-10 20:33:04.322296,SEARCHING,9.649,1.000,0.00,0.00,-0.73,1.708,2.266,1.162,2.266,0.857,0.700,0.435,0.124,0.248
2026-05-10 20:33:04.540454,SEARCHING,9.789,1.000,0.00,0.00,2.11,1.708,2.266,1.162,2.266,0.857,0.700,0.435,0.124,0.248
2026-05-10 20:33:04.768367,SEARCHING,9.963,1.000,0.00,0.00,5.66,1.708,2.266,1.162,2.266,0.857,0.700,0.435,0.124,0.248
2026-05-10 20:33:04.985109,SEARCHING,10.067,1.000,0.00,0.00,7.79,1.708,2.266,1.162,2.266,0.857,0.700,0.435,0.124,0.248
2026-05-10 20:33:05.190668,SEARCHING,10.206,1.000,0.00,0.00,10.62,1.708,2.266,1.162,2.266,0.857,0.700,0.435,0.124,0.248
2026-05-10 20:33:05.407216,SEARCHING,10.343,1.000,0.00,0.00,13.46,1.708,2.266,1.162,2.266,0.857,0.700,0.435,0.124,0.248
2026-05-10 20:33:05.625805,SEARCHING,10.478,1.000,0.00,0.00,16.30,1.708,2.266,1.162,2.266,0.857,0.700,0.435,0.124,0.248
2026-05-10 20:33:05.846744,SEARCHING,10.611,1.000,0.00,0.00,19.14,1.708,2.266,1.162,2.266,0.857,0.700,0.435,0.124,0.248
2026-05-10 20:33:06.060099,SEARCHING,10.743,1.000,0.00,0.00,21.98,1.708,2.266,1.162,2.266,0.857,0.700,0.435,0.124,0.248
2026-05-10 20:33:06.261733,SEARCHING,10.871,1.000,0.00,0.00,24.82,1.708,2.266,1.162,2.266,0.857,0.700,0.435,0.124,0.248
2026-05-10 20:33:06.488893,SEARCHING,10.997,1.000,0.00,0.00,27.66,1.708,2.266,1.162,2.266,0.857,0.700,0.435,0.124,0.248
2026-05-10 20:33:06.678505,SEARCHING,11.120,1.000,0.00,0.00,30.50,1.708,2.266,1.162,2.266,0.857,0.700,0.435,0.124,0.248
2026-05-10 20:33:06.902088,SEARCHING,11.239,1.000,0.00,0.00,33.34,1.708,2.266,1.162,2.266,0.857,0.700,0.435,0.124,0.248
2026-05-10 20:33:07.125707,SEARCHING,11.354,1.000,0.00,0.00,36.18,1.708,2.266,1.162,2.266,0.857,0.700,0.435,0.124,0.248
2026-05-10 20:33:07.321806,SEARCHING,11.465,1.000,0.00,0.00,39.02,1.708,2.266,1.162,2.266,0.857,0.700,0.435,0.124,0.248
2026-05-10 20:33:07.517056,SEARCHING,11.572,1.000,0.00,0.00,41.86,1.708,2.266,1.162,2.266,0.857,0.700,0.435,0.124,0.248
2026-05-10 20:33:07.753703,SEARCHING,11.674,1.000,0.00,0.00,44.70,1.708,2.266,1.162,2.266,0.857,0.700,0.435,0.124,0.248
2026-05-10 20:33:07.975639,SEARCHING,11.771,1.000,0.00,0.00,47.54,1.708,2.266,1.162,2.266,0.857,0.700,0.435,0.124,0.248
2026-05-10 20:33:08.238852,INSPECTING,11.863,1.000,0.00,0.00,50.38,0.227,0.227,0.313,0.227,0.227,0.000,0.000,0.000,0.000
2026-05-10 20:33:08.436600,INSPECTING,11.903,1.000,0.00,0.00,51.66,0.227,0.227,0.313,0.227,0.227,0.000,0.000,0.000,0.000
2026-05-10 20:33:08.649731,INSPECTING,11.903,1.000,0.00,0.00,51.66,0.227,0.227,0.313,0.227,0.227,0.000,0.000,0.000,0.000
2026-05-10 20:33:08.866999,INSPECTING,11.903,1.000,0.00,0.00,51.66,0.227,0.227,0.313,0.227,0.227,0.000,0.000,0.000,0.000
2026-05-10 20:33:09.082726,INSPECTING,11.903,1.000,0.00,0.00,51.66,0.227,0.227,0.313,0.227,0.227,0.000,0.000,0.000,0.000
2026-05-10 20:33:09.308222,INSPECTING,11.903,1.000,0.00,0.00,51.66,0.227,0.227,0.313,0.227,0.227,0.000,0.000,0.000,0.000
2026-05-10 20:33:09.622064,INSPECTING,11.903,1.000,0.00,0.00,51.66,10.000,0.227,0.232,0.227,0.227,0.000,0.000,0.000,0.000
2026-05-10 20:33:09.781596,INSPECTING,11.903,1.000,0.00,0.00,51.66,10.000,0.227,0.232,0.227,0.227,0.000,0.000,0.000,0.000
2026-05-10 20:33:10.090246,INSPECTING,11.903,1.000,0.00,0.00,51.66,10.000,0.227,0.232,0.227,0.227,0.000,0.000,0.000,0.000
2026-05-10 20:33:10.195906,INSPECTING,11.903,1.000,0.00,0.00,51.66,10.000,0.227,0.232,0.227,0.227,0.000,0.000,0.000,0.000
2026-05-10 20:33:10.488447,INSPECTING,11.903,1.000,0.00,0.00,51.66,10.000,0.227,0.232,0.227,0.227,0.000,0.000,0.000,0.000
2026-05-10 20:33:10.672195,TURNING,11.903,1.000,0.00,0.00,51.66,10.000,0.227,0.232,0.227,0.227,0.000,0.000,0.000,0.000
2026-05-10 20:33:10.776792,TURNING,11.903,1.000,0.00,0.00,51.20,10.000,0.227,0.232,0.227,0.227,0.000,0.000,0.000,-0.800
2026-05-10 20:33:10.988302,TURNING,11.903,1.000,0.00,0.00,42.03,10.000,0.227,0.232,0.227,0.227,0.000,0.000,0.000,-0.800
2026-05-10 20:33:11.217544,TURNING,11.903,1.000,0.00,0.00,30.57,10.000,0.227,0.232,0.227,0.227,0.000,0.000,0.000,-0.800
2026-05-10 20:33:11.428757,TURNING,11.903,1.000,0.00,0.00,23.70,10.000,0.227,0.232,0.227,0.227,0.000,0.000,0.000,-0.800
2026-05-10 20:33:11.636470,TURNING,11.903,1.000,0.00,0.00,14.53,10.000,0.227,0.232,0.227,0.227,0.000,0.000,0.000,-0.800
2026-05-10 20:33:11.882429,TURNING,11.903,1.000,0.00,0.00,3.07,10.000,0.227,0.232,0.227,0.227,0.000,0.000,0.000,-0.800
2026-05-10 20:33:12.065435,TURNING,11.903,1.000,0.00,0.00,-3.81,10.000,0.227,0.232,0.227,0.227,0.000,0.000,0.000,-0.800
2026-05-10 20:33:12.295259,TURNING,11.903,1.000,0.00,0.00,-12.97,10.000,0.227,0.232,0.227,0.227,0.000,0.000,0.000,-0.800
2026-05-10 20:33:12.465568,TURNING,11.903,1.000,0.00,0.00,-22.14,10.000,0.227,0.232,0.227,0.227,0.000,0.000,0.000,-0.800
2026-05-10 20:33:12.686204,TURNING,11.903,1.000,0.00,0.00,-31.31,2.790,2.661,2.460,2.630,2.080,0.000,0.000,0.000,-0.800
2026-05-10 20:33:12.923513,TURNING,11.903,1.000,0.00,0.00,-42.77,2.860,2.514,2.972,2.542,2.099,0.000,0.000,0.000,-0.800
2026-05-10 20:33:13.118630,TURNING,11.903,1.000,0.00,0.00,-49.64,2.460,2.487,1.378,2.514,2.099,0.000,0.000,0.000,-0.800
2026-05-10 20:33:13.337922,TURNING,11.903,1.000,0.00,0.00,-58.81,2.384,3.415,1.378,3.365,2.080,0.000,0.000,0.000,-0.800
2026-05-10 20:33:13.549915,TURNING,11.903,1.000,0.00,0.00,-67.98,2.335,1.505,1.362,1.515,1.505,0.000,0.000,0.000,-0.800
2026-05-10 20:33:13.755321,TURNING,11.903,1.000,0.00,0.00,-77.14,3.316,1.496,1.395,1.486,1.486,0.000,0.000,0.000,-0.800
2026-05-10 20:33:13.989665,TURNING,11.903,1.000,0.00,0.00,-88.60,1.515,1.476,1.448,1.486,1.496,0.000,0.000,0.000,-0.694
2026-05-10 20:33:14.155620,TURNING,11.903,1.000,0.00,0.00,-94.91,1.412,1.476,1.536,1.476,1.476,0.000,0.000,0.000,-0.584
2026-05-10 20:33:14.349872,TURNING,11.903,1.000,0.00,0.00,-101.80,1.412,1.476,1.536,1.476,1.476,0.000,0.000,0.000,-0.463
2026-05-10 20:33:14.594040,TURNING,11.903,1.000,0.00,0.00,-108.44,1.346,1.505,1.708,0.609,1.505,0.000,0.000,0.000,-0.347
2026-05-10 20:33:14.799998,TURNING,11.903,1.000,0.00,0.00,-111.65,1.346,1.505,1.708,0.609,1.505,0.000,0.000,0.000,-0.300
2026-05-10 20:33:15.045632,TURNING,11.903,1.000,0.00,0.00,-115.24,1.330,1.557,1.845,0.508,1.557,0.000,0.000,0.000,-0.300
2026-05-10 20:33:15.248069,TURNING,11.903,1.000,0.00,0.00,-118.67,1.338,1.567,1.876,0.463,1.567,0.000,0.000,0.000,-0.300
2026-05-10 20:33:15.451409,TURNING,11.903,1.000,0.00,0.00,-122.11,1.354,1.623,2.043,0.433,1.505,0.000,0.000,0.000,-0.300
2026-05-10 20:33:15.692746,RETURNING,11.903,1.000,0.00,0.00,-125.55,1.370,1.695,2.757,0.378,1.378,0.126,-0.400,0.000,-0.294
2026-05-10 20:33:15.863725,RETURNING,11.894,1.000,0.00,0.00,-128.04,1.370,1.695,2.757,0.378,1.378,0.126,-0.400,0.000,-0.294
2026-05-10 20:33:16.115219,RETURNING,11.875,1.000,0.00,0.00,-132.17,1.395,1.774,2.661,0.324,1.224,0.108,-0.400,0.000,-0.273
2026-05-10 20:33:16.294144,RETURNING,11.863,1.000,0.00,0.00,-134.50,1.395,1.774,2.661,0.324,1.224,0.108,-0.400,0.000,-0.273
2026-05-10 20:33:16.511794,RETURNING,11.848,1.000,0.00,0.00,-137.62,1.430,1.876,3.223,0.289,1.084,0.096,-0.400,0.000,-0.311
2026-05-10 20:33:16.738298,RETURNING,11.832,1.000,0.00,0.00,-140.99,1.430,1.876,3.223,0.289,1.084,0.096,-0.400,0.000,-0.311
2026-05-10 20:33:16.957832,RETURNING,11.815,1.000,0.00,0.00,-144.56,1.515,2.692,3.945,3.011,0.946,0.315,0.363,0.000,-0.325
2026-05-10 20:33:17.164314,RETURNING,11.761,1.000,0.00,0.00,-148.24,1.515,2.692,3.945,3.011,0.946,0.315,0.363,0.000,-0.325
2026-05-10 20:33:17.398550,RETURNING,11.694,1.000,0.00,0.00,-152.21,1.578,2.724,2.099,3.011,0.877,0.292,0.400,0.000,-0.126
2026-05-10 20:33:17.590130,RETURNING,11.655,1.000,0.00,0.00,-153.30,1.578,2.724,2.099,3.011,0.877,0.292,0.400,0.000,-0.126
2026-05-10 20:33:17.794901,RETURNING,11.603,1.000,0.00,0.00,-154.74,1.578,2.724,2.099,3.011,0.877,0.292,0.400,0.000,-0.126
2026-05-10 20:33:18.016306,RETURNING,11.550,1.000,0.00,0.00,-156.18,1.578,2.724,2.099,3.011,0.877,0.292,0.400,0.000,-0.126
2026-05-10 20:33:18.228902,RETURNING,11.496,1.000,0.00,0.00,-157.66,2.359,3.092,5.321,3.178,0.863,0.288,0.400,0.000,-0.189
2026-05-10 20:33:18.446257,RETURNING,11.442,1.000,0.00,0.00,-159.82,2.359,3.092,5.321,3.178,0.863,0.288,0.400,0.000,-0.189
2026-05-10 20:33:18.672438,RETURNING,11.388,1.000,0.00,0.00,-161.99,2.359,3.092,5.321,3.178,0.863,0.288,0.400,0.000,-0.189
2026-05-10 20:33:18.884441,RETURNING,11.333,1.000,0.00,0.00,-164.15,2.359,3.092,5.321,3.178,0.863,0.288,0.400,0.000,-0.189
2026-05-10 20:33:19.069782,RETURNING,11.263,1.000,0.00,0.00,-166.51,2.384,3.575,2.692,3.691,0.883,0.294,0.400,0.000,-0.038
2026-05-10 20:33:19.307505,RETURNING,11.220,1.000,0.00,0.00,-166.84,2.384,3.575,2.692,3.691,0.883,0.294,0.400,0.000,-0.038
2026-05-10 20:33:19.481056,RETURNING,11.163,1.000,0.00,0.00,-167.28,2.384,3.575,2.692,3.691,0.883,0.294,0.400,0.000,-0.038
2026-05-10 20:33:19.691711,RETURNING,11.105,1.000,0.00,0.00,-167.72,2.384,3.575,2.692,3.691,0.883,0.294,0.400,0.000,-0.038
2026-05-10 20:33:19.911987,RETURNING,11.048,1.000,0.00,0.00,-168.16,2.384,3.575,2.692,3.691,0.883,0.294,0.400,0.000,-0.038
2026-05-10 20:33:21.031821,RETURNING,11.004,1.000,0.00,0.00,-168.49,2.384,3.575,2.692,3.691,0.883,0.294,0.400,0.000,-0.038
2026-05-10 20:33:22.601562,RETURNING,10.860,1.000,0.00,0.00,-169.59,2.384,3.575,2.692,3.691,0.883,0.294,0.400,0.000,-0.038
2026-05-10 20:33:22.839080,RETURNING,10.816,1.000,0.00,0.00,-169.92,2.384,3.575,2.692,3.691,0.883,0.294,0.400,0.000,-0.038
2026-05-10 20:33:23.031737,RETURNING,10.758,1.000,0.00,0.00,-170.33,2.384,4.317,2.266,4.317,0.877,0.292,0.400,0.000,0.017
2026-05-10 20:33:23.245403,RETURNING,10.701,1.000,0.00,0.00,-170.11,2.384,4.317,2.200,4.237,0.857,0.286,0.400,0.000,0.028
2026-05-10 20:33:23.478323,RETURNING,10.645,1.000,0.00,0.00,-169.79,2.384,4.160,2.099,4.160,0.863,0.288,0.400,0.000,0.045
2026-05-10 20:33:23.694164,RETURNING,10.588,1.000,0.00,0.00,-169.28,2.311,4.086,2.007,4.086,0.863,0.288,0.400,0.000,0.052
2026-05-10 20:33:23.909936,RETURNING,10.531,1.000,0.00,0.00,-168.72,2.311,4.086,2.007,4.086,0.863,0.288,0.400,0.000,0.052
2026-05-10 20:33:24.123742,RETURNING,10.475,1.000,0.00,0.00,-168.12,2.311,4.086,2.007,4.086,0.863,0.288,0.400,0.000,0.052
2026-05-10 20:33:24.311419,RETURNING,10.419,1.000,0.00,0.00,-167.52,2.311,4.086,2.007,4.086,0.863,0.288,0.400,0.000,0.052
2026-05-10 20:33:24.563214,RETURNING,10.363,1.000,0.00,0.00,-166.92,2.119,3.691,2.600,3.691,0.877,0.292,0.400,0.000,-0.070
2026-05-10 20:33:24.767858,RETURNING,10.306,1.000,0.00,0.00,-167.09,2.080,3.575,2.692,3.575,0.860,0.287,0.400,0.000,-0.087
2026-05-10 20:33:24.985428,RETURNING,10.250,1.000,0.00,0.00,-168.00,2.080,3.575,2.692,3.575,0.860,0.287,0.400,0.000,-0.087
2026-05-10 20:33:25.214832,RETURNING,10.194,1.000,0.00,0.00,-168.99,2.099,3.632,2.661,3.632,0.851,0.284,0.400,0.000,-0.080
2026-05-10 20:33:25.414421,RETURNING,10.124,1.000,0.00,0.00,-170.14,2.138,3.632,2.630,3.691,0.873,0.291,0.400,0.000,-0.070
2026-05-10 20:33:25.651454,RETURNING,10.081,1.000,0.00,0.00,-170.75,2.138,3.632,2.630,3.691,0.873,0.291,0.400,0.000,-0.070
2026-05-10 20:33:25.890551,RETURNING,10.023,1.000,0.00,0.00,-171.55,2.159,3.751,2.600,3.751,0.863,0.288,0.400,0.000,-0.063
2026-05-10 20:33:26.096133,RETURNING,9.966,1.000,0.00,0.00,-172.33,2.159,3.814,2.542,3.751,0.847,0.282,0.400,0.000,-0.056
2026-05-10 20:33:26.318854,RETURNING,9.910,1.000,0.00,0.00,-172.97,2.159,3.814,2.542,3.751,0.847,0.282,0.400,0.000,-0.056
2026-05-10 20:33:26.509065,RETURNING,9.854,1.000,0.00,0.00,-173.61,2.159,3.814,2.542,3.751,0.847,0.282,0.400,0.000,-0.056
2026-05-10 20:33:26.727883,RETURNING,9.798,1.000,0.00,0.00,-174.25,2.159,3.814,2.542,3.751,0.847,0.282,0.400,0.000,-0.056
2026-05-10 20:33:26.928864,RETURNING,9.741,1.000,0.00,0.00,-174.89,2.159,3.814,2.542,3.751,0.847,0.282,0.400,0.000,-0.056
2026-05-10 20:33:27.148931,RETURNING,9.685,1.000,0.00,0.00,-175.54,2.159,3.814,2.542,3.751,0.847,0.282,0.400,0.000,-0.056
2026-05-10 20:33:27.379407,RETURNING,9.615,1.000,0.00,0.00,-176.34,2.335,4.160,2.266,4.086,2.460,0.500,0.081,0.000,0.010
2026-05-10 20:33:27.568985,RETURNING,9.553,1.000,0.00,0.00,-176.47,2.335,4.160,2.266,4.086,2.460,0.500,0.081,0.000,0.010
2026-05-10 20:33:27.767449,RETURNING,9.453,1.000,0.00,0.00,-176.35,2.409,4.237,2.243,4.237,2.460,0.500,0.085,0.000,0.024
2026-05-10 20:33:27.974534,RETURNING,9.353,1.000,0.00,0.00,-176.07,2.409,4.237,2.243,4.237,2.460,0.500,0.085,0.000,0.024
2026-05-10 20:33:28.183714,RETURNING,9.253,1.000,0.00,0.00,-175.79,2.384,3.945,1.973,3.945,2.434,0.500,0.079,0.000,0.070
2026-05-10 20:33:28.409014,RETURNING,9.154,1.000,0.00,0.00,-175.22,2.288,3.878,1.891,3.814,2.460,0.500,0.072,0.000,0.073
2026-05-10 20:33:28.604288,RETURNING,9.054,1.000,0.00,0.00,-174.40,2.288,3.878,1.891,3.814,2.460,0.500,0.072,0.000,0.073
2026-05-10 20:33:28.824655,RETURNING,8.955,1.000,0.00,0.00,-173.55,2.288,3.878,1.891,3.814,2.460,0.500,0.072,0.000,0.073
2026-05-10 20:33:29.004946,RETURNING,8.855,1.000,0.00,0.00,-172.71,2.288,3.878,1.891,3.814,2.460,0.500,0.072,0.000,0.073
2026-05-10 20:33:29.223357,RETURNING,8.756,1.000,0.00,0.00,-171.87,2.043,3.178,5.321,3.223,2.460,0.500,0.048,0.000,-0.241
2026-05-10 20:33:29.454903,RETURNING,8.632,1.000,0.00,0.00,-175.16,1.990,3.223,5.200,3.269,2.434,0.500,0.052,0.000,-0.248
2026-05-10 20:33:29.656329,RETURNING,8.557,1.000,0.00,0.00,-177.28,1.990,3.223,5.200,3.269,2.434,0.500,0.052,0.000,-0.248
2026-05-10 20:33:29.880120,RETURNING,8.457,1.000,-0.00,0.00,179.87,2.080,3.575,5.581,3.520,2.460,0.500,0.061,0.000,-0.241
2026-05-10 20:33:30.107880,RETURNING,8.357,1.000,-0.00,0.00,177.07,2.080,3.575,5.581,3.520,2.460,0.500,0.061,0.000,-0.241
2026-05-10 20:33:30.266811,RETURNING,8.258,1.000,-0.00,0.00,174.31,2.080,3.575,5.581,3.520,2.460,0.500,0.061,0.000,-0.241
2026-05-10 20:33:30.499297,RETURNING,8.159,1.000,-0.00,0.00,171.56,2.335,3.878,5.720,3.814,2.460,0.500,0.072,0.000,-0.203
2026-05-10 20:33:30.750952,RETURNING,8.060,1.000,-0.00,0.00,169.24,2.724,4.317,4.317,4.317,2.460,0.500,0.087,0.000,-0.108
2026-05-10 20:33:30.928358,RETURNING,7.962,1.000,-0.00,0.00,167.31,2.724,4.400,4.160,4.400,2.460,0.500,0.090,0.000,-0.101
2026-05-10 20:33:31.121481,RETURNING,7.865,1.000,-0.00,0.00,166.15,2.724,4.400,4.160,4.400,2.460,0.500,0.090,0.000,-0.101
2026-05-10 20:33:31.345196,RETURNING,7.768,1.000,-0.00,0.00,164.98,2.790,4.868,2.159,4.868,2.335,0.500,0.111,0.000,0.084
2026-05-10 20:33:31.574221,RETURNING,7.647,1.000,-0.00,0.00,165.23,2.790,4.974,1.973,4.974,2.266,0.500,0.120,0.000,0.119
2026-05-10 20:33:31.783745,RETURNING,7.575,1.000,-0.00,0.00,166.13,2.724,4.767,3.316,4.767,2.434,0.500,0.101,0.000,-0.052
2026-05-10 20:33:31.984651,RETURNING,7.477,1.000,-0.00,0.00,166.41,2.724,4.767,3.316,4.767,2.434,0.500,0.101,0.000,-0.052
2026-05-10 20:33:32.170936,RETURNING,7.380,1.000,-0.00,0.00,165.81,2.600,4.576,3.691,4.576,2.311,0.500,0.107,0.000,-0.091
2026-05-10 20:33:32.382544,RETURNING,7.283,1.000,-0.00,0.00,164.97,2.600,4.576,3.691,4.576,2.311,0.500,0.107,0.000,-0.091
2026-05-10 20:33:32.619655,RETURNING,7.187,1.000,-0.00,0.00,163.93,2.600,4.576,3.691,4.576,2.311,0.500,0.107,0.000,-0.091
2026-05-10 20:33:32.795948,RETURNING,7.091,1.000,-0.00,0.00,162.89,2.571,4.086,3.269,4.237,2.571,0.500,0.076,0.000,-0.066
2026-05-10 20:33:33.013313,RETURNING,6.996,1.000,-0.00,0.00,162.00,2.571,4.086,3.269,4.237,2.571,0.500,0.076,0.000,-0.066
2026-05-10 20:33:33.234075,RETURNING,6.901,1.000,-0.00,0.00,161.24,2.661,4.487,3.011,4.400,2.434,0.500,0.092,0.000,-0.035
2026-05-10 20:33:33.433596,RETURNING,6.806,1.000,-0.00,0.00,160.67,2.661,4.487,3.011,4.400,2.434,0.500,0.092,0.000,-0.035
2026-05-10 20:33:33.642493,RETURNING,6.712,1.000,-0.00,0.00,160.27,2.692,4.400,2.934,5.200,2.460,0.500,0.107,0.000,-0.024
2026-05-10 20:33:33.851497,RETURNING,6.618,1.000,-0.00,0.00,160.00,2.692,4.237,2.896,5.321,2.460,0.500,0.109,0.000,-0.021
2026-05-10 20:33:34.067856,RETURNING,6.501,1.000,-0.00,0.00,159.67,2.692,4.160,2.934,4.868,2.487,0.500,0.098,0.000,-0.024
2026-05-10 20:33:34.331631,RETURNING,6.430,1.000,-0.00,0.00,159.46,2.600,4.086,2.972,4.868,2.409,0.500,0.105,0.000,-0.038
2026-05-10 20:33:34.486495,RETURNING,6.337,1.000,-0.00,0.00,159.11,2.630,4.086,2.972,4.974,2.359,0.500,0.111,0.000,-0.035
2026-05-10 20:33:34.713651,RETURNING,6.244,1.000,-0.00,0.00,158.71,2.661,4.086,2.934,4.086,2.311,0.500,0.094,0.000,-0.028
2026-05-10 20:33:34.914512,RETURNING,6.150,1.000,-0.00,0.00,158.33,2.692,4.086,2.972,4.160,2.243,0.500,0.103,0.000,-0.028
2026-05-10 20:33:35.103075,RETURNING,6.058,1.000,-0.00,0.00,158.02,2.790,4.160,3.011,4.086,2.288,0.500,0.096,0.000,-0.021
2026-05-10 20:33:35.328538,RETURNING,5.965,1.000,-0.00,0.00,157.76,2.724,4.086,2.972,4.974,2.460,0.500,0.103,0.000,-0.024
2026-05-10 20:33:35.558925,RETURNING,5.873,1.000,-0.00,0.00,157.48,2.825,4.086,3.011,4.086,2.487,0.500,0.079,0.000,-0.017
2026-05-10 20:33:35.755787,RETURNING,5.780,1.000,-0.00,0.00,157.24,2.825,3.945,3.011,4.576,2.409,0.500,0.098,0.000,-0.017
2026-05-10 20:33:35.970918,RETURNING,5.665,1.000,-0.00,0.00,157.00,2.860,4.086,2.972,4.086,2.434,0.500,0.083,0.000,-0.010
2026-05-10 20:33:36.167013,RETURNING,5.573,1.000,-0.00,0.00,156.87,2.790,4.086,2.972,4.086,2.434,0.500,0.083,0.000,-0.017
2026-05-10 20:33:36.415231,RETURNING,5.504,1.000,-0.00,0.00,156.72,2.724,3.814,2.896,4.086,2.460,0.500,0.081,0.000,-0.017
2026-05-10 20:33:36.597968,RETURNING,5.412,1.000,-0.00,0.00,156.50,2.600,3.751,2.896,4.317,2.460,0.500,0.087,0.000,-0.031
2026-05-10 20:33:36.802815,RETURNING,5.321,1.000,-0.00,0.00,156.21,2.571,3.520,2.860,4.086,2.487,0.500,0.079,0.000,-0.031
2026-05-10 20:33:37.008632,RETURNING,5.229,1.000,-0.00,0.00,155.85,2.434,3.365,2.757,4.086,2.460,0.500,0.081,0.000,-0.038
2026-05-10 20:33:37.313217,RETURNING,5.093,1.000,-0.00,0.00,155.22,0.442,3.269,2.692,4.086,2.434,0.500,0.083,0.000,-0.600
2026-05-10 20:33:37.540354,RETURNING,5.003,1.000,-0.00,0.00,151.24,3.575,3.269,2.542,4.160,2.434,0.500,0.085,0.000,0.091
2026-05-10 20:33:37.734839,RETURNING,4.915,1.000,-0.00,0.00,151.79,3.223,3.269,2.384,4.160,2.311,0.500,0.096,0.000,0.087
2026-05-10 20:33:37.963708,RETURNING,4.826,1.000,-0.00,0.00,152.78,4.868,3.178,2.409,3.467,2.335,0.500,0.070,0.000,0.168
2026-05-10 20:33:38.158870,RETURNING,4.737,1.000,-0.00,0.00,154.57,0.474,3.178,2.460,3.269,2.409,0.500,0.055,0.000,-0.600
2026-05-10 20:33:38.384631,RETURNING,4.647,1.000,-0.00,0.00,150.86,10.000,3.051,2.384,3.092,2.359,0.500,0.050,0.000,0.256
2026-05-10 20:33:38.568403,RETURNING,4.562,1.000,-0.00,0.00,148.29,0.565,2.934,2.138,3.011,2.434,0.500,0.039,0.000,-0.600
2026-05-10 20:33:38.787349,RETURNING,4.477,1.000,-0.00,0.00,144.87,2.724,2.860,2.138,2.724,2.266,0.500,0.037,0.000,0.080
2026-05-10 20:33:38.995086,RETURNING,4.375,1.000,-0.00,0.00,145.79,0.617,2.860,1.956,2.860,2.487,0.500,0.026,0.000,-0.600
2026-05-10 20:33:39.256119,RETURNING,4.314,1.000,-0.00,0.00,142.29,2.542,2.825,1.891,2.825,2.487,0.500,0.024,0.000,0.108
2026-05-10 20:33:39.425944,RETURNING,4.219,1.000,-0.00,0.00,136.95,2.359,2.487,1.634,2.514,2.460,0.500,0.004,0.000,0.150
2026-05-10 20:33:39.602055,RETURNING,4.166,1.000,-0.00,0.00,134.80,2.311,2.487,1.634,2.487,2.409,0.500,0.007,0.000,0.143
2026-05-10 20:33:39.847885,RETURNING,4.095,1.000,-0.00,0.00,136.44,2.222,2.266,1.525,2.288,2.266,0.500,0.002,0.000,0.164
2026-05-10 20:33:40.034779,RETURNING,4.021,1.000,-0.00,0.00,138.34,2.200,2.311,1.505,2.311,2.288,0.500,0.002,0.000,0.168
2026-05-10 20:33:40.245784,RETURNING,3.946,1.000,-0.00,0.00,140.24,2.200,2.311,1.505,2.311,2.288,0.500,0.002,0.000,0.168
2026-05-10 20:33:40.457490,RETURNING,3.868,1.000,-0.00,0.00,142.17,2.025,2.409,1.525,2.384,2.384,0.500,0.000,0.000,0.129
2026-05-10 20:33:40.700203,RETURNING,3.788,1.000,-0.00,0.00,143.74,2.007,2.409,1.515,2.384,2.384,0.500,0.000,0.000,0.129
2026-05-10 20:33:40.880433,RETURNING,3.686,1.000,-0.00,0.00,145.53,1.907,2.384,1.515,2.384,2.384,0.500,0.000,0.000,0.108
2026-05-10 20:33:41.128440,RETURNING,3.624,1.000,-0.00,0.00,143.62,1.708,2.159,1.525,2.007,2.222,0.500,-0.024,0.000,0.056
2026-05-10 20:33:41.304869,RETURNING,3.547,1.000,-0.00,0.00,139.38,1.708,2.159,1.525,2.007,2.222,0.500,-0.024,0.000,0.056
2026-05-10 20:33:41.525574,RETURNING,3.471,1.000,-0.00,0.00,140.06,1.611,1.990,1.285,1.990,1.973,0.500,0.002,0.000,0.126
2026-05-10 20:33:41.695525,RETURNING,3.393,1.000,-0.00,0.00,141.50,1.486,1.939,1.257,1.939,1.939,0.500,0.000,0.000,0.098
2026-05-10 20:33:41.954938,RETURNING,3.314,1.000,-0.00,0.00,142.67,1.395,1.891,1.237,1.891,1.891,0.500,0.000,0.000,0.073
2026-05-10 20:33:42.138976,RETURNING,3.234,1.000,-0.00,0.00,143.61,1.378,1.876,1.217,1.876,1.891,0.500,-0.002,0.000,0.077
2026-05-10 20:33:42.348212,RETURNING,3.153,1.000,-0.00,0.00,144.42,1.244,1.816,1.204,1.816,1.816,0.500,0.000,0.000,0.021
2026-05-10 20:33:42.553849,RETURNING,3.072,1.000,-0.00,0.00,144.73,1.186,1.760,1.204,1.760,1.760,0.500,0.000,0.000,-0.010
2026-05-10 20:33:42.754067,RETURNING,2.990,1.000,-0.00,0.00,144.59,1.050,1.670,1.173,1.682,1.695,0.500,-0.002,0.000,-0.080
2026-05-10 20:33:42.984811,RETURNING,2.909,1.000,-0.00,0.00,143.71,1.008,1.567,1.116,1.567,1.578,0.500,-0.002,0.000,-0.077
2026-05-10 20:33:43.180173,RETURNING,2.809,1.000,-0.00,0.00,142.56,1.050,1.476,1.064,1.476,1.476,0.492,0.000,0.000,-0.010
2026-05-10 20:33:43.384838,RETURNING,2.732,1.000,-0.00,0.00,142.52,1.069,1.346,0.978,1.346,1.346,0.449,0.000,0.000,0.070
2026-05-10 20:33:43.588436,RETURNING,2.678,1.000,-0.00,0.00,143.09,1.022,1.308,0.926,1.300,1.300,0.433,0.000,0.000,0.080
2026-05-10 20:33:43.815375,RETURNING,2.608,1.000,-0.00,0.00,143.96,0.953,1.285,0.904,1.278,1.278,0.426,0.000,0.000,0.045
2026-05-10 20:33:44.059177,RETURNING,2.538,1.000,-0.00,0.00,144.52,0.641,1.204,0.860,1.224,1.204,0.401,0.007,0.000,-0.318
2026-05-10 20:33:44.273083,RETURNING,2.458,1.000,-0.00,0.00,140.14,0.677,1.105,0.792,1.105,1.105,0.368,0.000,0.000,-0.171
2026-05-10 20:33:44.433997,RETURNING,2.401,1.000,-0.00,0.00,138.54,1.658,1.012,0.731,1.004,1.012,0.335,-0.004,0.000,0.600
2026-05-10 20:33:44.638141,RETURNING,2.363,1.000,-0.00,0.00,140.94,0.490,0.915,0.679,0.912,0.915,0.304,-0.002,0.000,-0.455
2026-05-10 20:33:44.872857,RETURNING,2.312,1.000,-0.00,0.00,141.17,1.567,0.938,0.669,0.942,0.938,0.313,0.002,0.000,0.600
2026-05-10 20:33:45.067982,RETURNING,2.263,1.000,-0.00,0.00,147.44,1.515,0.904,0.645,0.915,0.904,0.301,0.007,0.000,0.600
2026-05-10 20:33:45.264978,RETURNING,2.210,1.000,-0.00,0.00,154.32,10.000,1.059,0.687,1.050,1.045,0.348,0.002,0.000,0.600
2026-05-10 20:33:45.485174,RETURNING,2.149,1.000,-0.00,0.00,160.51,10.000,1.293,0.758,1.264,1.278,0.421,-0.004,0.000,0.600
2026-05-10 20:33:45.699323,RETURNING,2.101,1.000,-0.00,0.00,159.82,0.285,0.430,0.711,1.162,1.144,0.143,0.007,0.000,-0.600
2026-05-10 20:33:45.892684,RETURNING,2.074,1.000,-0.00,0.00,161.19,10.000,0.353,0.765,1.338,1.346,0.118,-0.002,0.000,0.600
2026-05-10 20:33:46.121714,RETURNING,2.052,1.000,-0.00,0.00,168.07,10.000,0.279,0.838,1.395,1.412,0.093,-0.004,0.000,0.600
2026-05-10 20:33:46.311886,RETURNING,2.030,1.000,-0.00,0.00,174.94,0.451,10.000,1.064,10.000,0.459,0.153,0.400,0.000,-0.600
2026-05-10 20:33:46.512939,RETURNING,1.962,1.000,-0.00,0.00,175.63,0.409,10.000,1.230,10.000,0.406,0.135,0.400,0.000,-0.600
2026-05-10 20:33:46.760610,RETURNING,1.894,1.000,-0.00,0.00,169.44,10.000,10.000,0.991,10.000,3.051,0.500,0.114,0.000,0.600
2026-05-10 20:33:46.952816,RETURNING,1.828,1.000,-0.00,0.00,176.32,10.000,10.000,1.045,10.000,0.316,0.105,0.400,0.000,0.600
2026-05-10 20:33:47.157214,RETURNING,1.779,1.000,0.00,0.00,-175.09,10.000,10.000,10.000,10.000,2.757,0.500,0.131,0.000,0.000
2026-05-10 20:33:47.342061,RETURNING,1.711,1.000,0.00,0.00,-173.02,10.000,10.000,10.000,10.000,2.200,0.500,0.177,0.000,0.000
2026-05-10 20:33:47.550341,RETURNING,1.612,1.000,0.00,0.00,-173.02,10.000,10.000,10.000,10.000,2.266,0.500,0.171,0.000,0.000
2026-05-10 20:33:47.756495,RETURNING,1.512,1.000,0.00,0.00,-173.02,10.000,10.000,10.000,10.000,2.222,0.500,0.175,0.000,0.000
2026-05-10 20:33:47.963704,RETURNING,1.413,1.000,0.00,0.00,-173.02,10.000,10.000,10.000,10.000,1.330,0.443,0.326,0.000,0.000
2026-05-10 20:33:48.168558,RETURNING,1.319,1.000,0.00,0.00,-173.02,10.000,10.000,10.000,10.000,10.000,0.500,0.000,0.000,0.000
2026-05-10 20:33:48.362507,RETURNING,1.245,1.000,0.00,0.00,-173.02,10.000,10.000,10.000,10.000,10.000,0.500,0.000,0.000,0.000
2026-05-10 20:33:48.665247,RETURNING,1.071,1.000,0.00,0.00,-173.02,10.000,10.000,10.000,10.000,10.000,0.500,0.000,0.000,0.000
2026-05-10 20:33:48.891509,RETURNING,0.972,1.000,0.00,0.00,-173.02,10.000,10.000,10.000,10.000,10.000,0.500,0.000,0.000,0.000
2026-05-10 20:33:49.089893,RETURNING,0.873,1.000,0.00,0.00,-173.02,10.000,10.000,10.000,10.000,10.000,0.500,0.000,0.000,0.000
2026-05-10 20:33:49.305071,RETURNING,0.774,1.000,0.00,0.00,-173.02,10.000,10.000,10.000,10.000,10.000,0.500,0.000,0.000,0.000
2026-05-10 20:33:49.509989,RETURNING,0.674,1.000,0.00,0.00,-173.02,10.000,10.000,10.000,10.000,10.000,0.500,0.000,0.000,0.000
2026-05-10 20:33:49.723291,RETURNING,0.575,1.000,0.00,0.00,-173.02,10.000,10.000,10.000,10.000,10.000,0.500,0.000,0.000,0.000
2026-05-10 20:33:49.921755,RETURNING,0.476,1.000,0.00,0.00,-173.02,10.000,10.000,10.000,10.000,10.000,0.500,0.000,0.000,0.000
2026-05-10 20:33:50.118505,RETURNING,0.376,1.000,0.00,0.00,-173.02,10.000,10.000,10.000,10.000,10.000,0.500,0.000,0.000,0.000
2026-05-10 20:33:50.318178,RETURNING,0.277,1.000,0.00,0.00,-173.02,10.000,10.000,10.000,10.000,10.000,0.500,0.000,0.000,0.000
2026-05-10 20:33:50.537723,RETURNING,0.178,1.000,0.00,0.00,-173.02,10.000,10.000,10.000,10.000,10.000,0.500,0.000,0.000,0.000
2026-05-10 20:33:50.753454,COMPLETED,0.079,1.000,0.00,0.00,-173.02,10.000,10.000,10.000,10.000,10.000,0.000,0.000,0.000,0.000
2026-05-10 20:33:50.918002,COMPLETED,0.024,1.000,0.00,0.00,-173.02,10.000,10.000,10.000,10.000,10.000,0.000,0.000,0.000,0.000
2026-05-10 20:33:51.112919,COMPLETED,0.024,1.000,0.00,0.00,-173.02,10.000,10.000,10.000,10.000,10.000,0.000,0.000,0.000,0.000
2026-05-10 20:33:51.317136,COMPLETED,0.024,1.000,0.00,0.00,-173.02,10.000,10.000,10.000,10.000,10.000,0.000,0.000,0.000,0.000
2026-05-10 20:33:51.525619,COMPLETED,0.024,1.000,0.00,0.00,-173.02,10.000,10.000,10.000,10.000,10.000,0.000,0.000,0.000,0.000
2026-05-10 20:33:51.731163,COMPLETED,0.024,1.000,0.00,0.00,-173.02,10.000,10.000,10.000,10.000,10.000,0.000,0.000,0.000,0.000
2026-05-10 20:33:51.934255,COMPLETED,0.024,1.000,0.00,0.00,-173.02,10.000,10.000,10.000,10.000,10.000,0.000,0.000,0.000,0.000
2026-05-10 20:33:52.132700,COMPLETED,0.024,1.000,0.00,0.00,-173.02,10.000,10.000,10.000,10.000,10.000,0.000,0.000,0.000,0.000
2026-05-10 20:33:53.218593,COMPLETED,0.024,1.000,0.00,0.00,-173.02,10.000,10.000,10.000,10.000,10.000,0.000,0.000,0.000,0.000
2026-05-10 20:33:53.227814,COMPLETED,0.024,1.000,0.00,0.00,-173.02,10.000,10.000,10.000,10.000,10.000,0.000,0.000,0.000,0.000
2026-05-10 20:33:53.360582,COMPLETED,0.024,1.000,0.00,0.00,-173.02,10.000,10.000,10.000,10.000,10.000,0.000,0.000,0.000,0.000
2026-05-10 20:33:54.815307,COMPLETED,0.024,1.000,0.00,0.00,-173.02,10.000,10.000,10.000,10.000,10.000,0.000,0.000,0.000,0.000
2026-05-10 20:33:54.873531,COMPLETED,0.024,1.000,0.00,0.00,-173.02,10.000,10.000,10.000,10.000,10.000,0.000,0.000,0.000,0.000
2026-05-10 20:33:55.055576,COMPLETED,0.024,1.000,0.00,0.00,-173.02,10.000,10.000,10.000,10.000,10.000,0.000,0.000,0.000,0.000
2026-05-10 20:33:55.263028,COMPLETED,0.024,1.000,0.00,0.00,-173.02,10.000,10.000,10.000,10.000,10.000,0.000,0.000,0.000,0.000
2026-05-10 20:33:55.483933,COMPLETED,0.024,1.000,0.00,0.00,-173.02,10.000,10.000,10.000,10.000,10.000,0.000,0.000,0.000,0.000
2026-05-10 20:33:55.691463,COMPLETED,0.024,1.000,0.00,0.00,-173.02,10.000,10.000,10.000,10.000,10.000,0.000,0.000,0.000,0.000
2026-05-10 20:33:55.898219,COMPLETED,0.024,1.000,0.00,0.00,-173.02,10.000,10.000,10.000,10.000,10.000,0.000,0.000,0.000,0.000
2026-05-10 20:33:56.100354,COMPLETED,0.024,1.000,0.00,0.00,-173.02,10.000,10.000,10.000,10.000,10.000,0.000,0.000,0.000,0.000
2026-05-10 20:33:56.305666,COMPLETED,0.024,1.000,0.00,0.00,-173.02,10.000,10.000,10.000,10.000,10.000,0.000,0.000,0.000,0.000
2026-05-10 20:33:56.511866,COMPLETED,0.024,1.000,0.00,0.00,-173.02,10.000,10.000,10.000,10.000,10.000,0.000,0.000,0.000,0.000
2026-05-10 20:33:56.722045,COMPLETED,0.024,1.000,0.00,0.00,-173.02,10.000,10.000,10.000,10.000,10.000,0.000,0.000,0.000,0.000
2026-05-10 20:33:56.929830,COMPLETED,0.024,1.000,0.00,0.00,-173.02,10.000,10.000,10.000,10.000,10.000,0.000,0.000,0.000,0.000
2026-05-10 20:33:57.138282,COMPLETED,0.024,1.000,0.00,0.00,-173.02,10.000,10.000,10.000,10.000,10.000,0.000,0.000,0.000,0.000
2026-05-10 20:33:57.342330,COMPLETED,0.024,1.000,0.00,0.00,-173.02,10.000,10.000,10.000,10.000,10.000,0.000,0.000,0.000,0.000
2026-05-10 20:33:57.554105,COMPLETED,0.024,1.000,0.00,0.00,-173.02,10.000,10.000,10.000,10.000,10.000,0.000,0.000,0.000,0.000
2026-05-10 20:33:57.759886,COMPLETED,0.024,1.000,0.00,0.00,-173.02,10.000,10.000,10.000,10.000,10.000,0.000,0.000,0.000,0.000
2026-05-10 20:33:57.961227,COMPLETED,0.024,1.000,0.00,0.00,-173.02,10.000,10.000,10.000,10.000,10.000,0.000,0.000,0.000,0.000
2026-05-10 20:33:58.172270,COMPLETED,0.024,1.000,0.00,0.00,-173.02,10.000,10.000,10.000,10.000,10.000,0.000,0.000,0.000,0.000
2026-05-10 20:33:58.368231,COMPLETED,0.024,1.000,0.00,0.00,-173.02,10.000,10.000,10.000,10.000,10.000,0.000,0.000,0.000,0.000
2026-05-10 20:33:58.575345,COMPLETED,0.024,1.000,0.00,0.00,-173.02,10.000,10.000,10.000,10.000,10.000,0.000,0.000,0.000,0.000
2026-05-10 20:33:58.787693,COMPLETED,0.024,1.000,0.00,0.00,-173.02,10.000,10.000,10.000,10.000,10.000,0.000,0.000,0.000,0.000
2026-05-10 20:33:58.987056,COMPLETED,0.024,1.000,0.00,0.00,-173.02,10.000,10.000,10.000,10.000,10.000,0.000,0.000,0.000,0.000
2026-05-10 20:33:59.203901,COMPLETED,0.024,1.000,0.00,0.00,-173.02,10.000,10.000,10.000,10.000,10.000,0.000,0.000,0.000,0.000
2026-05-10 20:33:59.397366,COMPLETED,0.024,1.000,0.00,0.00,-173.02,10.000,10.000,10.000,10.000,10.000,0.000,0.000,0.000,0.000
2026-05-10 20:33:59.607241,COMPLETED,0.024,1.000,0.00,0.00,-173.02,10.000,10.000,10.000,10.000,10.000,0.000,0.000,0.000,0.000
2026-05-10 20:33:59.827475,COMPLETED,0.024,1.000,0.00,0.00,-173.02,10.000,10.000,10.000,10.000,10.000,0.000,0.000,0.000,0.000
2026-05-10 20:34:00.030317,COMPLETED,0.024,1.000,0.00,0.00,-173.02,10.000,10.000,10.000,10.000,10.000,0.000,0.000,0.000,0.000
2026-05-10 20:34:00.244216,COMPLETED,0.024,1.000,0.00,0.00,-173.02,10.000,10.000,10.000,10.000,10.000,0.000,0.000,0.000,0.000
2026-05-10 20:34:00.462147,COMPLETED,0.024,1.000,0.00,0.00,-173.02,10.000,10.000,10.000,10.000,10.000,0.000,0.000,0.000,0.000
2026-05-10 20:34:00.655239,COMPLETED,0.024,1.000,0.00,0.00,-173.02,10.000,10.000,10.000,10.000,10.000,0.000,0.000,0.000,0.000
2026-05-10 20:34:00.858589,COMPLETED,0.024,1.000,0.00,0.00,-173.02,10.000,10.000,10.000,10.000,10.000,0.000,0.000,0.000,0.000
2026-05-10 20:34:01.056764,COMPLETED,0.024,1.000,0.00,0.00,-173.02,10.000,10.000,10.000,10.000,10.000,0.000,0.000,0.000,0.000
2026-05-10 20:34:01.263518,COMPLETED,0.024,1.000,0.00,0.00,-173.02,10.000,10.000,10.000,10.000,10.000,0.000,0.000,0.000,0.000
2026-05-10 20:34:01.463289,COMPLETED,0.024,1.000,0.00,0.00,-173.02,10.000,10.000,10.000,10.000,10.000,0.000,0.000,0.000,0.000
2026-05-10 20:34:01.672925,COMPLETED,0.024,1.000,0.00,0.00,-173.02,10.000,10.000,10.000,10.000,10.000,0.000,0.000,0.000,0.000
2026-05-10 20:34:01.873984,COMPLETED,0.024,1.000,0.00,0.00,-173.02,10.000,10.000,10.000,10.000,10.000,0.000,0.000,0.000,0.000
2026-05-10 20:34:02.087148,COMPLETED,0.024,1.000,0.00,0.00,-173.02,10.000,10.000,10.000,10.000,10.000,0.000,0.000,0.000,0.000
2026-05-10 20:34:02.297360,COMPLETED,0.024,1.000,0.00,0.00,-173.02,10.000,10.000,10.000,10.000,10.000,0.000,0.000,0.000,0.000
2026-05-10 20:34:02.503737,COMPLETED,0.024,1.000,0.00,0.00,-173.02,10.000,10.000,10.000,10.000,10.000,0.000,0.000,0.000,0.000
2026-05-10 20:34:02.706727,COMPLETED,0.024,1.000,0.00,0.00,-173.02,10.000,10.000,10.000,10.000,10.000,0.000,0.000,0.000,0.000
2026-05-10 20:34:02.911766,COMPLETED,0.024,1.000,0.00,0.00,-173.02,10.000,10.000,10.000,10.000,10.000,0.000,0.000,0.000,0.000
2026-05-10 20:34:03.112150,COMPLETED,0.024,1.000,0.00,0.00,-173.02,10.000,10.000,10.000,10.000,10.000,0.000,0.000,0.000,0.000
2026-05-10 20:34:03.309902,COMPLETED,0.024,1.000,0.00,0.00,-173.02,10.000,10.000,10.000,10.000,10.000,0.000,0.000,0.000,0.000
2026-05-10 20:34:03.514309,COMPLETED,0.024,1.000,0.00,0.00,-173.02,10.000,10.000,10.000,10.000,10.000,0.000,0.000,0.000,0.000
2026-05-10 20:34:03.725264,COMPLETED,0.024,1.000,0.00,0.00,-173.02,10.000,10.000,10.000,10.000,10.000,0.000,0.000,0.000,0.000
2026-05-10 20:34:03.928760,COMPLETED,0.024,1.000,0.00,0.00,-173.02,10.000,10.000,10.000,10.000,10.000,0.000,0.000,0.000,0.000
2026-05-10 20:34:04.138035,COMPLETED,0.024,1.000,0.00,0.00,-173.02,10.000,10.000,10.000,10.000,10.000,0.000,0.000,0.000,0.000
2026-05-10 20:34:04.340442,COMPLETED,0.024,1.000,0.00,0.00,-173.02,10.000,10.000,10.000,10.000,10.000,0.000,0.000,0.000,0.000
2026-05-10 20:34:04.545504,COMPLETED,0.024,1.000,0.00,0.00,-173.02,10.000,10.000,10.000,10.000,10.000,0.000,0.000,0.000,0.000
2026-05-10 20:34:04.761677,COMPLETED,0.024,1.000,0.00,0.00,-173.02,10.000,10.000,10.000,10.000,10.000,0.000,0.000,0.000,0.000
2026-05-10 20:34:04.983344,COMPLETED,0.024,1.000,0.00,0.00,-173.02,10.000,10.000,10.000,10.000,10.000,0.000,0.000,0.000,0.000
2026-05-10 20:34:05.178927,COMPLETED,0.024,1.000,0.00,0.00,-173.02,10.000,10.000,10.000,10.000,10.000,0.000,0.000,0.000,0.000
2026-05-10 20:34:05.376819,COMPLETED,0.024,1.000,0.00,0.00,-173.02,10.000,10.000,10.000,10.000,10.000,0.000,0.000,0.000,0.000
2026-05-10 20:34:05.575037,COMPLETED,0.024,1.000,0.00,0.00,-173.02,10.000,10.000,10.000,10.000,10.000,0.000,0.000,0.000,0.000
2026-05-10 20:34:05.787780,COMPLETED,0.024,1.000,0.00,0.00,-173.02,10.000,10.000,10.000,10.000,10.000,0.000,0.000,0.000,0.000
2026-05-10 20:34:05.980639,COMPLETED,0.024,1.000,0.00,0.00,-173.02,10.000,10.000,10.000,10.000,10.000,0.000,0.000,0.000,0.000
2026-05-10 20:34:06.198779,COMPLETED,0.024,1.000,0.00,0.00,-173.02,10.000,10.000,10.000,10.000,10.000,0.000,0.000,0.000,0.000
2026-05-10 20:34:06.400940,COMPLETED,0.024,1.000,0.00,0.00,-173.02,10.000,10.000,10.000,10.000,10.000,0.000,0.000,0.000,0.000
2026-05-10 20:34:06.608274,COMPLETED,0.024,1.000,0.00,0.00,-173.02,10.000,10.000,10.000,10.000,10.000,0.000,0.000,0.000,0.000
2026-05-10 20:34:06.818817,COMPLETED,0.024,1.000,0.00,0.00,-173.02,10.000,10.000,10.000,10.000,10.000,0.000,0.000,0.000,0.000
2026-05-10 20:34:07.023004,COMPLETED,0.024,1.000,0.00,0.00,-173.02,10.000,10.000,10.000,10.000,10.000,0.000,0.000,0.000,0.000
2026-05-10 20:34:07.244205,COMPLETED,0.024,1.000,0.00,0.00,-173.02,10.000,10.000,10.000,10.000,10.000,0.000,0.000,0.000,0.000
