timestamp,state,x,z,roll_deg,pitch_deg,yaw_deg,left,center,right,top,bottom,cmd_vx,cmd_vz,cmd_roll,cmd_yaw
2026-05-10 20:45:25.490964,SEARCHING,0.000,1.000,0.00,0.00,0.00,10.000,10.000,10.000,10.000,10.000,0.700,0.000,0.000,0.000
2026-05-10 20:45:25.691831,SEARCHING,0.105,1.000,0.00,0.00,0.00,10.000,10.000,10.000,10.000,10.000,0.700,0.000,0.000,0.000
2026-05-10 20:45:25.965976,INSPECTING,0.245,1.000,0.00,0.00,0.00,0.915,0.982,1.956,0.982,0.978,0.000,0.000,0.000,0.000
2026-05-10 20:45:26.176442,INSPECTING,0.346,1.000,0.00,0.00,-3.41,0.768,0.860,1.907,0.835,0.857,0.350,-0.550,-0.552,-0.850
2026-05-10 20:45:26.427805,SEARCHING,0.416,1.000,0.00,0.00,-13.15,0.711,0.826,1.567,2.119,0.823,0.350,0.550,-0.552,-0.850
2026-05-10 20:45:26.558443,SEARCHING,0.466,1.000,0.00,0.00,-20.45,0.695,2.099,1.448,2.099,2.119,0.700,-0.003,-0.336,-0.673
2026-05-10 20:45:26.762071,SEARCHING,0.573,1.000,0.00,0.00,-26.90,1.956,1.578,1.179,1.578,1.578,0.552,0.000,0.151,0.303
2026-05-10 20:45:26.981619,SEARCHING,0.674,1.000,0.00,0.00,-26.07,1.831,1.476,1.105,1.476,1.467,0.517,0.003,0.161,0.323
2026-05-10 20:45:27.172290,SEARCHING,0.769,1.000,0.00,0.00,-22.40,1.774,1.496,1.090,1.486,1.486,0.523,0.000,0.159,0.319
2026-05-10 20:45:27.391142,SEARCHING,0.866,1.000,0.00,0.00,-18.78,1.788,1.486,1.079,1.496,1.515,0.520,-0.005,0.165,0.330
2026-05-10 20:45:27.590083,SEARCHING,0.966,1.000,0.00,0.00,-15.02,1.788,1.515,1.064,1.505,1.505,0.530,0.000,0.171,0.342
2026-05-10 20:45:27.791933,SEARCHING,1.069,1.000,0.00,0.00,-11.04,1.923,1.457,1.074,1.457,1.457,0.510,0.000,0.185,0.370
2026-05-10 20:45:27.996321,SEARCHING,1.170,1.000,0.00,0.00,-6.81,2.025,1.370,1.084,1.370,1.378,0.480,-0.003,0.193,0.385
2026-05-10 20:45:28.200679,SEARCHING,1.243,1.000,0.00,0.00,-3.53,2.200,1.300,1.144,1.300,1.285,0.455,0.005,0.189,0.378
2026-05-10 20:45:28.419030,SEARCHING,1.358,1.000,0.00,0.00,1.98,2.661,1.404,1.095,1.412,1.404,0.491,0.003,0.242,0.484
2026-05-10 20:45:28.615330,SEARCHING,1.455,1.000,0.00,0.00,7.27,2.692,1.486,1.008,1.476,1.476,0.520,0.000,0.279,0.559
2026-05-10 20:45:28.832264,SEARCHING,1.557,1.000,0.00,0.00,13.59,3.269,1.760,1.031,1.774,1.788,0.616,-0.003,0.299,0.598
2026-05-10 20:45:29.044052,SEARCHING,1.674,1.000,0.00,0.00,20.45,3.520,1.891,1.059,1.907,1.891,0.662,0.003,0.297,0.594
2026-05-10 20:45:29.253334,SEARCHING,1.797,1.000,0.00,0.00,27.08,4.670,2.542,1.395,2.514,2.460,0.700,0.005,0.226,0.452
2026-05-10 20:45:29.466087,SEARCHING,1.918,1.000,0.00,0.00,32.38,4.974,2.692,1.515,2.692,2.487,0.700,0.018,0.206,0.413
2026-05-10 20:45:29.669248,SEARCHING,2.034,1.000,0.00,0.00,36.86,6.184,3.415,1.907,3.415,2.460,0.700,0.068,0.163,0.326
2026-05-10 20:45:29.873161,SEARCHING,2.143,1.000,0.00,0.00,40.62,5.085,3.632,1.956,3.691,2.460,0.700,0.081,0.142,0.283
2026-05-10 20:45:30.077477,SEARCHING,2.247,1.000,0.00,0.00,43.90,4.487,3.751,2.025,3.751,2.460,0.700,0.084,0.122,0.244
2026-05-10 20:45:30.290573,SEARCHING,2.346,1.000,0.00,0.00,46.20,2.896,4.237,2.359,4.237,2.434,0.700,0.105,0.035,0.071
2026-05-10 20:45:30.499881,SEARCHING,2.442,1.000,0.00,0.00,46.88,2.724,4.487,2.630,4.487,2.384,0.700,0.118,0.006,0.012
2026-05-10 20:45:30.714533,SEARCHING,2.537,1.000,0.00,0.00,47.02,2.661,4.400,2.724,4.400,2.409,0.700,0.113,-0.004,-0.008
2026-05-10 20:45:30.902883,SEARCHING,2.633,1.000,0.00,0.00,46.98,2.661,4.400,2.692,4.400,2.311,0.700,0.123,-0.002,-0.004
2026-05-10 20:45:31.118527,SEARCHING,2.728,1.000,0.00,0.00,46.96,2.724,4.160,2.600,4.160,2.434,0.700,0.102,0.008,0.016
2026-05-10 20:45:31.331775,SEARCHING,2.824,1.000,0.00,0.00,47.10,2.692,4.160,2.487,4.160,2.460,0.700,0.100,0.014,0.028
2026-05-10 20:45:31.523028,SEARCHING,2.919,1.000,0.00,0.00,47.44,3.415,4.014,2.311,4.014,2.571,0.700,0.084,0.063,0.126
2026-05-10 20:45:31.749924,SEARCHING,3.013,1.000,0.00,0.00,48.66,3.467,3.945,2.311,4.014,2.487,0.700,0.092,0.065,0.130
2026-05-10 20:45:31.979493,SEARCHING,3.104,1.000,0.00,0.00,50.11,3.365,4.086,2.311,3.814,2.487,0.700,0.084,0.061,0.122
2026-05-10 20:45:32.161797,SEARCHING,3.193,1.000,0.00,0.00,51.48,3.269,5.085,2.335,4.487,2.460,0.700,0.110,0.055,0.110
2026-05-10 20:45:32.363395,SEARCHING,3.279,1.000,0.00,0.00,52.74,3.269,5.085,2.335,4.487,2.460,0.700,0.110,0.055,0.110
2026-05-10 20:45:32.568315,SEARCHING,3.362,1.000,0.00,0.00,53.89,3.011,4.576,2.434,4.400,2.434,0.700,0.110,0.035,0.071
2026-05-10 20:45:32.785917,SEARCHING,3.444,1.000,0.00,0.00,54.69,2.934,4.237,2.460,4.160,2.460,0.700,0.100,0.029,0.059
2026-05-10 20:45:33.011706,SEARCHING,3.525,1.000,0.00,0.00,55.39,2.934,4.237,2.460,4.160,2.460,0.700,0.100,0.029,0.059
2026-05-10 20:45:33.235303,SEARCHING,3.603,1.000,0.00,0.00,55.99,2.757,4.086,2.487,4.237,2.266,0.700,0.123,0.018,0.035
2026-05-10 20:45:33.447622,SEARCHING,3.681,1.000,0.00,0.00,56.40,2.630,3.751,2.571,4.160,2.335,0.700,0.113,0.004,0.008
2026-05-10 20:45:33.671157,SEARCHING,3.759,1.000,0.00,0.00,56.57,2.630,3.751,2.571,4.160,2.335,0.700,0.113,0.004,0.008
2026-05-10 20:45:33.874437,SEARCHING,3.836,1.000,0.00,0.00,56.69,2.571,3.632,2.434,4.160,2.514,0.700,0.094,0.010,0.020
2026-05-10 20:45:34.082850,SEARCHING,3.912,1.000,0.00,0.00,56.92,2.460,3.269,2.335,4.160,2.514,0.700,0.094,0.010,0.020
2026-05-10 20:45:34.295072,SEARCHING,3.989,1.000,0.00,0.00,57.02,2.409,3.178,2.896,4.160,2.460,0.700,0.100,-0.031,-0.063
2026-05-10 20:45:34.504972,SEARCHING,4.065,1.000,0.00,0.00,56.41,2.409,3.178,2.896,4.160,2.460,0.700,0.100,-0.031,-0.063
2026-05-10 20:45:34.724345,SEARCHING,4.143,1.000,0.00,0.00,55.69,2.359,2.934,2.630,4.086,2.434,0.700,0.100,-0.020,-0.039
2026-05-10 20:45:34.930197,SEARCHING,4.223,1.000,0.00,0.00,55.17,2.384,2.790,2.487,4.086,2.460,0.700,0.097,-0.008,-0.016
2026-05-10 20:45:35.149267,SEARCHING,4.303,1.000,0.00,0.00,54.92,2.384,2.790,2.487,4.086,2.460,0.700,0.097,-0.008,-0.016
2026-05-10 20:45:35.369712,SEARCHING,4.384,1.000,0.00,0.00,54.72,2.335,2.630,2.487,4.160,2.434,0.700,0.102,-0.012,-0.024
2026-05-10 20:45:35.601714,SEARCHING,4.465,1.000,0.00,0.00,54.45,2.311,2.384,2.384,4.237,2.243,0.700,0.126,-0.006,-0.012
2026-05-10 20:45:35.813005,SEARCHING,4.546,1.000,0.00,0.00,54.28,2.288,2.311,2.159,4.317,2.119,0.700,0.144,0.012,0.024
2026-05-10 20:45:36.025247,SEARCHING,4.628,1.000,0.00,0.00,54.41,2.288,2.311,2.159,4.317,2.119,0.700,0.144,0.012,0.024
2026-05-10 20:45:36.243489,SEARCHING,4.709,1.000,0.00,0.00,54.58,2.222,2.222,2.243,4.086,1.747,0.700,0.197,-0.002,-0.004
2026-05-10 20:45:36.455975,SEARCHING,4.791,1.000,0.00,0.00,54.51,2.222,2.222,2.243,4.086,1.747,0.700,0.197,-0.002,-0.004
2026-05-10 20:45:36.671660,SEARCHING,4.872,1.000,0.00,0.00,54.42,2.138,2.200,2.243,3.945,1.486,0.700,0.252,-0.010,-0.020
2026-05-10 20:45:36.868698,SEARCHING,4.953,1.000,0.00,0.00,54.21,2.138,2.179,2.222,3.878,1.515,0.700,0.241,-0.008,-0.016
2026-05-10 20:45:37.092134,SEARCHING,5.036,1.000,0.00,0.00,53.98,2.159,2.138,2.222,3.814,1.354,0.700,0.286,-0.006,-0.012
2026-05-10 20:45:37.289542,SEARCHING,5.118,1.000,0.00,0.00,53.79,2.222,2.288,2.288,3.751,1.186,0.700,0.346,-0.006,-0.012
2026-05-10 20:45:37.501371,SEARCHING,5.201,1.000,0.00,0.00,53.65,2.222,2.288,2.288,3.751,1.186,0.700,0.346,-0.006,-0.012
2026-05-10 20:45:37.726935,SEARCHING,5.284,1.000,0.00,0.00,53.52,2.222,2.288,2.288,3.751,1.186,0.700,0.346,-0.006,-0.012
2026-05-10 20:45:37.924548,SEARCHING,5.367,1.000,0.00,0.00,52.89,2.119,3.415,3.691,3.467,0.870,0.700,0.517,-0.090,-0.181
2026-05-10 20:45:38.153648,SEARCHING,5.454,1.000,0.00,0.00,50.80,2.179,3.467,3.632,3.632,0.854,0.700,0.538,-0.083,-0.165
2026-05-10 20:45:38.365370,SEARCHING,5.544,1.000,0.00,0.00,48.88,2.200,3.575,3.365,3.632,0.870,0.700,0.524,-0.071,-0.142
2026-05-10 20:45:38.565121,SEARCHING,5.637,1.000,0.00,0.00,47.23,2.266,3.691,3.365,3.520,0.860,0.700,0.527,-0.065,-0.130
2026-05-10 20:45:38.791609,SEARCHING,5.734,1.000,0.00,0.00,45.72,2.222,4.160,3.365,3.269,0.880,0.700,0.498,-0.069,-0.138
2026-05-10 20:45:39.008239,SEARCHING,5.833,1.000,0.00,0.00,44.14,2.222,4.160,3.365,3.269,0.880,0.700,0.498,-0.069,-0.138
2026-05-10 20:45:39.214916,SEARCHING,5.934,1.000,0.00,0.00,42.62,2.288,4.487,3.269,3.011,0.860,0.700,0.498,-0.059,-0.118
2026-05-10 20:45:39.427632,SEARCHING,6.038,1.000,0.00,0.00,41.27,2.409,4.767,3.051,2.860,0.873,0.700,0.477,-0.039,-0.079
2026-05-10 20:45:39.645885,SEARCHING,6.144,1.000,0.00,0.00,40.29,2.409,4.868,2.934,2.724,0.877,0.700,0.464,-0.033,-0.067
2026-05-10 20:45:39.877016,SEARCHING,6.252,1.000,0.00,0.00,39.52,2.460,4.974,2.790,2.460,0.857,0.700,0.456,-0.022,-0.043
2026-05-10 20:45:40.097384,SEARCHING,6.360,1.000,0.00,0.00,38.97,2.460,4.974,2.757,2.434,0.857,0.700,0.454,-0.020,-0.039
2026-05-10 20:45:40.320488,SEARCHING,6.469,1.000,0.00,0.00,38.57,2.487,5.085,2.661,2.359,0.860,0.700,0.443,-0.012,-0.024
2026-05-10 20:45:40.537284,SEARCHING,6.579,1.000,0.00,0.00,38.30,2.487,5.085,2.661,2.359,0.860,0.700,0.443,-0.012,-0.024
2026-05-10 20:45:40.755611,SEARCHING,6.689,1.000,0.00,0.00,38.16,2.487,5.085,2.335,2.159,0.857,0.700,0.422,0.012,0.024
2026-05-10 20:45:40.946287,SEARCHING,6.799,1.000,0.00,0.00,38.43,2.487,5.085,2.335,2.159,0.857,0.700,0.422,0.012,0.024
2026-05-10 20:45:41.157534,SEARCHING,6.908,1.000,0.00,0.00,38.70,2.487,5.085,2.335,2.159,0.857,0.700,0.422,0.012,0.024
2026-05-10 20:45:41.370509,SEARCHING,7.017,1.000,0.00,0.00,38.97,2.487,5.085,2.335,2.159,0.857,0.700,0.422,0.012,0.024
2026-05-10 20:45:41.580445,SEARCHING,7.126,1.000,0.00,0.00,39.50,2.384,4.670,1.831,2.138,1.658,0.700,0.081,0.057,0.114
2026-05-10 20:45:41.792197,SEARCHING,7.233,1.000,0.00,0.00,40.81,2.384,4.670,1.831,2.138,1.658,0.700,0.081,0.057,0.114
2026-05-10 20:45:42.025732,SEARCHING,7.338,1.000,0.00,0.00,42.12,2.384,4.670,1.831,2.138,1.658,0.700,0.081,0.057,0.114
2026-05-10 20:45:42.245449,SEARCHING,7.441,1.000,0.00,0.00,43.51,2.061,3.691,5.321,2.099,2.025,0.700,0.010,-0.134,-0.267
2026-05-10 20:45:42.436946,SEARCHING,7.543,1.000,0.00,0.00,41.60,2.025,3.632,5.448,2.119,2.061,0.700,0.008,-0.140,-0.279
2026-05-10 20:45:42.647027,SEARCHING,7.650,1.000,0.00,0.00,38.40,2.138,4.014,5.448,2.119,2.061,0.700,0.008,-0.128,-0.256
2026-05-10 20:45:42.861853,SEARCHING,7.762,1.000,0.00,0.00,35.42,2.159,4.160,5.321,2.099,2.080,0.700,0.003,-0.124,-0.248
2026-05-10 20:45:43.078939,SEARCHING,7.878,1.000,0.00,0.00,32.58,2.159,4.160,5.321,2.099,2.080,0.700,0.003,-0.124,-0.248
2026-05-10 20:45:43.285233,SEARCHING,7.997,1.000,0.00,0.00,29.74,2.159,4.160,5.321,2.099,2.080,0.700,0.003,-0.124,-0.248
2026-05-10 20:45:44.221997,SEARCHING,8.120,1.000,0.00,0.00,26.90,2.159,4.160,5.321,2.099,2.080,0.700,0.003,-0.124,-0.248
2026-05-10 20:45:44.291595,SEARCHING,8.247,1.000,0.00,0.00,24.07,2.159,4.160,5.321,2.099,2.080,0.700,0.003,-0.124,-0.248
2026-05-10 20:45:45.824745,SEARCHING,8.408,1.000,0.00,0.00,20.52,2.159,4.160,5.321,2.099,2.080,0.700,0.003,-0.124,-0.248
2026-05-10 20:45:45.896951,SEARCHING,8.574,1.000,0.00,0.00,16.97,2.159,4.160,5.321,2.099,2.080,0.700,0.003,-0.124,-0.248
2026-05-10 20:45:46.119987,SEARCHING,8.709,1.000,0.00,0.00,14.13,4.237,4.487,2.790,4.086,2.222,0.700,0.123,0.055,0.110
2026-05-10 20:45:46.306477,SEARCHING,8.845,1.000,0.00,0.00,14.36,4.237,4.487,2.790,4.086,2.222,0.700,0.123,0.055,0.110
2026-05-10 20:45:46.523200,SEARCHING,8.980,1.000,0.00,0.00,15.63,4.237,4.487,2.790,4.086,2.222,0.700,0.123,0.055,0.110
2026-05-10 20:45:46.736051,SEARCHING,9.114,1.000,0.00,0.00,16.89,3.751,3.751,2.724,3.814,2.243,0.700,0.110,0.045,0.090
2026-05-10 20:45:46.968002,SEARCHING,9.248,1.000,0.00,0.00,17.98,3.751,3.751,2.724,3.814,2.243,0.700,0.110,0.045,0.090
2026-05-10 20:45:47.149850,SEARCHING,9.381,1.000,0.00,0.00,19.02,3.751,3.751,2.724,3.814,2.243,0.700,0.110,0.045,0.090
2026-05-10 20:45:47.358656,SEARCHING,9.513,1.000,0.00,0.00,20.05,3.751,3.751,2.724,3.814,2.243,0.700,0.110,0.045,0.090
2026-05-10 20:45:47.563801,SEARCHING,9.644,1.000,0.00,0.00,21.09,3.134,3.092,3.092,3.632,2.243,0.700,0.102,0.002,0.004
2026-05-10 20:45:47.775460,SEARCHING,9.774,1.000,0.00,0.00,21.41,3.051,3.011,2.934,3.632,2.311,0.700,0.094,0.006,0.012
2026-05-10 20:45:47.988284,SEARCHING,9.904,1.000,0.00,0.00,21.48,2.860,2.860,2.860,3.575,2.311,0.700,0.092,0.000,0.000
2026-05-10 20:45:48.205672,SEARCHING,10.035,1.000,0.00,0.00,21.46,2.860,2.860,2.860,3.575,2.311,0.700,0.092,0.000,0.000
2026-05-10 20:45:48.440052,SEARCHING,10.165,1.000,0.00,0.00,21.51,2.600,2.514,2.542,3.632,2.359,0.700,0.089,0.004,0.008
2026-05-10 20:45:48.642209,SEARCHING,10.295,1.000,0.00,0.00,21.65,2.487,2.487,2.514,3.632,2.335,0.700,0.092,-0.002,-0.004
2026-05-10 20:45:48.862477,SEARCHING,10.425,1.000,0.00,0.00,21.67,2.434,2.409,2.409,3.632,2.179,0.700,0.110,0.002,0.004
2026-05-10 20:45:49.071554,SEARCHING,10.555,1.000,0.00,0.00,21.68,2.335,2.266,2.222,3.751,2.025,0.700,0.136,0.010,0.020
2026-05-10 20:45:49.293561,SEARCHING,10.686,1.000,0.00,0.00,21.86,2.159,2.200,2.159,3.751,1.956,0.700,0.147,0.000,0.000
2026-05-10 20:45:49.487914,SEARCHING,10.815,1.000,0.00,0.00,21.91,2.179,2.119,2.138,3.814,1.760,0.700,0.184,0.004,0.008
2026-05-10 20:45:49.691663,SEARCHING,10.945,1.000,0.00,0.00,21.98,2.179,2.119,2.138,3.814,1.760,0.700,0.184,0.004,0.008
2026-05-10 20:45:49.900814,SEARCHING,11.075,1.000,0.00,0.00,22.07,2.200,2.200,2.138,3.632,1.525,0.700,0.228,0.006,0.012
2026-05-10 20:45:50.112781,SEARCHING,11.205,1.000,0.00,0.00,22.19,2.200,2.200,2.138,3.632,1.525,0.700,0.228,0.006,0.012
2026-05-10 20:45:50.322887,SEARCHING,11.334,1.000,0.00,0.00,22.32,2.179,2.119,2.138,3.415,1.315,0.700,0.281,0.004,0.008
2026-05-10 20:45:50.533038,SEARCHING,11.464,1.000,0.00,0.00,22.40,2.200,2.061,2.179,3.316,1.198,0.700,0.320,0.002,0.004
2026-05-10 20:45:50.735633,SEARCHING,11.593,1.000,0.00,0.00,22.44,2.200,2.061,2.179,3.316,1.198,0.700,0.320,0.002,0.004
2026-05-10 20:45:50.942382,SEARCHING,11.723,1.000,0.00,0.00,22.47,2.119,2.099,2.159,3.011,0.901,0.700,0.467,-0.004,-0.008
2026-05-10 20:45:51.143925,SEARCHING,11.852,1.000,0.00,0.00,22.39,2.243,2.243,2.335,2.972,0.817,0.700,0.532,-0.008,-0.016
2026-05-10 20:45:51.364886,SEARCHING,11.981,1.000,0.00,0.00,22.23,2.243,2.243,2.335,2.972,0.817,0.700,0.532,-0.008,-0.016
2026-05-10 20:45:51.592398,SEARCHING,12.111,1.000,0.00,0.00,22.07,2.200,2.825,2.222,2.860,0.809,0.700,0.532,-0.002,-0.004
2026-05-10 20:45:51.786221,SEARCHING,12.241,1.000,0.00,0.00,22.01,2.200,2.825,2.222,2.860,0.809,0.700,0.532,-0.002,-0.004
2026-05-10 20:45:51.994069,SEARCHING,12.371,1.000,0.00,0.00,21.97,2.200,2.825,2.222,2.860,0.809,0.700,0.532,-0.002,-0.004
2026-05-10 20:45:52.199515,SEARCHING,12.501,1.000,0.00,0.00,21.92,1.956,2.571,2.025,2.571,0.811,0.700,0.506,-0.008,-0.016
2026-05-10 20:45:52.415628,SEARCHING,12.631,1.000,0.00,0.00,21.78,1.956,2.571,2.025,2.571,0.811,0.700,0.506,-0.008,-0.016
2026-05-10 20:45:52.661427,SEARCHING,12.761,1.000,0.00,0.00,21.18,1.646,2.384,2.288,2.359,0.814,0.700,0.482,-0.077,-0.153
2026-05-10 20:45:52.846546,SEARCHING,12.892,1.000,0.00,0.00,19.37,1.589,2.359,2.222,2.359,0.814,0.700,0.482,-0.081,-0.161
2026-05-10 20:45:53.067665,SEARCHING,13.025,1.000,0.00,0.00,17.52,1.448,2.311,2.179,2.409,0.803,0.700,0.498,-0.104,-0.208
2026-05-10 20:45:53.277581,SEARCHING,13.159,1.000,0.00,0.00,15.27,1.448,2.266,2.061,2.487,0.809,0.700,0.501,-0.092,-0.185
2026-05-10 20:45:53.481478,SEARCHING,13.294,1.000,0.00,0.00,13.08,1.448,2.266,2.061,2.487,0.809,0.700,0.501,-0.092,-0.185
2026-05-10 20:45:53.723792,SEARCHING,13.431,1.000,0.00,0.00,11.19,1.505,1.990,1.774,3.223,0.817,0.696,0.548,-0.045,-0.090
2026-05-10 20:45:53.928365,SEARCHING,13.568,1.000,0.00,0.00,10.11,1.505,1.990,1.774,3.223,0.817,0.696,0.548,-0.045,-0.090
2026-05-10 20:45:54.128054,SEARCHING,13.702,1.000,0.00,0.00,9.26,1.505,1.788,1.567,3.365,1.708,0.626,0.173,-0.012,-0.024
2026-05-10 20:45:54.339584,SEARCHING,13.826,1.000,0.00,0.00,8.99,1.505,1.788,1.567,3.365,1.708,0.626,0.173,-0.012,-0.024
2026-05-10 20:45:54.554225,SEARCHING,13.945,1.000,0.00,0.00,8.89,1.486,1.496,1.378,3.316,1.430,0.523,0.239,0.024,0.047
2026-05-10 20:45:54.759789,SEARCHING,14.049,1.000,0.00,0.00,9.40,1.486,1.496,1.378,3.316,1.430,0.523,0.239,0.024,0.047
2026-05-10 20:45:54.986449,SEARCHING,14.148,1.000,0.00,0.00,10.07,1.395,1.250,1.217,3.134,1.300,0.438,0.270,0.047,0.094
2026-05-10 20:45:55.171790,SEARCHING,14.234,1.000,0.00,0.00,11.15,1.395,1.250,1.217,3.134,1.300,0.438,0.270,0.047,0.094
2026-05-10 20:45:55.396871,SEARCHING,14.320,1.000,0.00,0.00,12.24,1.278,1.074,1.040,2.757,1.022,0.376,0.370,0.081,0.161
2026-05-10 20:45:55.601577,SEARCHING,14.396,1.000,0.00,0.00,13.89,1.204,1.040,0.957,2.571,0.953,0.364,0.396,0.096,0.193
2026-05-10 20:45:55.809752,SEARCHING,14.467,1.000,0.00,0.00,16.06,1.186,1.012,0.930,2.542,0.999,0.354,0.364,0.104,0.208
2026-05-10 20:45:56.064430,INSPECTING,14.525,1.000,0.00,0.00,18.09,1.074,0.961,0.829,2.243,0.934,0.350,0.550,0.552,0.850
2026-05-10 20:45:56.248102,INSPECTING,14.586,1.000,0.00,0.00,27.34,1.054,0.942,0.820,2.159,0.930,0.350,0.550,0.552,0.850
2026-05-10 20:45:56.486983,INSPECTING,14.646,1.000,0.00,0.00,37.08,0.806,0.949,0.778,1.150,0.957,0.350,0.550,0.552,0.850
2026-05-10 20:45:56.698554,INSPECTING,14.698,1.000,0.00,0.00,46.82,0.658,0.847,0.792,0.851,0.847,0.350,0.550,-0.552,-0.850
2026-05-10 20:45:56.872744,INSPECTING,14.749,1.000,0.00,0.00,38.05,0.630,0.823,0.741,0.817,0.820,0.350,0.550,-0.552,-0.850
2026-05-10 20:45:57.117663,INSPECTING,14.807,1.000,0.00,0.00,28.31,0.632,0.857,0.695,0.854,0.854,0.350,0.550,-0.552,-0.850
2026-05-10 20:45:57.410436,INSPECTING,14.871,1.000,0.00,0.00,18.57,0.632,0.857,0.695,0.854,0.854,0.350,0.550,-0.552,-0.850
2026-05-10 20:45:57.705962,INSPECTING,14.939,1.000,0.00,0.00,8.83,0.632,0.857,0.695,0.854,0.854,0.350,0.550,-0.552,-0.850
2026-05-10 20:45:57.957664,INSPECTING,15.008,1.000,0.00,0.00,-0.91,0.487,0.460,0.438,4.317,0.459,0.000,0.000,0.000,0.000
2026-05-10 20:45:58.246086,TURNING,15.095,1.000,0.00,0.00,-13.08,0.342,0.354,0.364,3.945,0.351,0.000,0.000,0.000,0.000
2026-05-10 20:45:58.364744,TURNING,15.095,1.000,0.00,0.00,-13.08,0.342,0.354,0.364,3.945,0.351,0.000,0.000,0.000,0.800
2026-05-10 20:45:58.557968,TURNING,15.095,1.000,0.00,0.00,-4.37,0.342,0.354,0.364,3.945,0.351,0.000,0.000,0.000,0.800
2026-05-10 20:45:58.757772,TURNING,15.095,1.000,0.00,0.00,4.79,0.342,0.354,0.364,3.945,0.351,0.000,0.000,0.000,0.800
2026-05-10 20:45:58.977689,TURNING,15.095,1.000,0.00,0.00,13.96,0.386,0.357,0.335,1.816,0.358,0.000,0.000,0.000,0.800
2026-05-10 20:45:59.181944,TURNING,15.095,1.000,0.00,0.00,23.13,0.450,0.385,0.338,1.611,0.386,0.000,0.000,0.000,0.800
2026-05-10 20:45:59.439449,TURNING,15.095,1.000,0.00,0.00,32.30,0.511,0.412,0.347,0.949,0.413,0.000,0.000,0.000,0.800
2026-05-10 20:45:59.625927,TURNING,15.095,1.000,0.00,0.00,41.46,0.511,0.412,0.347,0.949,0.413,0.000,0.000,0.000,0.800
2026-05-10 20:45:59.831524,TURNING,15.095,1.000,0.00,0.00,50.63,0.536,0.510,0.398,0.702,0.519,0.000,0.000,0.000,0.800
2026-05-10 20:46:00.074527,TURNING,15.095,1.000,0.00,0.00,59.80,0.497,0.604,0.469,0.602,0.602,0.000,0.000,0.000,0.800
2026-05-10 20:46:00.280430,TURNING,15.095,1.000,0.00,0.00,68.97,0.486,0.562,0.557,0.562,0.561,0.000,0.000,0.000,0.800
2026-05-10 20:46:00.476936,TURNING,15.095,1.000,0.00,0.00,78.13,0.496,0.541,0.594,0.541,0.541,0.000,0.000,0.000,0.800
2026-05-10 20:46:00.655250,TURNING,15.095,1.000,0.00,0.00,87.30,0.521,0.540,0.561,0.540,0.540,0.000,0.000,0.000,0.800
2026-05-10 20:46:00.881965,TURNING,15.095,1.000,0.00,0.00,96.47,0.554,0.547,0.541,0.547,0.547,0.000,0.000,0.000,0.800
2026-05-10 20:46:01.136818,TURNING,15.095,1.000,0.00,0.00,105.63,0.597,0.551,0.513,0.551,0.553,0.000,0.000,0.000,0.800
2026-05-10 20:46:01.321008,TURNING,15.095,1.000,0.00,0.00,114.80,0.654,0.572,0.508,0.572,0.572,0.000,0.000,0.000,0.800
2026-05-10 20:46:01.516486,TURNING,15.095,1.000,0.00,0.00,123.97,0.755,0.615,0.520,0.615,0.617,0.000,0.000,0.000,0.750
2026-05-10 20:46:01.712113,TURNING,15.095,1.000,0.00,0.00,132.74,0.908,0.679,0.542,0.677,0.679,0.000,0.000,0.000,0.597
2026-05-10 20:46:01.927688,TURNING,15.095,1.000,0.00,0.00,139.84,1.095,0.773,0.585,0.773,0.770,0.000,0.000,0.000,0.473
2026-05-10 20:46:02.164378,TURNING,15.095,1.000,0.00,0.00,145.52,2.409,0.797,0.601,0.797,0.803,0.000,0.000,0.000,0.373
2026-05-10 20:46:02.367298,TURNING,15.095,1.000,0.00,0.00,150.02,2.692,0.908,0.637,0.904,0.814,0.000,0.000,0.000,0.300
2026-05-10 20:46:02.558716,TURNING,15.095,1.000,0.00,0.00,153.62,2.825,0.965,0.665,0.974,0.817,0.000,0.000,0.000,0.300
2026-05-10 20:46:02.792747,TURNING,15.095,1.000,0.00,0.00,157.06,3.223,1.079,0.720,1.079,0.820,0.000,0.000,0.000,0.300
2026-05-10 20:46:03.025503,TURNING,15.095,1.000,0.00,0.00,160.50,3.575,2.460,0.763,2.460,0.820,0.000,0.000,0.000,0.300
2026-05-10 20:46:03.257641,RETURNING,15.095,1.000,0.00,0.00,163.42,4.160,2.571,0.835,2.600,0.823,0.274,0.400,0.000,0.600
2026-05-10 20:46:03.436762,RETURNING,15.045,1.000,0.00,0.00,169.95,4.160,2.571,0.835,2.600,0.823,0.274,0.400,0.000,0.600
2026-05-10 20:46:03.644140,RETURNING,14.990,1.000,0.00,0.00,176.82,5.867,3.316,2.138,3.316,0.838,0.279,0.400,0.000,0.238
2026-05-10 20:46:03.842773,RETURNING,14.935,1.000,0.00,-0.00,-179.00,5.867,3.316,2.138,3.316,0.838,0.279,0.400,0.000,0.238
2026-05-10 20:46:04.096151,RETURNING,14.879,1.000,0.00,-0.00,-176.27,5.321,4.014,2.384,4.014,0.809,0.270,0.400,0.000,0.185
2026-05-10 20:46:04.294828,RETURNING,14.825,1.000,0.00,-0.00,-174.12,5.321,4.014,2.384,4.014,0.809,0.270,0.400,0.000,0.185
2026-05-10 20:46:04.510600,RETURNING,14.771,1.000,0.00,-0.00,-172.01,5.200,4.670,2.600,4.160,0.826,0.275,0.400,0.000,0.154
2026-05-10 20:46:04.698607,RETURNING,14.717,1.000,0.00,-0.00,-170.19,5.200,4.670,2.600,4.160,0.826,0.275,0.400,0.000,0.154
2026-05-10 20:46:04.930294,RETURNING,14.663,1.000,0.00,-0.00,-168.43,5.200,4.670,2.600,4.160,0.826,0.275,0.400,0.000,0.154
2026-05-10 20:46:05.108612,RETURNING,14.609,1.000,0.00,-0.00,-166.66,5.200,4.670,2.600,4.160,0.826,0.275,0.400,0.000,0.154
2026-05-10 20:46:05.356910,RETURNING,14.556,1.000,0.00,-0.00,-164.95,4.086,5.867,3.134,4.086,0.789,0.263,0.400,0.000,0.059
2026-05-10 20:46:05.577857,RETURNING,14.505,1.000,0.00,-0.00,-164.22,3.814,5.867,3.316,4.160,0.820,0.273,0.400,0.000,0.031
2026-05-10 20:46:05.785204,RETURNING,14.453,1.000,0.00,-0.00,-163.72,3.814,5.867,3.316,4.160,0.820,0.273,0.400,0.000,0.031
2026-05-10 20:46:05.988205,RETURNING,14.401,1.000,0.00,-0.00,-163.36,3.691,5.581,3.365,4.086,0.814,0.271,0.400,0.000,0.021
2026-05-10 20:46:06.195929,RETURNING,14.349,1.000,0.00,-0.00,-163.06,3.814,5.448,3.467,4.160,0.814,0.271,0.400,0.000,0.021
2026-05-10 20:46:06.404938,RETURNING,14.297,1.000,0.00,-0.00,-162.82,3.814,5.448,3.467,4.160,0.814,0.271,0.400,0.000,0.021
2026-05-10 20:46:06.620781,RETURNING,14.245,1.000,0.00,-0.00,-162.60,3.575,5.200,3.415,4.086,0.823,0.274,0.400,0.000,0.010
2026-05-10 20:46:06.832463,RETURNING,14.192,1.000,0.00,-0.00,-162.48,3.575,5.085,3.415,4.086,0.820,0.273,0.400,0.000,0.010
2026-05-10 20:46:07.069106,RETURNING,14.140,1.000,0.00,-0.00,-162.36,3.575,5.085,3.415,4.160,0.814,0.271,0.400,0.000,0.010
2026-05-10 20:46:07.270327,RETURNING,14.089,1.000,0.00,-0.00,-162.22,3.575,5.085,3.467,3.945,0.806,0.269,0.400,0.000,0.007
2026-05-10 20:46:07.491080,RETURNING,14.037,1.000,0.00,-0.00,-162.15,3.520,4.868,3.467,4.086,0.820,0.273,0.400,0.000,0.003
2026-05-10 20:46:07.668903,RETURNING,13.985,1.000,0.00,-0.00,-162.10,3.575,4.974,3.467,3.945,0.820,0.273,0.400,0.000,0.007
2026-05-10 20:46:07.889499,RETURNING,13.933,1.000,0.00,-0.00,-162.02,3.575,4.974,3.467,3.945,0.820,0.273,0.400,0.000,0.007
2026-05-10 20:46:08.104379,RETURNING,13.881,1.000,0.00,-0.00,-161.94,3.575,4.974,3.467,3.945,0.820,0.273,0.400,0.000,0.007
2026-05-10 20:46:08.331747,RETURNING,13.830,1.000,0.00,-0.00,-161.87,3.520,4.767,3.467,3.751,0.809,0.270,0.400,0.000,0.003
2026-05-10 20:46:08.513012,RETURNING,13.778,1.000,0.00,-0.00,-161.82,3.520,4.767,3.467,3.751,0.809,0.270,0.400,0.000,0.003
2026-05-10 20:46:08.741208,RETURNING,13.727,1.000,0.00,-0.00,-161.78,3.520,4.767,3.467,3.751,0.809,0.270,0.400,0.000,0.003
2026-05-10 20:46:08.969758,RETURNING,13.676,1.000,0.00,-0.00,-161.74,3.520,4.487,3.415,3.632,0.826,0.275,0.400,0.000,0.007
2026-05-10 20:46:09.173596,RETURNING,13.624,1.000,0.00,-0.00,-161.69,3.520,4.487,3.415,3.632,0.826,0.275,0.400,0.000,0.007
2026-05-10 20:46:09.383171,RETURNING,13.572,1.000,0.00,-0.00,-161.61,3.520,4.487,3.365,3.467,0.814,0.271,0.400,0.000,0.010
2026-05-10 20:46:09.603704,RETURNING,13.520,1.000,0.00,-0.00,-161.49,3.520,4.400,3.316,3.467,0.817,0.272,0.400,0.000,0.014
2026-05-10 20:46:09.828334,RETURNING,13.469,1.000,0.00,-0.00,-161.33,3.520,4.400,3.316,3.467,0.817,0.272,0.400,0.000,0.014
2026-05-10 20:46:10.042306,RETURNING,13.417,1.000,0.00,-0.00,-161.18,3.520,4.237,3.415,3.269,0.809,0.270,0.400,0.000,0.007
2026-05-10 20:46:10.248731,RETURNING,13.366,1.000,0.00,-0.00,-161.10,3.467,4.237,3.415,3.316,0.778,0.259,0.400,0.000,0.003
2026-05-10 20:46:10.461443,RETURNING,13.315,1.000,0.00,-0.00,-161.06,3.467,4.237,3.365,3.223,2.243,0.500,0.068,0.000,0.007
2026-05-10 20:46:10.665789,RETURNING,13.220,1.000,0.00,-0.00,-160.98,3.467,4.237,3.365,3.223,2.243,0.500,0.068,0.000,0.007
2026-05-10 20:46:10.889165,RETURNING,13.126,1.000,0.00,-0.00,-160.90,3.467,4.237,3.365,3.223,2.243,0.500,0.068,0.000,0.007
2026-05-10 20:46:11.096007,RETURNING,13.031,1.000,0.00,-0.00,-160.82,3.632,4.014,3.316,2.896,2.243,0.500,0.050,0.000,0.021
2026-05-10 20:46:11.315263,RETURNING,12.937,1.000,0.00,-0.00,-160.63,3.751,3.814,3.316,2.825,2.243,0.500,0.046,0.000,0.028
2026-05-10 20:46:11.539387,RETURNING,12.842,1.000,0.00,-0.00,-160.36,3.632,3.751,3.316,2.600,2.243,0.500,0.031,0.000,0.021
2026-05-10 20:46:11.751680,RETURNING,12.748,1.000,0.00,-0.00,-160.14,3.365,3.632,3.269,2.542,2.243,0.500,0.026,0.000,0.007
2026-05-10 20:46:11.946466,RETURNING,12.654,1.000,0.00,-0.00,-160.06,3.365,3.632,3.269,2.542,2.243,0.500,0.026,0.000,0.007
2026-05-10 20:46:12.158827,RETURNING,12.560,1.000,0.00,-0.00,-159.98,3.365,3.632,3.269,2.542,2.243,0.500,0.026,0.000,0.007
2026-05-10 20:46:12.368966,RETURNING,12.466,1.000,0.00,-0.00,-159.91,3.269,3.223,3.223,2.311,2.179,0.500,0.013,0.000,0.003
2026-05-10 20:46:12.609754,RETURNING,12.372,1.000,0.00,-0.00,-159.87,3.269,3.223,3.223,2.311,2.179,0.500,0.013,0.000,0.003
2026-05-10 20:46:12.798020,RETURNING,12.279,1.000,0.00,-0.00,-159.86,3.134,3.092,3.223,2.179,2.159,0.500,0.002,0.000,-0.007
2026-05-10 20:46:13.016908,RETURNING,12.185,1.000,0.00,-0.00,-159.98,3.134,3.092,3.223,2.179,2.159,0.500,0.002,0.000,-0.007
2026-05-10 20:46:13.214224,RETURNING,12.091,1.000,0.00,-0.00,-160.06,2.860,2.860,3.134,2.138,2.099,0.500,0.004,0.000,-0.024
2026-05-10 20:46:13.420307,RETURNING,11.997,1.000,0.00,-0.00,-160.25,2.860,2.860,3.134,2.138,2.099,0.500,0.004,0.000,-0.024
2026-05-10 20:46:13.615849,RETURNING,11.902,1.000,0.00,-0.00,-160.53,2.860,2.860,3.134,2.138,2.099,0.500,0.004,0.000,-0.024
2026-05-10 20:46:13.842900,RETURNING,11.808,1.000,0.00,-0.00,-160.81,2.860,2.860,3.134,2.138,2.099,0.500,0.004,0.000,-0.024
2026-05-10 20:46:14.064212,RETURNING,11.714,1.000,0.00,-0.00,-161.09,2.860,2.860,3.134,2.138,2.099,0.500,0.004,0.000,-0.024
2026-05-10 20:46:14.262139,RETURNING,11.619,1.000,0.00,-0.00,-161.38,2.434,2.790,2.896,2.138,2.043,0.500,0.011,0.000,-0.052
2026-05-10 20:46:14.503616,RETURNING,11.524,1.000,0.00,-0.00,-161.99,2.288,3.632,2.860,2.159,2.043,0.500,0.013,0.000,-0.070
2026-05-10 20:46:14.687284,RETURNING,11.429,1.000,0.00,-0.00,-162.70,2.288,3.632,2.860,2.159,2.043,0.500,0.013,0.000,-0.070
2026-05-10 20:46:14.946368,RETURNING,11.333,1.000,0.00,-0.00,-163.50,2.061,4.160,2.724,2.159,2.080,0.500,0.009,0.000,-0.094
2026-05-10 20:46:15.136399,RETURNING,11.237,1.000,0.00,-0.00,-164.45,2.061,4.160,2.724,2.159,2.080,0.500,0.009,0.000,-0.094
2026-05-10 20:46:15.388471,RETURNING,11.140,1.000,0.00,-0.00,-165.54,1.860,4.160,2.542,2.119,2.061,0.500,0.007,0.000,-0.115
2026-05-10 20:46:15.560960,RETURNING,11.043,1.000,0.00,-0.00,-166.85,1.860,4.160,2.542,2.119,2.061,0.500,0.007,0.000,-0.115
2026-05-10 20:46:16.677922,RETURNING,10.946,1.000,0.00,-0.00,-168.17,1.658,3.814,2.384,2.138,2.043,0.500,0.011,0.000,-0.147
2026-05-10 20:46:18.233390,RETURNING,10.774,1.000,0.00,-0.00,-170.67,1.658,3.814,2.384,2.138,2.043,0.500,0.011,0.000,-0.147
2026-05-10 20:46:18.368307,RETURNING,10.551,1.000,0.00,-0.00,-174.45,1.658,3.814,2.384,2.138,2.043,0.500,0.011,0.000,-0.147
2026-05-10 20:46:18.607764,RETURNING,10.451,1.000,0.00,-0.00,-176.13,1.658,3.814,2.384,2.138,2.043,0.500,0.011,0.000,-0.147
2026-05-10 20:46:18.794981,RETURNING,10.351,1.000,0.00,-0.00,-177.82,3.178,2.600,1.774,2.099,1.816,0.500,0.037,0.000,0.199
2026-05-10 20:46:19.038881,RETURNING,10.251,1.000,0.00,-0.00,-177.32,3.178,2.409,1.695,2.138,1.774,0.500,0.048,0.000,0.220
2026-05-10 20:46:19.222353,RETURNING,10.152,1.000,0.00,-0.00,-174.87,3.092,2.460,1.708,2.179,1.695,0.500,0.066,0.000,0.210
2026-05-10 20:46:19.471330,RETURNING,10.052,1.000,0.00,-0.00,-172.40,2.972,2.514,1.733,2.487,1.670,0.500,0.098,0.000,0.192
2026-05-10 20:46:19.652651,RETURNING,9.953,1.000,0.00,-0.00,-170.07,2.972,2.514,1.733,2.487,1.670,0.500,0.098,0.000,0.192
2026-05-10 20:46:19.875562,RETURNING,9.831,1.000,0.00,-0.00,-167.31,2.661,2.724,1.733,2.724,1.658,0.500,0.118,0.000,0.161
2026-05-10 20:46:20.067241,RETURNING,9.758,1.000,0.00,-0.00,-165.86,2.487,2.757,1.733,2.757,1.658,0.500,0.120,0.000,0.140
2026-05-10 20:46:20.299224,RETURNING,9.661,1.000,0.00,-0.00,-164.15,2.571,2.860,1.760,2.860,1.658,0.500,0.127,0.000,0.143
2026-05-10 20:46:20.505448,RETURNING,9.565,1.000,0.00,-0.00,-162.54,2.514,2.757,1.747,3.011,1.670,0.500,0.133,0.000,0.140
2026-05-10 20:46:20.723886,RETURNING,9.470,1.000,0.00,-0.00,-160.92,2.514,2.757,1.747,3.011,1.670,0.500,0.133,0.000,0.140
2026-05-10 20:46:20.920675,RETURNING,9.376,1.000,0.00,-0.00,-159.32,2.514,2.757,1.747,3.011,1.670,0.500,0.133,0.000,0.140
2026-05-10 20:46:21.114561,RETURNING,9.283,1.000,0.00,-0.00,-157.72,2.514,2.757,1.747,3.011,1.670,0.500,0.133,0.000,0.140
2026-05-10 20:46:21.342541,RETURNING,9.191,1.000,0.00,-0.00,-156.11,2.311,2.434,1.907,3.575,1.670,0.500,0.160,0.000,0.073
2026-05-10 20:46:21.558678,RETURNING,9.100,1.000,0.00,-0.00,-154.86,2.288,2.335,1.907,3.575,1.670,0.500,0.160,0.000,0.070
2026-05-10 20:46:21.755227,RETURNING,9.010,1.000,0.00,-0.00,-154.16,2.288,2.266,1.956,3.632,1.670,0.500,0.162,0.000,0.059
2026-05-10 20:46:21.979107,RETURNING,8.920,1.000,0.00,-0.00,-153.75,2.200,2.200,1.973,3.575,1.646,0.500,0.164,0.000,0.042
2026-05-10 20:46:22.190289,RETURNING,8.830,1.000,0.00,-0.00,-153.40,2.200,2.200,1.973,3.575,1.646,0.500,0.164,0.000,0.042
2026-05-10 20:46:22.390755,RETURNING,8.741,1.000,0.00,-0.00,-152.92,2.200,2.200,1.973,3.575,1.646,0.500,0.164,0.000,0.042
2026-05-10 20:46:22.592307,RETURNING,8.652,1.000,0.00,-0.00,-152.44,2.159,2.138,1.973,3.467,1.486,0.495,0.192,0.000,0.035
2026-05-10 20:46:22.800454,RETURNING,8.564,1.000,0.00,-0.00,-152.00,2.159,2.138,1.973,3.467,1.486,0.495,0.192,0.000,0.035
2026-05-10 20:46:23.015835,RETURNING,8.477,1.000,0.00,-0.00,-151.60,2.159,2.138,1.973,3.467,1.486,0.495,0.192,0.000,0.035
2026-05-10 20:46:23.213077,RETURNING,8.390,1.000,0.00,-0.00,-151.20,2.288,3.269,2.061,3.415,1.293,0.431,0.240,0.000,0.038
2026-05-10 20:46:23.448602,RETURNING,8.314,1.000,0.00,-0.00,-150.76,2.119,3.316,2.043,3.365,1.122,0.374,0.297,0.000,0.014
2026-05-10 20:46:23.655956,RETURNING,8.244,1.000,0.00,-0.00,-150.33,2.222,3.316,2.025,3.365,1.054,0.351,0.326,0.000,0.035
2026-05-10 20:46:23.880513,RETURNING,8.183,1.000,0.00,-0.00,-148.80,2.222,3.316,2.025,3.365,1.054,0.351,0.326,0.000,0.035
2026-05-10 20:46:24.059662,RETURNING,8.123,1.000,0.00,-0.00,-148.28,5.720,3.467,2.099,3.575,0.957,0.319,0.382,0.000,0.241
2026-05-10 20:46:24.262296,RETURNING,8.070,1.000,0.00,-0.00,-145.51,5.720,3.467,2.099,3.575,0.957,0.319,0.382,0.000,0.241
2026-05-10 20:46:24.501114,RETURNING,8.018,1.000,0.00,-0.00,-142.75,3.051,4.400,2.288,4.160,0.863,0.288,0.400,0.000,0.087
2026-05-10 20:46:24.704030,RETURNING,7.970,1.000,0.00,-0.00,-140.78,2.934,4.670,2.359,4.868,0.835,0.278,0.400,0.000,0.066
2026-05-10 20:46:24.908592,RETURNING,7.927,1.000,0.00,-0.00,-139.96,2.934,4.670,2.359,4.868,0.863,0.288,0.400,0.000,0.066
2026-05-10 20:46:25.112816,RETURNING,7.883,1.000,0.00,-0.00,-139.18,3.011,4.670,2.335,4.160,0.844,0.281,0.400,0.000,0.077
2026-05-10 20:46:25.324478,RETURNING,7.840,1.000,0.00,-0.00,-138.34,2.972,4.317,2.434,4.086,0.857,0.286,0.400,0.000,0.059
2026-05-10 20:46:25.596296,RETURNING,7.798,1.000,0.00,-0.00,-137.65,2.896,4.767,2.487,4.767,0.851,0.284,0.400,0.000,0.045
2026-05-10 20:46:25.768033,RETURNING,7.756,1.000,0.00,-0.00,-137.04,2.896,4.767,2.487,4.767,0.854,0.285,0.400,0.000,0.045
2026-05-10 20:46:25.984998,RETURNING,7.714,1.000,0.00,-0.00,-136.52,2.860,4.086,2.600,4.086,0.867,0.289,0.400,0.000,0.028
2026-05-10 20:46:26.192821,RETURNING,7.673,1.000,0.00,-0.00,-136.14,2.825,4.767,2.661,4.317,0.863,0.288,0.400,0.000,0.017
2026-05-10 20:46:26.399951,RETURNING,7.631,1.000,0.00,-0.00,-135.93,2.757,4.160,2.661,4.317,0.863,0.288,0.400,0.000,0.010
2026-05-10 20:46:26.609029,RETURNING,7.590,1.000,0.00,-0.00,-135.79,2.757,4.237,2.692,4.160,0.877,0.292,0.400,0.000,0.007
2026-05-10 20:46:26.853507,RETURNING,7.548,1.000,0.00,-0.00,-135.70,2.757,4.237,2.692,4.160,0.877,0.292,0.400,0.000,0.007
2026-05-10 20:46:27.055196,RETURNING,7.507,1.000,0.00,-0.00,-135.62,2.630,4.160,2.724,4.160,0.854,0.285,0.400,0.000,-0.010
2026-05-10 20:46:27.297088,RETURNING,7.466,1.000,0.00,-0.00,-135.69,2.571,4.670,2.692,4.767,0.860,0.287,0.400,0.000,-0.014
2026-05-10 20:46:27.493472,RETURNING,7.425,1.000,0.00,-0.00,-135.83,2.542,4.160,2.692,4.086,0.844,0.281,0.400,0.000,-0.017
2026-05-10 20:46:27.721091,RETURNING,7.384,1.000,0.00,-0.00,-136.01,2.514,4.086,2.630,4.086,0.838,0.279,0.400,0.000,-0.014
2026-05-10 20:46:27.907608,RETURNING,7.344,1.000,0.00,-0.00,-136.17,2.409,4.086,2.661,4.086,0.867,0.289,0.400,0.000,-0.031
2026-05-10 20:46:28.149157,RETURNING,7.303,1.000,0.00,-0.00,-136.46,2.384,4.160,2.630,4.086,0.860,0.287,0.400,0.000,-0.031
2026-05-10 20:46:28.362550,RETURNING,7.261,1.000,0.00,-0.00,-136.83,2.384,4.160,2.630,4.086,0.860,0.287,0.400,0.000,-0.031
2026-05-10 20:46:28.585811,RETURNING,7.219,1.000,0.00,-0.00,-137.18,2.384,4.237,2.600,4.086,0.863,0.288,0.400,0.000,-0.028
2026-05-10 20:46:28.761770,RETURNING,7.177,1.000,0.00,-0.00,-137.50,2.409,4.160,2.571,4.237,0.863,0.288,0.400,0.000,-0.021
2026-05-10 20:46:29.011163,RETURNING,7.134,1.000,0.00,-0.00,-137.73,2.514,4.086,2.514,4.160,0.860,0.287,0.400,0.000,0.000
2026-05-10 20:46:29.211746,RETURNING,7.092,1.000,0.00,-0.00,-137.73,2.514,4.086,2.514,4.160,0.860,0.287,0.400,0.000,0.000
2026-05-10 20:46:29.406709,RETURNING,7.049,1.000,0.00,-0.00,-137.64,2.972,4.014,2.487,4.086,0.863,0.288,0.400,0.000,0.052
2026-05-10 20:46:29.609220,RETURNING,7.007,1.000,0.00,-0.00,-137.04,2.934,4.014,2.542,4.086,0.863,0.288,0.400,0.000,0.042
2026-05-10 20:46:29.831455,RETURNING,6.965,1.000,0.00,-0.00,-136.54,2.757,4.086,2.600,4.086,0.860,0.287,0.400,0.000,0.017
2026-05-10 20:46:30.025949,RETURNING,6.923,1.000,0.00,-0.00,-136.30,2.757,4.160,2.630,4.160,0.867,0.289,0.400,0.000,0.014
2026-05-10 20:46:30.234289,RETURNING,6.882,1.000,0.00,-0.00,-136.12,2.860,4.086,2.571,4.086,0.854,0.285,0.400,0.000,0.031
2026-05-10 20:46:30.479766,RETURNING,6.840,1.000,0.00,-0.00,-135.83,2.972,4.086,2.600,4.086,0.847,0.282,0.400,0.000,0.038
2026-05-10 20:46:30.638047,RETURNING,6.800,1.000,0.00,-0.00,-135.39,2.896,4.086,2.724,4.086,0.873,0.291,0.400,0.000,0.017
2026-05-10 20:46:30.833335,RETURNING,6.759,1.000,0.00,-0.00,-135.11,2.934,4.086,2.790,4.086,0.867,0.289,0.400,0.000,0.014
2026-05-10 20:46:31.067899,RETURNING,6.708,1.000,0.00,-0.00,-134.91,2.934,4.086,2.790,4.086,0.867,0.289,0.400,0.000,0.014
2026-05-10 20:46:31.264605,RETURNING,6.677,1.000,0.00,-0.00,-134.79,2.934,4.086,2.860,4.086,0.841,0.280,0.400,0.000,0.007
2026-05-10 20:46:31.481125,RETURNING,6.638,1.000,0.00,-0.00,-134.64,3.092,4.086,2.790,4.086,0.817,0.272,0.400,0.000,0.028
2026-05-10 20:46:31.714123,RETURNING,6.599,1.000,0.00,-0.00,-134.32,3.223,4.086,2.825,4.086,2.542,0.500,0.074,0.000,0.035
2026-05-10 20:46:31.924607,RETURNING,6.544,1.000,0.00,-0.00,-133.95,3.134,3.814,2.825,3.691,2.514,0.500,0.063,0.000,0.028
2026-05-10 20:46:32.108422,RETURNING,6.475,1.000,0.00,-0.00,-133.60,3.269,3.178,2.825,3.223,2.460,0.500,0.048,0.000,0.038
2026-05-10 20:46:32.331486,RETURNING,6.406,1.000,0.00,-0.00,-133.19,3.269,4.086,2.790,4.086,2.460,0.500,0.081,0.000,0.042
2026-05-10 20:46:32.551247,RETURNING,6.338,1.000,0.00,-0.00,-132.71,3.269,3.316,2.757,3.178,2.460,0.500,0.046,0.000,0.045
2026-05-10 20:46:32.777517,RETURNING,6.270,1.000,0.00,-0.00,-132.21,3.269,3.878,2.724,3.632,2.460,0.500,0.066,0.000,0.049
2026-05-10 20:46:32.983299,RETURNING,6.204,1.000,0.00,-0.00,-131.67,3.223,4.086,2.571,4.160,2.434,0.500,0.085,0.000,0.063
2026-05-10 20:46:33.201221,RETURNING,6.154,1.000,0.00,-0.00,-131.18,3.223,4.086,2.571,4.160,2.434,0.500,0.085,0.000,0.063
2026-05-10 20:46:33.405476,RETURNING,6.072,1.000,0.00,-0.00,-130.28,3.134,5.581,2.384,5.448,2.335,0.500,0.122,0.000,0.080
2026-05-10 20:46:33.615622,RETURNING,6.008,1.000,0.00,-0.00,-129.43,2.972,5.581,2.288,5.448,2.487,0.500,0.109,0.000,0.080
2026-05-10 20:46:33.877425,RETURNING,5.930,1.000,0.00,-0.00,-128.27,2.934,5.720,2.243,5.448,2.434,0.500,0.114,0.000,0.084
2026-05-10 20:46:34.108263,RETURNING,5.883,1.000,0.00,-0.00,-127.55,2.934,5.720,2.243,5.448,2.434,0.500,0.114,0.000,0.084
2026-05-10 20:46:34.240825,RETURNING,5.823,1.000,0.00,-0.00,-126.59,2.790,5.200,2.487,5.200,2.460,0.500,0.107,0.000,0.035
2026-05-10 20:46:34.459412,RETURNING,5.764,1.000,0.00,-0.00,-126.17,2.661,4.974,2.692,4.974,2.487,0.500,0.101,0.000,-0.003
2026-05-10 20:46:34.681259,RETURNING,5.705,1.000,0.00,-0.00,-126.16,2.692,4.974,2.724,4.974,2.487,0.500,0.101,0.000,-0.003
2026-05-10 20:46:34.900854,RETURNING,5.646,1.000,0.00,-0.00,-126.22,2.630,4.868,2.630,4.868,2.460,0.500,0.101,0.000,0.000
2026-05-10 20:46:35.154016,RETURNING,5.587,1.000,0.00,-0.00,-126.24,2.661,4.767,2.600,4.767,2.434,0.500,0.101,0.000,0.007
2026-05-10 20:46:35.362277,RETURNING,5.528,1.000,0.00,-0.00,-126.19,2.600,4.767,2.542,4.487,2.460,0.500,0.092,0.000,0.007
2026-05-10 20:46:35.580054,RETURNING,5.469,1.000,0.00,-0.00,-126.11,2.571,4.670,2.434,4.670,2.460,0.500,0.096,0.000,0.017
2026-05-10 20:46:35.791979,RETURNING,5.410,1.000,0.00,-0.00,-125.90,2.571,4.670,2.384,4.670,2.460,0.500,0.096,0.000,0.024
2026-05-10 20:46:36.021956,RETURNING,5.351,1.000,0.00,-0.00,-125.63,2.514,4.487,2.288,4.576,2.460,0.500,0.094,0.000,0.031
2026-05-10 20:46:36.222067,RETURNING,5.293,1.000,0.00,-0.00,-125.33,2.434,4.400,2.119,4.487,2.359,0.500,0.101,0.000,0.049
2026-05-10 20:46:36.424820,RETURNING,5.236,1.000,0.00,-0.00,-124.86,2.409,4.317,3.051,4.237,2.384,0.500,0.092,0.000,-0.070
2026-05-10 20:46:36.652179,RETURNING,5.178,1.000,0.00,-0.00,-125.56,2.359,4.237,3.011,4.237,2.266,0.500,0.103,0.000,-0.073
2026-05-10 20:46:36.843687,RETURNING,5.119,1.000,0.00,-0.00,-126.40,2.409,4.237,2.724,4.237,2.460,0.500,0.085,0.000,-0.038
2026-05-10 20:46:37.056658,RETURNING,5.060,1.000,0.00,-0.00,-126.90,2.409,4.237,2.692,4.237,2.243,0.500,0.105,0.000,-0.035
2026-05-10 20:46:37.260861,RETURNING,4.999,1.000,0.00,-0.00,-127.22,2.434,4.237,2.692,4.237,2.460,0.500,0.085,0.000,-0.031
2026-05-10 20:46:37.462572,RETURNING,4.939,1.000,0.00,-0.00,-127.58,2.384,4.237,2.692,4.160,2.487,0.500,0.081,0.000,-0.038
2026-05-10 20:46:37.677637,RETURNING,4.878,1.000,0.00,-0.00,-128.01,2.384,4.160,2.661,4.086,2.434,0.500,0.083,0.000,-0.035
2026-05-10 20:46:37.892829,RETURNING,4.816,1.000,0.00,-0.00,-128.39,2.359,4.086,2.600,3.814,2.487,0.500,0.070,0.000,-0.031
2026-05-10 20:46:38.120306,RETURNING,4.753,1.000,0.00,-0.00,-128.74,2.409,3.945,2.487,3.575,2.460,0.500,0.063,0.000,-0.010
2026-05-10 20:46:38.300953,RETURNING,4.691,1.000,0.00,-0.00,-128.86,2.434,3.691,2.335,3.365,2.460,0.500,0.055,0.000,0.014
2026-05-10 20:46:38.540320,RETURNING,4.628,1.000,0.00,-0.00,-128.78,2.434,3.814,2.200,3.178,2.460,0.500,0.046,0.000,0.035
2026-05-10 20:46:38.738266,RETURNING,4.566,1.000,0.00,-0.00,-128.38,2.460,3.751,3.520,3.632,2.434,0.500,0.068,0.000,-0.098
2026-05-10 20:46:38.937925,RETURNING,4.519,1.000,0.00,-0.00,-129.19,2.460,3.575,3.520,3.467,2.460,0.500,0.059,0.000,-0.098
2026-05-10 20:46:39.146629,RETURNING,4.439,1.000,0.00,-0.00,-130.61,2.460,3.467,3.415,3.316,2.460,0.500,0.052,0.000,-0.091
2026-05-10 20:46:39.365332,RETURNING,4.373,1.000,0.00,-0.00,-131.69,2.434,3.365,0.525,3.178,2.460,0.500,0.046,0.000,0.600
2026-05-10 20:46:39.571088,RETURNING,4.307,1.000,0.00,-0.00,-128.77,2.384,3.316,3.223,2.790,2.409,0.500,0.028,0.000,-0.087
2026-05-10 20:46:39.793127,RETURNING,4.244,1.000,0.00,-0.00,-129.78,2.311,3.316,3.223,3.223,2.460,0.500,0.048,0.000,-0.098
2026-05-10 20:46:39.992048,RETURNING,4.179,1.000,0.00,-0.00,-130.92,2.311,3.223,3.134,2.934,2.311,0.500,0.046,0.000,-0.091
2026-05-10 20:46:40.202576,RETURNING,4.113,1.000,0.00,-0.00,-131.98,2.288,3.051,2.972,2.896,2.460,0.500,0.031,0.000,-0.080
2026-05-10 20:46:40.431197,RETURNING,4.046,1.000,0.00,-0.00,-132.96,2.311,2.896,2.860,2.661,2.311,0.500,0.028,0.000,-0.066
2026-05-10 20:46:40.625688,RETURNING,3.977,1.000,0.00,-0.00,-133.81,2.311,2.790,2.825,2.724,2.384,0.500,0.026,0.000,-0.063
2026-05-10 20:46:40.879693,RETURNING,3.907,1.000,0.00,-0.00,-134.57,2.266,2.757,0.755,2.630,2.460,0.500,0.013,0.000,0.600
2026-05-10 20:46:41.036566,RETURNING,3.837,1.000,0.00,-0.00,-133.82,2.243,2.661,0.745,2.409,2.460,0.500,-0.004,0.000,0.600
2026-05-10 20:46:41.267645,RETURNING,3.769,1.000,0.00,-0.00,-130.72,2.138,2.600,2.542,2.311,2.460,0.500,-0.013,0.000,-0.059
2026-05-10 20:46:41.460153,RETURNING,3.703,1.000,0.00,-0.00,-131.33,2.025,2.409,2.335,2.335,2.409,0.500,-0.007,0.000,-0.052
2026-05-10 20:46:41.680724,RETURNING,3.637,1.000,0.00,-0.00,-131.97,2.025,2.335,2.311,2.335,2.335,0.500,0.000,0.000,-0.049
2026-05-10 20:46:41.858732,RETURNING,3.569,1.000,0.00,-0.00,-132.16,2.007,2.288,0.800,2.288,2.311,0.500,-0.002,0.000,0.600
2026-05-10 20:46:42.120226,RETURNING,3.506,1.000,0.00,-0.00,-125.29,1.831,2.159,2.061,1.907,2.159,0.500,-0.031,0.000,-0.049
2026-05-10 20:46:42.307181,RETURNING,3.449,1.000,0.00,-0.00,-125.42,1.720,2.790,1.956,2.790,2.460,0.500,0.024,0.000,-0.056
2026-05-10 20:46:42.493340,RETURNING,3.390,1.000,0.00,-0.00,-126.06,1.682,2.724,1.670,2.724,2.460,0.500,0.020,0.000,0.003
2026-05-10 20:46:42.713636,RETURNING,3.331,1.000,0.00,-0.00,-126.41,1.623,2.661,1.682,2.661,2.434,0.500,0.017,0.000,-0.017
2026-05-10 20:46:42.916796,RETURNING,3.272,1.000,0.00,-0.00,-126.76,1.600,2.600,1.682,2.571,2.434,0.500,0.011,0.000,-0.024
2026-05-10 20:46:43.127167,RETURNING,3.212,1.000,0.00,-0.00,-127.04,1.546,2.514,1.546,2.460,2.434,0.500,0.002,0.000,0.000
2026-05-10 20:46:43.337735,RETURNING,3.151,1.000,0.00,-0.00,-127.08,1.505,2.434,1.505,2.434,2.409,0.500,0.002,0.000,0.000
2026-05-10 20:46:43.521385,RETURNING,3.091,1.000,0.00,-0.00,-127.11,1.439,2.335,1.412,2.335,2.335,0.500,0.000,0.000,0.010
2026-05-10 20:46:43.747382,RETURNING,3.031,1.000,0.00,-0.00,-127.04,1.395,2.266,1.346,2.266,2.266,0.500,0.000,0.000,0.021
2026-05-10 20:46:43.985677,RETURNING,2.971,1.000,0.00,-0.00,-126.85,1.354,2.179,1.285,2.179,2.179,0.500,0.000,0.000,0.031
2026-05-10 20:46:44.141979,RETURNING,2.911,1.000,0.00,-0.00,-126.53,1.300,2.080,1.204,2.099,2.099,0.500,0.000,0.000,0.049
2026-05-10 20:46:44.374556,RETURNING,2.851,1.000,0.00,-0.00,-126.07,1.264,2.025,1.156,2.043,2.043,0.500,0.000,0.000,0.059
2026-05-10 20:46:44.554686,RETURNING,2.793,1.000,0.00,-0.00,-125.41,1.192,1.939,0.887,1.956,1.956,0.500,0.000,0.000,0.231
2026-05-10 20:46:44.790635,RETURNING,2.736,1.000,0.00,-0.00,-123.63,1.133,1.816,0.991,1.816,1.816,0.500,0.000,0.000,0.101
2026-05-10 20:46:44.972228,RETURNING,2.681,1.000,0.00,-0.00,-122.62,1.031,1.670,2.311,1.658,1.670,0.500,-0.002,0.000,-0.430
2026-05-10 20:46:45.191831,RETURNING,2.624,1.000,0.00,-0.00,-127.47,1.264,1.634,2.359,1.646,1.634,0.500,0.002,0.000,-0.294
2026-05-10 20:46:45.376178,RETURNING,2.561,1.000,0.00,-0.00,-131.74,1.250,1.682,10.000,1.695,1.695,0.500,0.000,0.000,-0.560
2026-05-10 20:46:45.596101,RETURNING,2.492,1.000,0.00,-0.00,-136.29,1.244,1.760,10.000,1.774,1.747,0.500,0.004,0.000,-0.563
2026-05-10 20:46:45.826489,RETURNING,2.420,1.000,0.00,-0.00,-138.03,1.204,0.753,10.000,1.695,1.708,0.251,-0.002,0.000,-0.584
2026-05-10 20:46:46.008674,RETURNING,2.360,1.000,0.00,-0.00,-144.70,1.237,1.876,0.867,1.876,1.831,0.500,0.007,0.000,0.276
2026-05-10 20:46:46.216201,RETURNING,2.279,1.000,0.00,-0.00,-145.83,1.323,2.043,0.609,2.043,2.043,0.500,0.000,0.000,0.600
2026-05-10 20:46:46.437181,RETURNING,2.199,1.000,0.00,-0.00,-139.98,1.179,0.677,10.000,1.774,1.774,0.226,0.000,0.000,-0.598
2026-05-10 20:46:46.670298,RETURNING,2.146,1.000,0.00,-0.00,-141.50,1.079,1.578,10.000,1.578,1.578,0.500,0.000,0.000,-0.600
2026-05-10 20:46:46.827586,RETURNING,2.071,1.000,0.00,-0.00,-141.50,1.050,1.546,0.708,1.546,1.536,0.500,0.002,0.000,0.367
2026-05-10 20:46:47.050730,RETURNING,1.992,1.000,0.00,-0.00,-141.17,1.059,1.589,0.445,1.578,1.589,0.500,-0.002,0.000,0.600
2026-05-10 20:46:47.247301,RETURNING,1.913,1.000,0.00,-0.00,-140.61,0.974,1.457,10.000,1.457,1.457,0.486,0.000,0.000,-0.600
2026-05-10 20:46:47.450526,RETURNING,1.834,1.000,0.00,-0.00,-147.49,0.991,10.000,10.000,10.000,2.222,0.500,0.175,0.000,-0.600
2026-05-10 20:46:47.661843,RETURNING,1.751,1.000,0.00,-0.00,-153.68,1.084,10.000,10.000,10.000,2.311,0.500,0.166,0.000,-0.600
2026-05-10 20:46:47.874783,RETURNING,1.693,1.000,0.00,-0.00,-154.36,1.074,0.506,10.000,10.000,2.335,0.169,0.164,0.000,-0.600
2026-05-10 20:46:48.986648,RETURNING,1.628,1.000,0.00,-0.00,-161.24,10.000,10.000,10.000,10.000,2.335,0.500,0.164,0.000,0.000
2026-05-10 20:46:50.584790,RETURNING,1.468,1.000,0.00,-0.00,-173.27,10.000,10.000,10.000,10.000,1.939,0.500,0.208,0.000,0.000
2026-05-10 20:46:50.737636,RETURNING,1.292,1.000,0.00,-0.00,-173.27,10.000,10.000,10.000,10.000,2.311,0.500,0.166,0.000,0.000
2026-05-10 20:46:50.923294,RETURNING,1.124,1.000,0.00,-0.00,-173.27,10.000,10.000,10.000,10.000,2.179,0.500,0.179,0.000,0.000
2026-05-10 20:46:51.136733,RETURNING,1.024,1.000,0.00,-0.00,-173.27,10.000,10.000,10.000,10.000,10.000,0.500,0.000,0.000,0.000
2026-05-10 20:46:51.342343,RETURNING,0.925,1.000,0.00,-0.00,-173.27,10.000,10.000,10.000,10.000,10.000,0.500,0.000,0.000,0.000
2026-05-10 20:46:51.567839,RETURNING,0.826,1.000,0.00,-0.00,-173.27,10.000,10.000,10.000,10.000,10.000,0.500,0.000,0.000,0.000
2026-05-10 20:46:51.775712,RETURNING,0.726,1.000,0.00,-0.00,-173.27,10.000,10.000,10.000,10.000,10.000,0.500,0.000,0.000,0.000
2026-05-10 20:46:51.964116,RETURNING,0.627,1.000,0.00,-0.00,-173.27,10.000,10.000,10.000,10.000,10.000,0.500,0.000,0.000,0.000
2026-05-10 20:46:52.192753,RETURNING,0.528,1.000,0.00,-0.00,-173.27,10.000,10.000,10.000,10.000,10.000,0.500,0.000,0.000,0.000
2026-05-10 20:46:52.382762,RETURNING,0.428,1.000,0.00,-0.00,-173.27,10.000,10.000,10.000,10.000,10.000,0.500,0.000,0.000,0.000
2026-05-10 20:46:52.596047,RETURNING,0.329,1.000,0.00,-0.00,-173.27,10.000,10.000,10.000,10.000,10.000,0.500,0.000,0.000,0.000
2026-05-10 20:46:52.819113,RETURNING,0.230,1.000,0.00,-0.00,-173.27,10.000,10.000,10.000,10.000,10.000,0.500,0.000,0.000,0.000
2026-05-10 20:46:52.993949,RETURNING,0.130,1.000,0.00,-0.00,-173.27,10.000,10.000,10.000,10.000,10.000,0.500,0.000,0.000,0.000
2026-05-10 20:46:53.161013,COMPLETED,0.036,1.000,0.00,-0.00,-173.27,10.000,10.000,10.000,10.000,10.000,0.000,0.000,0.000,0.000
2026-05-10 20:46:53.357212,COMPLETED,0.036,1.000,0.00,-0.00,-173.27,10.000,10.000,10.000,10.000,10.000,0.000,0.000,0.000,0.000
2026-05-10 20:46:53.565676,COMPLETED,0.036,1.000,0.00,-0.00,-173.27,10.000,10.000,10.000,10.000,10.000,0.000,0.000,0.000,0.000
2026-05-10 20:46:53.764940,COMPLETED,0.036,1.000,0.00,-0.00,-173.27,10.000,10.000,10.000,10.000,10.000,0.000,0.000,0.000,0.000
2026-05-10 20:46:53.962087,COMPLETED,0.036,1.000,0.00,-0.00,-173.27,10.000,10.000,10.000,10.000,10.000,0.000,0.000,0.000,0.000
2026-05-10 20:46:54.172580,COMPLETED,0.036,1.000,0.00,-0.00,-173.27,10.000,10.000,10.000,10.000,10.000,0.000,0.000,0.000,0.000
2026-05-10 20:46:54.380089,COMPLETED,0.036,1.000,0.00,-0.00,-173.27,10.000,10.000,10.000,10.000,10.000,0.000,0.000,0.000,0.000
2026-05-10 20:46:54.576989,COMPLETED,0.036,1.000,0.00,-0.00,-173.27,10.000,10.000,10.000,10.000,10.000,0.000,0.000,0.000,0.000
2026-05-10 20:46:54.780070,COMPLETED,0.036,1.000,0.00,-0.00,-173.27,10.000,10.000,10.000,10.000,10.000,0.000,0.000,0.000,0.000
2026-05-10 20:46:54.988195,COMPLETED,0.036,1.000,0.00,-0.00,-173.27,10.000,10.000,10.000,10.000,10.000,0.000,0.000,0.000,0.000
2026-05-10 20:46:55.194576,COMPLETED,0.036,1.000,0.00,-0.00,-173.27,10.000,10.000,10.000,10.000,10.000,0.000,0.000,0.000,0.000
2026-05-10 20:46:55.395462,COMPLETED,0.036,1.000,0.00,-0.00,-173.27,10.000,10.000,10.000,10.000,10.000,0.000,0.000,0.000,0.000
2026-05-10 20:46:55.600587,COMPLETED,0.036,1.000,0.00,-0.00,-173.27,10.000,10.000,10.000,10.000,10.000,0.000,0.000,0.000,0.000
2026-05-10 20:46:55.790235,COMPLETED,0.036,1.000,0.00,-0.00,-173.27,10.000,10.000,10.000,10.000,10.000,0.000,0.000,0.000,0.000
2026-05-10 20:46:56.000233,COMPLETED,0.036,1.000,0.00,-0.00,-173.27,10.000,10.000,10.000,10.000,10.000,0.000,0.000,0.000,0.000
2026-05-10 20:46:56.209351,COMPLETED,0.036,1.000,0.00,-0.00,-173.27,10.000,10.000,10.000,10.000,10.000,0.000,0.000,0.000,0.000
2026-05-10 20:46:56.400164,COMPLETED,0.036,1.000,0.00,-0.00,-173.27,10.000,10.000,10.000,10.000,10.000,0.000,0.000,0.000,0.000
2026-05-10 20:46:56.608019,COMPLETED,0.036,1.000,0.00,-0.00,-173.27,10.000,10.000,10.000,10.000,10.000,0.000,0.000,0.000,0.000
2026-05-10 20:46:56.835233,COMPLETED,0.036,1.000,0.00,-0.00,-173.27,10.000,10.000,10.000,10.000,10.000,0.000,0.000,0.000,0.000
2026-05-10 20:46:57.026545,COMPLETED,0.036,1.000,0.00,-0.00,-173.27,10.000,10.000,10.000,10.000,10.000,0.000,0.000,0.000,0.000
2026-05-10 20:46:57.231808,COMPLETED,0.036,1.000,0.00,-0.00,-173.27,10.000,10.000,10.000,10.000,10.000,0.000,0.000,0.000,0.000
2026-05-10 20:46:57.439410,COMPLETED,0.036,1.000,0.00,-0.00,-173.27,10.000,10.000,10.000,10.000,10.000,0.000,0.000,0.000,0.000
2026-05-10 20:46:57.642156,COMPLETED,0.036,1.000,0.00,-0.00,-173.27,10.000,10.000,10.000,10.000,10.000,0.000,0.000,0.000,0.000
2026-05-10 20:46:57.844727,COMPLETED,0.036,1.000,0.00,-0.00,-173.27,10.000,10.000,10.000,10.000,10.000,0.000,0.000,0.000,0.000
2026-05-10 20:46:58.055362,COMPLETED,0.036,1.000,0.00,-0.00,-173.27,10.000,10.000,10.000,10.000,10.000,0.000,0.000,0.000,0.000
2026-05-10 20:46:58.259169,COMPLETED,0.036,1.000,0.00,-0.00,-173.27,10.000,10.000,10.000,10.000,10.000,0.000,0.000,0.000,0.000
2026-05-10 20:46:58.460494,COMPLETED,0.036,1.000,0.00,-0.00,-173.27,10.000,10.000,10.000,10.000,10.000,0.000,0.000,0.000,0.000
2026-05-10 20:46:58.661872,COMPLETED,0.036,1.000,0.00,-0.00,-173.27,10.000,10.000,10.000,10.000,10.000,0.000,0.000,0.000,0.000
2026-05-10 20:46:58.866936,COMPLETED,0.036,1.000,0.00,-0.00,-173.27,10.000,10.000,10.000,10.000,10.000,0.000,0.000,0.000,0.000
2026-05-10 20:46:59.082290,COMPLETED,0.036,1.000,0.00,-0.00,-173.27,10.000,10.000,10.000,10.000,10.000,0.000,0.000,0.000,0.000
2026-05-10 20:46:59.283944,COMPLETED,0.036,1.000,0.00,-0.00,-173.27,10.000,10.000,10.000,10.000,10.000,0.000,0.000,0.000,0.000
2026-05-10 20:46:59.501000,COMPLETED,0.036,1.000,0.00,-0.00,-173.27,10.000,10.000,10.000,10.000,10.000,0.000,0.000,0.000,0.000
2026-05-10 20:46:59.688605,COMPLETED,0.036,1.000,0.00,-0.00,-173.27,10.000,10.000,10.000,10.000,10.000,0.000,0.000,0.000,0.000
2026-05-10 20:46:59.900736,COMPLETED,0.036,1.000,0.00,-0.00,-173.27,10.000,10.000,10.000,10.000,10.000,0.000,0.000,0.000,0.000
2026-05-10 20:47:00.110883,COMPLETED,0.036,1.000,0.00,-0.00,-173.27,10.000,10.000,10.000,10.000,10.000,0.000,0.000,0.000,0.000
2026-05-10 20:47:00.310926,COMPLETED,0.036,1.000,0.00,-0.00,-173.27,10.000,10.000,10.000,10.000,10.000,0.000,0.000,0.000,0.000
2026-05-10 20:47:00.515232,COMPLETED,0.036,1.000,0.00,-0.00,-173.27,10.000,10.000,10.000,10.000,10.000,0.000,0.000,0.000,0.000
2026-05-10 20:47:00.719834,COMPLETED,0.036,1.000,0.00,-0.00,-173.27,10.000,10.000,10.000,10.000,10.000,0.000,0.000,0.000,0.000
2026-05-10 20:47:00.921231,COMPLETED,0.036,1.000,0.00,-0.00,-173.27,10.000,10.000,10.000,10.000,10.000,0.000,0.000,0.000,0.000
2026-05-10 20:47:01.126121,COMPLETED,0.036,1.000,0.00,-0.00,-173.27,10.000,10.000,10.000,10.000,10.000,0.000,0.000,0.000,0.000
2026-05-10 20:47:01.330435,COMPLETED,0.036,1.000,0.00,-0.00,-173.27,10.000,10.000,10.000,10.000,10.000,0.000,0.000,0.000,0.000
2026-05-10 20:47:01.539240,COMPLETED,0.036,1.000,0.00,-0.00,-173.27,10.000,10.000,10.000,10.000,10.000,0.000,0.000,0.000,0.000
2026-05-10 20:47:01.745523,COMPLETED,0.036,1.000,0.00,-0.00,-173.27,10.000,10.000,10.000,10.000,10.000,0.000,0.000,0.000,0.000
2026-05-10 20:47:01.951906,COMPLETED,0.036,1.000,0.00,-0.00,-173.27,10.000,10.000,10.000,10.000,10.000,0.000,0.000,0.000,0.000
2026-05-10 20:47:02.155911,COMPLETED,0.036,1.000,0.00,-0.00,-173.27,10.000,10.000,10.000,10.000,10.000,0.000,0.000,0.000,0.000
2026-05-10 20:47:02.366729,COMPLETED,0.036,1.000,0.00,-0.00,-173.27,10.000,10.000,10.000,10.000,10.000,0.000,0.000,0.000,0.000
2026-05-10 20:47:02.568863,COMPLETED,0.036,1.000,0.00,-0.00,-173.27,10.000,10.000,10.000,10.000,10.000,0.000,0.000,0.000,0.000
2026-05-10 20:47:02.771833,COMPLETED,0.036,1.000,0.00,-0.00,-173.27,10.000,10.000,10.000,10.000,10.000,0.000,0.000,0.000,0.000
2026-05-10 20:47:02.978396,COMPLETED,0.036,1.000,0.00,-0.00,-173.27,10.000,10.000,10.000,10.000,10.000,0.000,0.000,0.000,0.000
2026-05-10 20:47:03.186008,COMPLETED,0.036,1.000,0.00,-0.00,-173.27,10.000,10.000,10.000,10.000,10.000,0.000,0.000,0.000,0.000
2026-05-10 20:47:03.390541,COMPLETED,0.036,1.000,0.00,-0.00,-173.27,10.000,10.000,10.000,10.000,10.000,0.000,0.000,0.000,0.000
2026-05-10 20:47:03.600433,COMPLETED,0.036,1.000,0.00,-0.00,-173.27,10.000,10.000,10.000,10.000,10.000,0.000,0.000,0.000,0.000
2026-05-10 20:47:03.791384,COMPLETED,0.036,1.000,0.00,-0.00,-173.27,10.000,10.000,10.000,10.000,10.000,0.000,0.000,0.000,0.000
2026-05-10 20:47:04.003467,COMPLETED,0.036,1.000,0.00,-0.00,-173.27,10.000,10.000,10.000,10.000,10.000,0.000,0.000,0.000,0.000
2026-05-10 20:47:04.212335,COMPLETED,0.036,1.000,0.00,-0.00,-173.27,10.000,10.000,10.000,10.000,10.000,0.000,0.000,0.000,0.000
