timestamp,state,x,z,roll_deg,pitch_deg,yaw_deg,left,center,right,top,bottom,cmd_vx,cmd_vz,cmd_roll,cmd_yaw
2026-05-10 20:19:17.250217,SEARCHING,0.000,0.000,0.00,0.00,0.00,10.000,10.000,10.000,10.000,10.000,0.700,0.000,0.000,0.000
2026-05-10 20:19:18.426835,SEARCHING,0.000,1.000,0.00,0.00,0.00,10.000,10.000,10.000,10.000,10.000,0.700,0.000,0.000,0.000
2026-05-10 20:19:18.627730,SEARCHING,0.105,1.000,0.00,0.00,0.00,10.000,10.000,10.000,10.000,10.000,0.700,0.000,0.000,0.000
2026-05-10 20:19:18.841464,SEARCHING,0.245,1.000,0.00,0.00,0.00,10.000,10.000,10.000,10.000,10.000,0.700,0.000,0.000,0.000
2026-05-10 20:19:19.068205,SEARCHING,0.385,1.000,0.00,0.00,0.00,2.790,4.974,0.957,4.868,2.460,0.700,0.121,0.309,0.618
2026-05-10 20:19:19.293784,SEARCHING,0.525,1.000,0.00,0.00,4.70,2.790,4.868,0.923,4.868,2.434,0.700,0.123,0.326,0.653
2026-05-10 20:19:19.512325,SEARCHING,0.663,1.000,0.00,0.00,12.18,2.790,4.868,0.923,4.868,2.434,0.700,0.123,0.326,0.653
2026-05-10 20:19:19.735494,SEARCHING,0.798,1.000,0.00,0.00,17.07,1.816,6.184,3.691,5.867,2.359,0.700,0.152,-0.126,-0.252
2026-05-10 20:19:19.946269,SEARCHING,0.933,1.000,0.00,0.00,14.19,1.816,6.184,3.691,5.867,2.359,0.700,0.152,-0.126,-0.252
2026-05-10 20:19:20.958151,SEARCHING,1.070,1.000,0.00,0.00,11.30,1.816,6.184,3.691,5.867,2.359,0.700,0.152,-0.126,-0.252
2026-05-10 20:19:21.004964,SEARCHING,1.207,1.000,0.00,0.00,8.42,1.816,6.184,3.691,5.867,2.359,0.700,0.152,-0.126,-0.252
2026-05-10 20:19:22.645050,SEARCHING,1.381,1.000,0.00,0.00,4.81,1.816,6.184,3.691,5.867,2.359,0.700,0.152,-0.126,-0.252
2026-05-10 20:19:22.841116,SEARCHING,1.486,1.000,0.00,0.00,2.65,1.816,6.184,3.691,5.867,2.359,0.700,0.152,-0.126,-0.252
2026-05-10 20:19:23.049332,SEARCHING,1.626,1.000,0.00,0.00,-0.23,1.816,6.184,3.691,5.867,2.359,0.700,0.152,-0.126,-0.252
2026-05-10 20:19:23.258623,SEARCHING,1.766,1.000,0.00,0.00,-3.12,1.816,6.184,3.691,5.867,2.359,0.700,0.152,-0.126,-0.252
2026-05-10 20:19:23.462683,SEARCHING,1.905,1.000,0.00,0.00,-6.00,1.816,6.184,3.691,5.867,2.359,0.700,0.152,-0.126,-0.252
2026-05-10 20:19:23.672920,SEARCHING,2.044,1.000,0.00,0.00,-8.89,1.816,6.184,3.691,5.867,2.359,0.700,0.152,-0.126,-0.252
2026-05-10 20:19:23.877202,SEARCHING,2.182,1.000,0.00,0.00,-11.77,1.816,6.184,3.691,5.867,2.359,0.700,0.152,-0.126,-0.252
2026-05-10 20:19:24.085016,SEARCHING,2.352,1.000,0.00,0.00,-12.63,4.237,2.896,2.043,2.934,2.434,0.700,0.042,0.114,0.228
2026-05-10 20:19:24.288847,SEARCHING,2.490,1.000,0.00,0.00,-9.99,3.945,2.692,1.907,2.692,2.434,0.700,0.024,0.122,0.244
2026-05-10 20:19:24.501191,SEARCHING,2.628,1.000,0.00,0.00,-7.21,3.945,2.692,1.907,2.692,2.434,0.700,0.024,0.122,0.244
2026-05-10 20:19:24.697309,SEARCHING,2.732,1.000,0.00,0.00,-5.12,4.237,2.825,1.907,2.860,2.222,0.700,0.060,0.130,0.260
2026-05-10 20:19:24.921354,SEARCHING,2.872,1.000,0.00,0.00,-2.20,4.237,2.825,1.923,2.790,2.409,0.700,0.034,0.128,0.256
2026-05-10 20:19:25.130063,SEARCHING,3.012,1.000,0.00,0.00,0.71,4.400,2.825,1.990,2.825,2.487,0.700,0.029,0.124,0.248
2026-05-10 20:19:25.338898,SEARCHING,3.152,1.000,0.00,0.00,3.55,4.400,2.825,1.990,2.825,2.487,0.700,0.029,0.124,0.248
2026-05-10 20:19:25.534980,SEARCHING,3.291,1.000,0.00,0.00,6.39,4.670,3.011,2.119,2.972,2.487,0.700,0.039,0.116,0.232
2026-05-10 20:19:25.754542,SEARCHING,3.430,1.000,0.00,0.00,9.10,4.670,3.092,2.099,3.011,2.460,0.700,0.045,0.118,0.236
2026-05-10 20:19:25.959449,SEARCHING,3.568,1.000,0.00,0.00,11.81,5.085,3.316,2.007,3.316,2.434,0.700,0.066,0.136,0.271
2026-05-10 20:19:26.179561,SEARCHING,3.704,1.000,0.00,0.00,14.82,5.085,3.316,2.007,3.316,2.434,0.700,0.066,0.136,0.271
2026-05-10 20:19:26.395645,SEARCHING,3.839,1.000,0.00,0.00,17.93,6.184,3.467,2.159,3.415,2.460,0.700,0.068,0.136,0.271
2026-05-10 20:19:26.618857,SEARCHING,3.971,1.000,0.00,0.00,21.04,6.184,3.467,2.159,3.415,2.460,0.700,0.068,0.136,0.271
2026-05-10 20:19:26.840469,SEARCHING,4.100,1.000,0.00,0.00,24.15,5.200,3.691,2.460,3.751,2.434,0.700,0.087,0.096,0.193
2026-05-10 20:19:27.051021,SEARCHING,4.227,1.000,0.00,0.00,26.58,5.200,3.691,2.460,3.751,2.434,0.700,0.087,0.096,0.193
2026-05-10 20:19:27.255854,SEARCHING,4.351,1.000,0.00,0.00,28.79,4.487,4.014,2.542,4.014,2.434,0.700,0.097,0.077,0.153
2026-05-10 20:19:27.468453,SEARCHING,4.472,1.000,0.00,0.00,30.71,4.487,4.014,2.542,4.014,2.434,0.700,0.097,0.077,0.153
2026-05-10 20:19:27.680928,SEARCHING,4.592,1.000,0.00,0.00,32.46,4.487,4.014,2.542,4.014,2.434,0.700,0.097,0.077,0.153
2026-05-10 20:19:27.898268,SEARCHING,4.709,1.000,0.00,0.00,34.22,4.487,4.014,2.542,4.014,2.434,0.700,0.097,0.077,0.153
2026-05-10 20:19:28.086413,SEARCHING,4.823,1.000,0.00,0.00,35.98,4.487,4.014,2.542,4.014,2.434,0.700,0.097,0.077,0.153
2026-05-10 20:19:28.308637,SEARCHING,4.936,1.000,0.00,0.00,37.41,3.011,4.400,2.661,5.867,2.434,0.700,0.144,0.020,0.039
2026-05-10 20:19:28.524869,SEARCHING,5.047,1.000,0.00,0.00,37.86,2.896,4.237,2.757,5.448,2.288,0.700,0.152,0.008,0.016
2026-05-10 20:19:28.736603,SEARCHING,5.157,1.000,0.00,0.00,38.11,2.896,3.945,2.757,5.200,2.460,0.700,0.128,0.008,0.016
2026-05-10 20:19:28.938940,SEARCHING,5.267,1.000,0.00,0.00,38.29,2.896,3.945,2.757,5.200,2.460,0.700,0.128,0.008,0.016
2026-05-10 20:19:29.142741,SEARCHING,5.377,1.000,0.00,0.00,38.47,2.896,3.945,2.757,5.200,2.460,0.700,0.128,0.008,0.016
2026-05-10 20:19:29.364890,SEARCHING,5.486,1.000,0.00,0.00,38.65,2.896,3.945,2.757,5.200,2.460,0.700,0.128,0.008,0.016
2026-05-10 20:19:29.607239,SEARCHING,5.595,1.000,0.00,0.00,38.83,2.825,3.520,2.661,4.767,2.434,0.700,0.121,0.010,0.020
2026-05-10 20:19:29.810571,SEARCHING,5.704,1.000,0.00,0.00,39.04,2.825,3.520,2.661,4.767,2.434,0.700,0.121,0.010,0.020
2026-05-10 20:19:30.026232,SEARCHING,5.813,1.000,0.00,0.00,39.23,2.757,3.092,2.757,4.670,2.460,0.700,0.115,0.000,0.000
2026-05-10 20:19:30.222103,SEARCHING,5.921,1.000,0.00,0.00,39.23,2.757,3.092,2.757,4.670,2.460,0.700,0.115,0.000,0.000
2026-05-10 20:19:30.437251,SEARCHING,6.057,1.000,0.00,0.00,39.37,2.757,2.790,2.571,4.317,2.409,0.700,0.110,0.012,0.024
2026-05-10 20:19:30.655079,SEARCHING,6.138,1.000,0.00,0.00,39.57,2.757,2.790,2.571,4.317,2.409,0.700,0.110,0.012,0.024
2026-05-10 20:19:30.881060,SEARCHING,6.246,1.000,0.00,0.00,39.92,2.692,2.487,2.288,4.014,2.460,0.700,0.094,0.029,0.059
2026-05-10 20:19:31.103099,SEARCHING,6.353,1.000,0.00,0.00,40.57,2.692,2.487,2.288,4.014,2.460,0.700,0.094,0.029,0.059
2026-05-10 20:19:31.326035,SEARCHING,6.458,1.000,0.00,0.00,41.33,2.542,2.243,2.025,3.878,2.243,0.700,0.113,0.045,0.090
2026-05-10 20:19:31.545754,SEARCHING,6.563,1.000,0.00,0.00,42.35,2.542,2.243,2.025,3.878,2.243,0.700,0.113,0.045,0.090
2026-05-10 20:19:31.742392,SEARCHING,6.665,1.000,0.00,0.00,43.46,2.384,2.080,1.816,3.520,2.043,0.700,0.123,0.059,0.118
2026-05-10 20:19:31.954028,SEARCHING,6.766,1.000,0.00,0.00,44.81,2.384,2.080,1.816,3.520,2.043,0.700,0.123,0.059,0.118
2026-05-10 20:19:32.161530,SEARCHING,6.864,1.000,0.00,0.00,46.17,2.384,2.080,1.816,3.520,2.043,0.700,0.123,0.059,0.118
2026-05-10 20:19:32.397301,SEARCHING,6.959,1.000,0.00,0.00,47.55,2.007,1.733,1.505,3.051,1.634,0.607,0.170,0.075,0.149
2026-05-10 20:19:32.596464,SEARCHING,7.041,1.000,0.00,0.00,49.20,2.007,1.733,1.505,3.051,1.634,0.607,0.170,0.075,0.149
2026-05-10 20:19:32.815541,SEARCHING,7.118,1.000,0.00,0.00,50.90,1.907,1.634,1.457,2.790,1.505,0.572,0.184,0.073,0.146
2026-05-10 20:19:33.025583,SEARCHING,7.189,1.000,0.00,0.00,52.57,1.733,1.467,1.395,2.487,1.370,0.513,0.197,0.063,0.126
2026-05-10 20:19:33.252805,SEARCHING,7.252,1.000,0.00,0.00,54.08,1.720,1.457,1.362,2.434,1.244,0.510,0.236,0.069,0.138
2026-05-10 20:19:33.454886,SEARCHING,7.311,1.000,0.00,0.00,55.66,1.600,1.430,1.264,2.243,1.162,0.501,0.249,0.075,0.149
2026-05-10 20:19:33.666790,SEARCHING,7.366,1.000,0.00,0.00,57.34,1.600,1.430,1.264,2.243,1.162,0.501,0.249,0.075,0.149
2026-05-10 20:19:33.872164,SEARCHING,7.419,1.000,0.00,0.00,59.05,1.600,1.430,1.264,2.243,1.162,0.501,0.249,0.075,0.149
2026-05-10 20:19:34.096010,SEARCHING,7.469,1.000,0.00,0.00,60.35,1.323,1.412,1.338,1.802,0.995,0.494,0.270,-0.004,-0.008
2026-05-10 20:19:34.292569,SEARCHING,7.518,1.000,0.00,0.00,60.29,1.278,1.378,1.278,1.682,0.930,0.482,0.288,0.000,0.000
2026-05-10 20:19:34.512206,SEARCHING,7.566,1.000,0.00,0.00,60.27,1.244,1.250,1.244,1.623,0.863,0.438,0.325,0.000,0.000
2026-05-10 20:19:34.727728,SEARCHING,7.611,1.000,0.00,0.00,60.27,1.198,1.525,1.192,1.546,0.776,0.534,0.385,0.002,0.004
2026-05-10 20:19:34.948906,SEARCHING,7.660,1.000,0.00,0.00,59.94,1.162,1.370,1.362,1.476,0.711,0.480,0.438,-0.057,-0.114
2026-05-10 20:19:35.168214,SEARCHING,7.709,1.000,0.00,0.00,58.61,1.095,1.378,1.378,1.404,0.581,0.482,0.606,-0.085,-0.169
2026-05-10 20:19:35.380002,SEARCHING,7.760,1.000,0.00,0.00,56.83,1.095,1.378,1.378,1.404,0.581,0.482,0.606,-0.085,-0.169
2026-05-10 20:19:35.576817,SEARCHING,7.814,1.000,0.00,0.00,54.90,1.095,1.378,1.378,1.404,0.581,0.482,0.606,-0.085,-0.169
2026-05-10 20:19:35.795284,SEARCHING,7.871,1.000,0.00,0.00,52.96,1.095,1.378,1.378,1.404,0.581,0.482,0.606,-0.085,-0.169
2026-05-10 20:19:36.015479,SEARCHING,7.945,1.000,0.00,0.00,50.53,1.095,1.378,1.378,1.404,0.581,0.482,0.606,-0.085,-0.169
2026-05-10 20:19:36.228520,SEARCHING,7.992,1.000,0.00,0.00,49.08,1.095,1.378,1.378,1.404,0.581,0.482,0.606,-0.085,-0.169
2026-05-10 20:19:36.437662,SEARCHING,8.056,1.000,0.00,0.00,47.14,1.095,1.378,1.378,1.404,0.581,0.482,0.606,-0.085,-0.169
2026-05-10 20:19:36.651407,SEARCHING,8.123,1.000,0.00,0.00,45.20,1.095,1.378,1.378,1.404,0.581,0.482,0.606,-0.085,-0.169
2026-05-10 20:19:36.881789,SEARCHING,8.192,1.000,0.00,0.00,43.27,1.095,1.378,1.378,1.404,0.581,0.482,0.606,-0.085,-0.169
2026-05-10 20:19:37.091058,SEARCHING,8.259,1.000,0.00,0.00,41.02,0.781,1.079,1.026,1.074,0.493,0.378,0.658,-0.138,-0.275
2026-05-10 20:19:37.308724,SEARCHING,8.317,1.000,0.00,0.00,37.87,0.781,1.079,1.026,1.074,0.493,0.378,0.658,-0.138,-0.275
2026-05-10 20:19:37.545082,SEARCHING,8.378,1.000,0.00,0.00,34.71,0.781,1.079,1.026,1.074,0.493,0.378,0.658,-0.138,-0.275
2026-05-10 20:19:37.752326,SEARCHING,8.441,1.000,0.00,0.00,31.56,0.781,1.079,1.026,1.074,0.493,0.378,0.658,-0.138,-0.275
2026-05-10 20:19:37.953895,SEARCHING,8.507,1.000,0.00,0.00,28.40,0.781,1.079,1.026,1.074,0.493,0.378,0.658,-0.138,-0.275
2026-05-10 20:19:38.185710,SEARCHING,8.574,1.000,0.00,0.00,25.25,0.781,1.079,1.026,1.074,0.493,0.378,0.658,-0.138,-0.275
2026-05-10 20:19:38.379838,SEARCHING,8.643,1.000,0.00,0.00,22.09,0.781,1.079,1.026,1.074,0.493,0.378,0.658,-0.138,-0.275
2026-05-10 20:19:38.621355,SEARCHING,8.714,1.000,0.00,0.00,18.94,0.781,1.079,1.026,1.074,0.493,0.378,0.658,-0.138,-0.275
2026-05-10 20:19:38.840942,SEARCHING,8.786,1.000,0.00,0.00,15.78,0.781,1.079,1.026,1.074,0.493,0.378,0.658,-0.138,-0.275
2026-05-10 20:19:39.060551,SEARCHING,8.859,1.000,0.00,0.00,12.63,0.781,1.079,1.026,1.074,0.493,0.378,0.658,-0.138,-0.275
2026-05-10 20:19:39.264745,SEARCHING,8.933,1.000,0.00,0.00,9.47,0.781,1.079,1.026,1.074,0.493,0.378,0.658,-0.138,-0.275
2026-05-10 20:19:39.484334,SEARCHING,9.008,1.000,0.00,0.00,6.32,0.781,1.079,1.026,1.074,0.493,0.378,0.658,-0.138,-0.275
2026-05-10 20:19:39.712848,SEARCHING,9.083,1.000,0.00,0.00,3.16,0.781,1.079,1.026,1.074,0.493,0.378,0.658,-0.138,-0.275
2026-05-10 20:19:39.922664,SEARCHING,9.159,1.000,0.00,0.00,0.01,0.781,1.079,1.026,1.074,0.493,0.378,0.658,-0.138,-0.275
2026-05-10 20:19:40.146751,SEARCHING,9.234,1.000,0.00,0.00,-3.15,0.781,1.079,1.026,1.074,0.493,0.378,0.658,-0.138,-0.275
2026-05-10 20:19:40.373568,SEARCHING,9.309,1.000,0.00,0.00,-6.30,6.356,2.311,1.720,2.311,0.467,0.700,1.025,0.191,0.382
2026-05-10 20:19:40.612427,SEARCHING,9.433,1.000,0.00,0.00,-3.81,6.356,2.311,1.720,2.311,0.467,0.700,1.025,0.191,0.382
2026-05-10 20:19:40.825156,SEARCHING,9.573,1.000,0.00,0.00,0.56,6.356,2.311,1.720,2.311,0.467,0.700,1.025,0.191,0.382
2026-05-10 20:19:41.047352,SEARCHING,9.712,1.000,0.00,0.00,4.93,6.356,2.311,1.720,2.311,0.467,0.700,1.025,0.191,0.382
2026-05-10 20:19:41.257841,SEARCHING,9.851,1.000,0.00,0.00,9.31,6.356,2.311,1.720,2.311,0.467,0.700,1.025,0.191,0.382
2026-05-10 20:19:41.505848,SEARCHING,9.989,1.000,0.00,0.00,13.68,6.356,2.311,1.720,2.311,0.467,0.700,1.025,0.191,0.382
2026-05-10 20:19:41.700107,SEARCHING,10.123,1.000,0.00,0.00,18.05,6.356,2.311,1.720,2.311,0.467,0.700,1.025,0.191,0.382
2026-05-10 20:19:41.918275,SEARCHING,10.255,1.000,0.00,0.00,22.42,6.356,2.311,1.720,2.311,0.467,0.700,1.025,0.191,0.382
2026-05-10 20:19:42.107565,SEARCHING,10.382,1.000,0.00,0.00,26.79,6.356,2.311,1.720,2.311,0.467,0.700,1.025,0.191,0.382
2026-05-10 20:19:42.326463,SEARCHING,10.505,1.000,0.00,0.00,31.16,6.356,2.311,1.720,2.311,0.467,0.700,1.025,0.191,0.382
2026-05-10 20:19:42.565794,SEARCHING,10.652,1.000,0.00,0.00,32.08,1.546,2.542,5.321,2.542,1.939,0.700,0.073,-0.206,-0.413
2026-05-10 20:19:42.769972,SEARCHING,10.742,1.000,0.00,0.00,28.53,1.546,2.542,5.321,2.542,1.939,0.700,0.073,-0.206,-0.413
2026-05-10 20:19:43.002409,SEARCHING,10.868,1.000,0.00,0.00,23.80,1.546,2.542,5.321,2.542,1.939,0.700,0.073,-0.206,-0.413
2026-05-10 20:19:43.188263,SEARCHING,10.998,1.000,0.00,0.00,19.06,1.546,2.542,5.321,2.542,1.939,0.700,0.073,-0.206,-0.413
2026-05-10 20:19:43.410527,SEARCHING,11.132,1.000,0.00,0.00,14.33,1.546,2.542,5.321,2.542,1.939,0.700,0.073,-0.206,-0.413
2026-05-10 20:19:43.627338,SEARCHING,11.268,1.000,0.00,0.00,9.60,1.546,2.542,5.321,2.542,1.939,0.700,0.073,-0.206,-0.413
2026-05-10 20:19:43.849257,SEARCHING,11.407,1.000,0.00,0.00,4.87,1.546,2.542,5.321,2.542,1.939,0.700,0.073,-0.206,-0.413
2026-05-10 20:19:44.053926,SEARCHING,11.547,1.000,0.00,0.00,0.13,1.546,2.542,5.321,2.542,1.939,0.700,0.073,-0.206,-0.413
2026-05-10 20:19:44.271136,SEARCHING,11.687,1.000,0.00,0.00,-4.60,6.730,2.972,2.080,2.934,2.200,0.700,0.068,0.149,0.299
2026-05-10 20:19:44.472632,SEARCHING,11.826,1.000,0.00,0.00,-4.03,6.730,2.972,2.080,2.934,2.200,0.700,0.068,0.149,0.299
2026-05-10 20:19:44.664804,SEARCHING,11.966,1.000,0.00,0.00,-0.60,6.730,2.661,2.007,2.692,2.200,0.700,0.050,0.157,0.315
2026-05-10 20:19:44.905415,SEARCHING,12.141,1.000,0.00,0.00,3.86,6.934,2.757,2.007,2.724,2.222,0.700,0.050,0.159,0.319
2026-05-10 20:19:45.100390,SEARCHING,12.246,1.000,0.00,0.00,6.60,6.356,2.972,2.138,2.934,2.266,0.700,0.060,0.140,0.279
2026-05-10 20:19:45.342468,SEARCHING,12.384,1.000,0.00,0.00,9.96,6.356,3.178,1.990,3.134,2.288,0.700,0.071,0.155,0.311
2026-05-10 20:19:45.548127,SEARCHING,12.521,1.000,0.00,0.00,13.43,6.356,3.178,1.990,3.134,2.288,0.700,0.071,0.155,0.311
2026-05-10 20:19:45.765614,SEARCHING,12.657,1.000,0.00,0.00,16.99,5.867,6.184,2.119,5.581,2.288,0.700,0.155,0.136,0.271
2026-05-10 20:19:45.992988,SEARCHING,12.789,1.000,0.00,0.00,20.21,5.867,6.184,2.119,5.581,2.288,0.700,0.155,0.136,0.271
2026-05-10 20:19:46.224872,SEARCHING,12.920,1.000,0.00,0.00,23.32,5.867,6.184,2.119,5.581,2.288,0.700,0.155,0.136,0.271
2026-05-10 20:19:46.424687,SEARCHING,13.047,1.000,0.00,0.00,26.43,5.867,6.184,2.119,5.581,2.288,0.700,0.155,0.136,0.271
2026-05-10 20:19:46.651630,SEARCHING,13.170,1.000,0.00,0.00,29.54,2.138,5.321,5.085,6.022,2.311,0.700,0.160,-0.122,-0.244
2026-05-10 20:19:46.852417,SEARCHING,13.292,1.000,0.00,0.00,28.81,2.138,5.321,5.085,6.022,2.311,0.700,0.160,-0.122,-0.244
2026-05-10 20:19:47.061147,SEARCHING,13.416,1.000,0.00,0.00,26.02,2.138,5.321,5.085,6.022,2.311,0.700,0.160,-0.122,-0.244
2026-05-10 20:19:47.281011,SEARCHING,13.575,1.000,0.00,0.00,22.53,2.138,5.321,5.085,6.022,2.311,0.700,0.160,-0.122,-0.244
2026-05-10 20:19:47.480016,SEARCHING,13.673,1.000,0.00,0.00,20.43,2.138,5.321,5.085,6.022,2.311,0.700,0.160,-0.122,-0.244
2026-05-10 20:19:47.713564,SEARCHING,13.838,1.000,0.00,0.00,16.94,2.138,5.321,5.085,6.022,2.311,0.700,0.160,-0.122,-0.244
2026-05-10 20:19:47.923902,SEARCHING,13.973,1.000,0.00,0.00,14.14,2.138,5.321,5.085,6.022,2.311,0.700,0.160,-0.122,-0.244
2026-05-10 20:19:48.149094,SEARCHING,14.075,1.000,0.00,0.00,13.37,3.575,4.767,1.845,4.767,2.359,0.700,0.128,0.118,0.236
2026-05-10 20:19:48.341803,SEARCHING,14.211,1.000,0.00,0.00,16.01,3.575,4.767,1.845,4.767,2.359,0.700,0.128,0.118,0.236
2026-05-10 20:19:48.545722,SEARCHING,14.345,1.000,0.00,0.00,18.72,3.575,4.767,1.845,4.767,2.359,0.700,0.128,0.118,0.236
2026-05-10 20:19:48.772473,SEARCHING,14.476,1.000,0.00,0.00,21.42,3.575,4.767,1.845,4.767,2.359,0.700,0.128,0.118,0.236
2026-05-10 20:19:48.964901,SEARCHING,14.605,1.000,0.00,0.00,24.13,3.575,4.767,1.845,4.767,2.359,0.700,0.128,0.118,0.236
2026-05-10 20:19:49.196708,SEARCHING,14.732,1.000,0.00,0.00,26.00,3.223,3.467,4.014,4.767,2.409,0.700,0.123,-0.028,-0.055
2026-05-10 20:19:49.407123,SEARCHING,14.858,1.000,0.00,0.00,25.37,3.134,3.223,3.814,4.670,2.384,0.700,0.123,-0.026,-0.051
2026-05-10 20:19:49.610578,SEARCHING,14.985,1.000,0.00,0.00,24.77,3.134,3.223,3.814,4.670,2.384,0.700,0.123,-0.026,-0.051
2026-05-10 20:19:49.820381,SEARCHING,15.112,1.000,0.00,0.00,24.17,2.896,3.092,3.575,4.400,2.384,0.700,0.115,-0.029,-0.059
2026-05-10 20:19:50.047513,SEARCHING,15.240,1.000,0.00,0.00,23.49,2.790,2.934,3.467,4.487,2.409,0.700,0.115,-0.031,-0.063
2026-05-10 20:19:50.257630,SEARCHING,15.369,1.000,0.00,0.00,22.77,2.487,2.757,3.134,4.237,2.335,0.700,0.115,-0.037,-0.075
2026-05-10 20:19:50.469891,SEARCHING,15.498,1.000,0.00,0.00,21.96,2.434,2.692,3.051,4.317,2.384,0.700,0.113,-0.037,-0.075
2026-05-10 20:19:50.678082,SEARCHING,15.629,1.000,0.00,0.00,21.10,2.434,2.692,3.051,4.317,2.384,0.700,0.113,-0.037,-0.075
2026-05-10 20:19:50.883488,SEARCHING,15.760,1.000,0.00,0.00,20.24,2.434,2.692,3.051,4.317,2.384,0.700,0.113,-0.037,-0.075
2026-05-10 20:19:51.101295,SEARCHING,15.891,1.000,0.00,0.00,19.39,2.434,2.692,3.051,4.317,2.384,0.700,0.113,-0.037,-0.075
2026-05-10 20:19:51.291074,SEARCHING,16.024,1.000,0.00,0.00,18.53,1.907,2.119,2.409,3.878,2.043,0.700,0.139,-0.049,-0.098
2026-05-10 20:19:51.496978,SEARCHING,16.157,1.000,0.00,0.00,17.47,1.907,2.119,2.409,3.878,2.043,0.700,0.139,-0.049,-0.098
2026-05-10 20:19:51.711325,SEARCHING,16.291,1.000,0.00,0.00,16.35,1.907,2.119,2.409,3.878,2.043,0.700,0.139,-0.049,-0.098
2026-05-10 20:19:51.941294,SEARCHING,16.454,1.000,0.00,0.00,14.78,1.623,1.845,2.099,3.467,1.670,0.646,0.186,-0.063,-0.126
2026-05-10 20:19:52.154891,SEARCHING,16.548,1.000,0.00,0.00,13.70,1.623,1.845,2.099,3.467,1.670,0.646,0.186,-0.063,-0.126
2026-05-10 20:19:52.356831,SEARCHING,16.670,1.000,0.00,0.00,12.20,1.457,1.634,1.907,3.269,1.600,0.572,0.191,-0.073,-0.146
2026-05-10 20:19:53.269009,SEARCHING,16.810,1.000,0.00,0.00,10.11,1.457,1.634,1.907,3.269,1.600,0.572,0.191,-0.073,-0.146
2026-05-10 20:19:53.417183,SEARCHING,16.895,1.000,0.00,0.00,8.86,1.457,1.634,1.907,3.269,1.600,0.572,0.191,-0.073,-0.146
2026-05-10 20:19:54.855010,SEARCHING,17.037,1.000,0.00,0.00,6.78,1.457,1.634,1.907,3.269,1.600,0.572,0.191,-0.073,-0.146
2026-05-10 20:19:54.924529,SEARCHING,17.122,1.000,0.00,0.00,5.53,1.457,1.634,1.907,3.269,1.600,0.572,0.191,-0.073,-0.146
2026-05-10 20:19:55.139627,SEARCHING,17.264,1.000,0.00,0.00,3.44,1.271,1.378,1.525,2.266,1.111,0.482,0.275,-0.059,-0.118
2026-05-10 20:19:55.344795,SEARCHING,17.339,1.000,0.00,0.00,2.50,1.330,1.448,1.600,2.119,1.045,0.507,0.291,-0.057,-0.114
2026-05-10 20:19:55.552679,SEARCHING,17.439,1.000,0.00,0.00,1.32,1.264,1.421,1.611,1.973,0.930,0.497,0.341,-0.077,-0.153
2026-05-10 20:19:55.766062,SEARCHING,17.540,1.000,0.00,0.00,-0.25,1.264,1.476,1.536,1.891,0.901,0.517,0.349,-0.063,-0.126
2026-05-10 20:19:55.967825,SEARCHING,17.643,1.000,0.00,0.00,-1.52,1.315,1.457,1.457,1.760,0.832,0.510,0.380,-0.033,-0.067
2026-05-10 20:19:56.201289,SEARCHING,17.744,1.000,0.00,0.00,-2.21,1.264,1.387,1.330,1.623,0.726,0.485,0.456,-0.018,-0.035
2026-05-10 20:19:56.394954,SEARCHING,17.842,1.000,0.00,0.00,-2.63,1.264,1.387,1.330,1.623,0.726,0.485,0.456,-0.018,-0.035
2026-05-10 20:19:56.627152,SEARCHING,17.939,1.000,0.00,0.00,-3.03,1.330,1.412,1.162,1.448,0.578,0.494,0.624,0.049,0.098
2026-05-10 20:19:56.848896,SEARCHING,18.037,1.000,0.00,0.00,-2.44,1.330,1.412,1.162,1.448,0.578,0.494,0.624,0.049,0.098
2026-05-10 20:19:57.050957,SEARCHING,18.161,1.000,0.00,0.00,-1.03,1.362,1.271,0.961,1.264,0.480,0.445,0.776,0.138,0.275
2026-05-10 20:19:57.267855,SEARCHING,18.228,1.000,0.00,0.00,1.13,1.362,1.271,0.961,1.264,0.480,0.445,0.776,0.138,0.275
2026-05-10 20:19:57.470921,SEARCHING,18.317,1.000,0.00,0.00,4.29,1.362,1.271,0.961,1.264,0.480,0.445,0.776,0.138,0.275
2026-05-10 20:19:57.701273,SEARCHING,18.405,1.000,0.00,0.00,7.54,1.308,1.204,0.883,1.217,0.472,0.422,0.779,0.165,0.330
2026-05-10 20:19:57.900648,SEARCHING,18.489,1.000,0.00,0.00,11.24,1.224,1.230,0.867,1.217,0.454,0.431,0.829,0.151,0.303
2026-05-10 20:19:58.103594,SEARCHING,18.573,1.000,0.00,0.00,14.71,1.224,1.230,0.867,1.217,0.454,0.431,0.829,0.151,0.303
2026-05-10 20:19:58.324895,SEARCHING,18.655,1.000,0.00,0.00,18.18,1.224,1.230,0.867,1.217,0.454,0.431,0.829,0.151,0.303
2026-05-10 20:19:58.530110,SEARCHING,18.736,1.000,0.00,0.00,21.65,1.224,1.230,0.867,1.217,0.454,0.431,0.829,0.151,0.303
2026-05-10 20:19:58.765004,SEARCHING,18.815,1.000,0.00,0.00,25.13,1.224,1.230,0.867,1.217,0.454,0.431,0.829,0.151,0.303
2026-05-10 20:19:58.966615,SEARCHING,18.911,1.000,0.00,0.00,29.46,1.224,1.230,0.867,1.217,0.454,0.431,0.829,0.151,0.303
2026-05-10 20:19:59.176324,SEARCHING,18.967,1.000,0.00,0.00,32.07,1.224,1.230,0.867,1.217,0.454,0.431,0.829,0.151,0.303
2026-05-10 20:19:59.385988,SEARCHING,19.038,1.000,0.00,0.00,35.54,1.224,1.230,0.867,1.217,0.454,0.431,0.829,0.151,0.303
2026-05-10 20:19:59.604582,SEARCHING,19.107,1.000,0.00,0.00,39.01,1.224,1.230,0.867,1.217,0.454,0.431,0.829,0.151,0.303
2026-05-10 20:19:59.861439,SEARCHING,19.173,1.000,0.00,0.00,42.48,1.224,1.230,0.867,1.217,0.454,0.431,0.829,0.151,0.303
2026-05-10 20:20:00.027264,SEARCHING,19.234,1.000,0.00,0.00,45.95,1.224,1.230,0.867,1.217,0.454,0.431,0.829,0.151,0.303
2026-05-10 20:20:00.251265,SEARCHING,19.293,1.000,0.00,0.00,49.42,1.224,1.230,0.867,1.217,0.454,0.431,0.829,0.151,0.303
2026-05-10 20:20:00.473093,SEARCHING,19.347,1.000,0.00,0.00,52.89,1.224,1.230,0.867,1.217,0.454,0.431,0.829,0.151,0.303
2026-05-10 20:20:00.708078,SEARCHING,19.397,1.000,0.00,0.00,56.36,1.224,1.230,0.867,1.217,0.454,0.431,0.829,0.151,0.303
2026-05-10 20:20:00.917522,SEARCHING,19.443,1.000,0.00,0.00,59.83,1.224,1.230,0.867,1.217,0.454,0.431,0.829,0.151,0.303
2026-05-10 20:20:01.139758,SEARCHING,19.484,1.000,0.00,0.00,63.30,1.224,1.230,0.867,1.217,0.454,0.431,0.829,0.151,0.303
2026-05-10 20:20:01.426022,INSPECTING,19.489,1.000,0.04,-0.02,59.28,1.224,1.230,0.867,1.217,0.454,0.350,0.550,0.552,0.850
2026-05-10 20:20:01.610866,INSPECTING,19.486,1.000,-0.01,0.01,64.65,1.224,1.230,0.867,1.217,0.454,-0.150,0.450,0.600,0.800
2026-05-10 20:20:01.884422,INSPECTING,19.477,1.000,0.01,-0.00,69.54,1.224,1.230,0.867,1.217,0.454,-0.150,0.450,0.600,0.800
2026-05-10 20:20:02.064663,INSPECTING,19.478,1.000,0.02,-0.02,74.63,1.224,1.230,0.867,1.217,0.454,-0.150,0.450,0.600,0.800
2026-05-10 20:20:02.312675,INSPECTING,19.471,1.000,0.04,-0.03,80.43,1.224,1.230,0.867,1.217,0.454,0.350,0.550,0.552,0.850
2026-05-10 20:20:02.503854,INSPECTING,19.464,1.000,0.04,-0.03,76.76,1.224,1.230,0.867,1.217,0.454,0.350,0.550,0.552,0.850
2026-05-10 20:20:02.750785,INSPECTING,19.459,1.000,0.03,-0.03,79.93,1.224,1.230,0.867,1.217,0.454,0.350,0.550,0.552,0.850
2026-05-10 20:20:02.930025,INSPECTING,19.453,1.000,0.06,-0.04,85.70,1.224,1.230,0.867,1.217,0.454,-0.150,0.450,0.600,0.800
2026-05-10 20:20:03.198770,SEARCHING,19.450,1.000,0.07,-0.09,90.93,0.371,10.000,10.000,2.311,0.393,0.350,0.000,0.000,0.000
2026-05-10 20:20:03.436672,SEARCHING,19.427,1.000,0.38,-0.44,82.04,0.371,10.000,10.000,2.311,0.393,0.350,0.000,0.000,0.000
2026-05-10 20:20:03.557274,INSPECTING,19.421,1.000,0.36,-0.42,65.07,0.371,10.000,10.000,2.311,0.393,-0.150,0.450,-0.600,-0.800
2026-05-10 20:20:03.786422,SEARCHING,19.401,0.999,0.23,-0.74,46.89,0.371,10.000,10.000,2.311,0.393,0.700,1.267,-1.166,-2.333
2026-05-10 20:20:04.042254,SEARCHING,19.432,1.001,0.45,-0.00,32.53,0.371,10.000,10.000,2.311,0.393,0.350,0.000,0.000,0.000
2026-05-10 20:20:04.230829,SEARCHING,19.428,1.001,0.79,0.79,28.29,1.505,1.515,1.315,1.515,0.474,0.350,0.550,0.552,0.850
2026-05-10 20:20:04.544262,SEARCHING,19.429,1.001,0.77,0.68,33.72,1.505,1.515,1.315,1.515,0.474,0.350,0.550,0.552,0.850
2026-05-10 20:20:04.658703,INSPECTING,19.432,1.001,0.90,0.16,39.47,1.505,1.515,1.315,1.515,0.474,-0.150,0.450,0.600,0.800
2026-05-10 20:20:04.842979,SEARCHING,19.420,1.001,0.96,0.06,40.89,1.505,1.515,1.315,1.515,0.474,0.530,0.871,0.043,0.087
2026-05-10 20:20:05.121325,SEARCHING,19.422,1.001,1.08,-0.02,36.00,1.505,1.515,1.315,1.515,0.474,0.350,0.550,0.552,0.850
2026-05-10 20:20:05.244555,INSPECTING,19.415,1.000,1.10,-0.12,40.92,1.505,1.515,1.315,1.515,0.474,-0.150,0.450,0.600,0.800
2026-05-10 20:20:05.473442,SEARCHING,19.399,1.001,0.99,0.42,43.24,1.536,1.536,1.486,1.505,0.456,0.537,0.918,0.010,0.020
2026-05-10 20:20:05.743463,SEARCHING,19.399,1.001,1.17,-0.12,41.53,1.536,1.536,1.486,1.505,0.456,0.350,0.550,0.552,0.850
2026-05-10 20:20:05.885416,INSPECTING,19.396,1.001,1.22,-0.23,43.75,1.536,1.536,1.486,1.505,0.456,-0.150,0.450,0.600,0.800
2026-05-10 20:20:06.099864,SEARCHING,19.381,1.001,1.29,-0.09,43.17,1.536,1.536,1.486,1.505,0.456,0.537,0.918,0.010,0.020
2026-05-10 20:20:06.418358,SEARCHING,19.383,1.000,1.41,-0.60,37.94,1.536,1.546,1.467,1.505,0.459,0.350,0.550,0.552,0.850
2026-05-10 20:20:06.530276,INSPECTING,19.375,1.000,1.41,-0.60,45.78,1.536,1.546,1.467,1.505,0.459,-0.150,0.450,0.600,0.800
2026-05-10 20:20:06.732484,SEARCHING,19.362,1.001,1.40,-0.16,45.58,1.536,1.546,1.467,1.505,0.459,0.541,0.910,0.014,0.028
2026-05-10 20:20:07.029853,SEARCHING,19.363,1.001,1.50,-0.13,40.46,1.536,1.546,1.467,1.505,0.459,0.350,0.550,0.552,0.850
2026-05-10 20:20:07.171462,INSPECTING,19.360,1.001,1.61,-0.13,37.89,1.536,1.546,1.467,1.505,0.459,-0.150,0.450,0.600,0.800
2026-05-10 20:20:07.366647,SEARCHING,19.345,1.002,1.63,-0.08,41.97,1.536,1.546,1.467,1.505,0.459,0.541,0.910,0.014,0.028
2026-05-10 20:20:07.661809,SEARCHING,19.347,1.001,1.76,-0.59,36.62,1.536,1.546,1.467,1.505,0.459,0.350,0.550,0.552,0.850
2026-05-10 20:20:07.789643,INSPECTING,19.343,1.001,1.75,-0.38,38.58,1.536,1.546,1.467,1.505,0.459,-0.150,0.450,0.600,0.800
2026-05-10 20:20:07.991686,SEARCHING,19.328,1.002,1.60,-0.13,38.52,1.536,1.546,1.467,1.505,0.459,0.541,0.910,0.014,0.028
2026-05-10 20:20:08.303195,SEARCHING,19.331,1.002,1.58,0.02,36.01,1.536,1.546,1.467,1.505,0.459,0.350,0.550,0.552,0.850
2026-05-10 20:20:08.510076,SEARCHING,19.329,1.002,1.67,-0.23,34.79,1.536,1.546,1.467,1.505,0.459,0.350,0.550,0.552,0.850
2026-05-10 20:20:08.652023,INSPECTING,19.323,1.002,1.73,-0.09,34.38,1.536,1.546,1.467,1.505,0.459,-0.150,0.450,0.600,0.800
2026-05-10 20:20:08.855163,SEARCHING,19.306,1.002,1.77,0.01,38.40,1.536,1.546,1.467,1.505,0.459,0.541,0.910,0.014,0.028
2026-05-10 20:20:09.156209,SEARCHING,19.303,1.002,1.98,0.02,37.05,1.546,1.536,1.525,1.476,0.472,0.350,0.550,0.552,0.850
2026-05-10 20:20:09.291232,INSPECTING,19.305,1.002,1.97,0.12,39.92,1.546,1.536,1.525,1.476,0.472,-0.150,0.450,0.600,0.800
2026-05-10 20:20:09.503502,INSPECTING,19.299,1.002,2.18,-0.04,36.20,1.546,1.536,1.525,1.476,0.472,-0.150,0.450,0.600,0.800
2026-05-10 20:20:09.734053,SEARCHING,19.284,1.002,2.21,-0.04,40.29,1.546,1.536,1.525,1.476,0.472,0.537,0.865,0.004,0.008
2026-05-10 20:20:09.982685,SEARCHING,19.286,1.003,2.34,0.01,35.09,1.546,1.536,1.525,1.476,0.472,0.350,0.550,0.552,0.850
2026-05-10 20:20:10.142369,INSPECTING,19.284,1.003,2.37,-0.05,33.94,1.546,1.536,1.525,1.476,0.472,-0.150,0.450,0.600,0.800
2026-05-10 20:20:10.361754,SEARCHING,19.262,1.003,2.27,0.45,41.68,1.546,1.546,1.515,1.476,0.472,0.541,0.865,0.006,0.012
2026-05-10 20:20:10.624167,SEARCHING,19.270,1.002,2.55,-0.53,34.25,1.546,1.546,1.515,1.476,0.472,0.350,0.550,0.552,0.850
2026-05-10 20:20:10.849166,SEARCHING,19.265,1.003,2.57,-0.22,34.08,1.546,1.546,1.515,1.476,0.472,0.350,0.550,0.552,0.850
2026-05-10 20:20:10.978143,INSPECTING,19.259,1.003,2.64,-0.11,35.36,1.546,1.546,1.515,1.476,0.472,-0.150,0.450,0.600,0.800
2026-05-10 20:20:11.199665,SEARCHING,19.242,1.003,2.67,-0.03,40.53,1.546,1.546,1.515,1.476,0.472,0.541,0.865,0.006,0.012
2026-05-10 20:20:11.450554,SEARCHING,19.248,1.004,2.86,0.00,34.36,1.525,1.536,1.525,1.505,0.473,0.350,0.550,0.552,0.850
2026-05-10 20:20:11.710119,SEARCHING,19.244,1.004,2.87,0.10,32.90,1.525,1.536,1.525,1.505,0.473,0.350,0.550,0.552,0.850
2026-05-10 20:20:11.927370,SEARCHING,19.248,1.004,2.96,0.01,33.02,1.525,1.536,1.525,1.505,0.473,0.350,0.550,0.552,0.850
2026-05-10 20:20:12.053422,INSPECTING,19.246,1.004,3.00,0.12,28.46,1.525,1.536,1.525,1.505,0.473,-0.150,0.450,-0.600,-0.800
2026-05-10 20:20:12.310311,SEARCHING,19.251,1.004,2.89,0.17,27.64,1.525,1.536,1.525,1.505,0.473,0.537,0.871,0.000,0.000
2026-05-10 20:20:12.486906,SEARCHING,19.255,1.003,2.95,-0.00,29.76,1.525,1.536,1.525,1.505,0.473,0.537,0.871,0.000,0.000
2026-05-10 20:20:12.773108,SEARCHING,19.262,1.003,2.96,-0.03,31.27,1.525,1.536,1.525,1.505,0.473,0.350,0.550,0.552,0.850
2026-05-10 20:20:12.901635,INSPECTING,19.267,1.004,3.02,0.06,29.21,1.525,1.536,1.525,1.505,0.473,-0.150,0.450,-0.600,-0.800
2026-05-10 20:20:13.119249,SEARCHING,19.257,1.003,3.07,-0.02,26.50,1.525,1.536,1.525,1.505,0.473,0.537,0.871,0.000,0.000
2026-05-10 20:20:13.394823,SEARCHING,19.280,1.003,3.27,0.03,30.99,1.525,1.536,1.525,1.505,0.473,0.350,0.550,0.552,0.850
2026-05-10 20:20:13.541514,INSPECTING,19.284,1.003,3.35,0.19,29.34,1.476,1.515,1.546,1.505,0.469,-0.150,0.450,-0.600,-0.800
2026-05-10 20:20:13.745387,SEARCHING,19.275,1.003,3.47,0.03,26.42,1.430,1.515,1.525,1.496,0.464,0.530,0.892,-0.020,-0.039
2026-05-10 20:20:14.060343,SEARCHING,19.295,1.003,3.74,-0.08,31.12,1.430,1.515,1.525,1.496,0.464,0.350,0.550,-0.552,-0.850
2026-05-10 20:20:14.180690,INSPECTING,19.294,1.003,3.86,0.37,25.98,1.476,1.536,1.525,1.515,0.470,-0.150,0.450,-0.600,-0.800
2026-05-10 20:20:14.374713,SEARCHING,19.293,1.002,3.94,0.02,26.57,1.476,1.536,1.536,1.525,0.469,0.537,0.886,-0.012,-0.024
2026-05-10 20:20:14.666282,SEARCHING,19.309,1.002,4.14,0.28,28.89,1.476,1.536,1.536,1.525,0.469,0.350,0.550,-0.552,-0.850
2026-05-10 20:20:14.814243,INSPECTING,19.314,1.003,4.29,0.49,26.90,1.476,1.536,1.536,1.525,0.469,-0.150,0.450,-0.600,-0.800
2026-05-10 20:20:15.019499,SEARCHING,19.312,1.002,4.35,-0.02,27.24,1.476,1.536,1.536,1.525,0.469,0.537,0.886,-0.012,-0.024
2026-05-10 20:20:15.311103,SEARCHING,19.333,1.001,4.54,0.00,31.61,1.476,1.536,1.536,1.525,0.469,0.350,0.550,-0.552,-0.850
2026-05-10 20:20:15.458374,INSPECTING,19.337,1.001,4.74,0.37,30.01,1.404,1.536,1.557,1.237,0.458,-0.150,0.450,-0.600,-0.800
2026-05-10 20:20:15.718144,INSPECTING,19.329,1.001,4.76,0.04,26.11,1.404,1.536,1.557,1.237,0.458,0.350,0.550,0.552,0.850
2026-05-10 20:20:15.897063,INSPECTING,19.345,1.001,4.79,0.02,31.34,1.404,1.536,1.557,1.237,0.458,0.350,0.550,0.552,0.850
2026-05-10 20:20:16.138400,INSPECTING,19.342,1.001,4.76,0.41,29.05,1.404,1.536,1.557,1.237,0.458,0.350,0.550,0.552,0.850
2026-05-10 20:20:16.287781,INSPECTING,19.357,1.001,4.79,0.06,32.28,1.404,1.536,1.557,1.237,0.458,-0.150,0.450,-0.600,-0.800
2026-05-10 20:20:16.518377,SEARCHING,19.339,1.001,4.80,-0.04,26.62,1.323,1.525,1.557,1.300,0.469,0.534,0.818,-0.051,-0.102
2026-05-10 20:20:16.813687,SEARCHING,19.362,1.000,5.03,0.06,30.94,1.323,1.525,1.557,1.300,0.469,0.350,0.550,0.552,0.850
2026-05-10 20:20:16.915291,INSPECTING,19.360,1.001,5.21,0.62,26.17,1.300,1.525,1.448,1.448,0.469,-0.150,0.450,-0.600,-0.800
2026-05-10 20:20:17.142860,SEARCHING,19.351,1.000,5.26,0.20,23.88,1.300,1.525,1.448,1.448,0.469,0.534,0.865,-0.035,-0.071
2026-05-10 20:20:17.401324,SEARCHING,19.381,0.999,5.54,0.02,31.37,1.300,1.525,1.448,1.448,0.469,0.350,0.550,-0.552,-0.850
2026-05-10 20:20:17.624655,SEARCHING,19.388,0.998,5.57,-0.51,31.34,1.278,1.515,1.412,1.515,0.464,0.350,0.550,-0.552,-0.850
2026-05-10 20:20:17.859490,SEARCHING,19.387,0.999,5.86,0.29,28.77,1.278,1.515,1.412,1.515,0.464,0.350,0.550,-0.552,-0.850
2026-05-10 20:20:18.047727,INSPECTING,19.385,1.000,6.03,0.84,23.88,1.278,1.515,1.412,1.515,0.464,-0.150,0.450,-0.600,-0.800
2026-05-10 20:20:18.198881,SEARCHING,19.395,0.998,6.15,-0.03,29.23,1.278,1.515,1.412,1.515,0.464,0.530,0.897,-0.033,-0.067
2026-05-10 20:20:18.474233,SEARCHING,19.406,0.998,6.43,-0.31,31.12,1.278,1.515,1.412,1.515,0.464,0.350,0.550,-0.552,-0.850
2026-05-10 20:20:18.621760,INSPECTING,19.418,0.997,6.59,-0.13,31.87,1.278,1.515,1.412,1.515,0.464,-0.150,0.450,-0.600,-0.800
2026-05-10 20:20:18.829373,SEARCHING,19.398,0.998,6.76,0.02,25.75,1.378,1.439,1.378,1.476,0.456,0.504,0.910,0.000,0.000
2026-05-10 20:20:19.052034,SEARCHING,19.414,0.998,6.87,0.11,26.97,1.378,1.515,1.217,1.515,0.437,0.530,0.978,0.043,0.087
2026-05-10 20:20:19.315728,SEARCHING,19.422,0.998,7.16,0.51,32.00,1.378,1.515,1.217,1.515,0.437,0.350,0.550,0.552,0.850
2026-05-10 20:20:19.501550,INSPECTING,19.425,0.996,7.31,-0.75,32.40,1.378,1.515,1.217,1.515,0.437,-0.150,0.450,0.600,0.800
2026-05-10 20:20:19.671862,SEARCHING,19.405,0.998,7.32,0.33,41.79,1.378,1.515,1.217,1.515,0.437,0.530,0.978,0.043,0.087
2026-05-10 20:20:19.981419,SEARCHING,19.411,0.998,7.74,-0.36,37.43,1.378,1.515,1.217,1.515,0.437,0.350,0.550,0.552,0.850
2026-05-10 20:20:20.114638,INSPECTING,19.405,0.997,7.96,-1.17,42.60,1.378,1.515,1.217,1.515,0.437,-0.150,0.450,0.600,0.800
2026-05-10 20:20:20.375250,SEARCHING,19.398,0.997,8.33,-1.27,41.13,1.378,1.515,1.217,1.515,0.437,0.530,0.978,0.043,0.087
2026-05-10 20:20:20.580554,INSPECTING,19.394,0.999,8.50,-0.38,38.07,1.378,1.515,1.217,1.515,0.437,-0.150,0.450,0.600,0.800
2026-05-10 20:20:20.748908,SEARCHING,19.382,0.999,8.72,-0.86,39.34,1.378,1.515,1.217,1.515,0.437,0.530,0.978,0.043,0.087
2026-05-10 20:20:21.011664,SEARCHING,19.382,1.000,8.74,0.07,34.83,1.378,1.515,1.217,1.515,0.437,0.350,0.550,0.552,0.850
2026-05-10 20:20:21.162639,INSPECTING,19.380,1.001,8.90,0.10,34.11,1.378,1.515,1.217,1.515,0.437,-0.150,0.450,0.600,0.800
2026-05-10 20:20:21.411235,SEARCHING,19.372,1.000,9.06,-0.76,37.32,1.378,1.515,1.217,1.515,0.437,0.530,0.978,0.043,0.087
2026-05-10 20:20:21.658185,SEARCHING,19.372,1.001,9.13,0.08,32.94,1.378,1.515,1.217,1.515,0.437,0.350,0.550,0.552,0.850
2026-05-10 20:20:21.802559,INSPECTING,19.366,1.001,9.38,-0.27,34.66,1.378,1.515,1.217,1.515,0.437,-0.150,0.450,0.600,0.800
2026-05-10 20:20:22.034551,INSPECTING,19.360,1.002,9.65,-0.28,34.36,1.496,1.515,1.536,1.354,0.458,-0.150,0.450,-0.600,-0.800
2026-05-10 20:20:22.279692,INSPECTING,19.363,1.002,9.91,0.45,31.37,1.395,1.525,1.525,1.338,0.458,-0.150,0.450,-0.600,-0.800
2026-05-10 20:20:22.448011,SEARCHING,19.353,1.002,9.90,0.00,27.94,1.412,1.467,1.439,1.362,0.468,0.513,0.842,-0.006,-0.012
2026-05-10 20:20:22.731368,SEARCHING,19.370,1.001,10.19,-0.07,32.11,1.395,1.496,1.412,1.362,0.456,0.350,0.550,0.552,0.850
2026-05-10 20:20:22.871086,SEARCHING,19.375,1.002,10.53,0.75,30.30,1.395,1.496,1.412,1.362,0.456,0.523,0.876,-0.004,-0.008
2026-05-10 20:20:23.096187,SEARCHING,19.375,1.000,10.53,0.00,30.69,1.395,1.496,1.412,1.362,0.456,0.350,0.550,0.552,0.850
2026-05-10 20:20:23.359873,SEARCHING,19.387,1.000,10.81,-0.07,32.91,1.362,1.496,1.476,1.412,0.457,0.350,0.550,-0.552,-0.850
2026-05-10 20:20:23.484283,INSPECTING,19.391,1.000,11.08,0.48,31.32,1.362,1.496,1.476,1.412,0.457,-0.150,0.450,-0.600,-0.800
2026-05-10 20:20:23.707345,SEARCHING,19.374,0.999,11.09,-0.09,25.42,1.362,1.496,1.476,1.412,0.457,0.523,0.889,-0.026,-0.051
2026-05-10 20:20:23.994978,SEARCHING,19.396,0.998,11.54,0.10,30.19,1.362,1.496,1.476,1.412,0.457,0.350,0.550,-0.552,-0.850
2026-05-10 20:20:24.132102,INSPECTING,19.408,0.998,11.84,0.17,31.26,1.430,1.525,1.457,1.395,0.446,-0.150,0.450,-0.600,-0.800
2026-05-10 20:20:24.349513,SEARCHING,19.391,0.997,11.84,-0.60,25.51,1.430,1.525,1.457,1.395,0.446,0.534,0.915,-0.006,-0.012
2026-05-10 20:20:24.621188,SEARCHING,19.414,0.997,12.44,0.11,30.72,1.430,1.525,1.457,1.395,0.446,0.350,0.550,0.552,0.850
2026-05-10 20:20:25.534727,INSPECTING,19.430,0.996,12.84,-0.06,33.24,1.430,1.525,1.457,1.395,0.446,-0.150,0.450,-0.600,-0.800
2026-05-10 20:20:27.116584,SEARCHING,19.419,0.996,12.88,0.11,29.23,1.430,1.525,1.457,1.395,0.446,0.350,0.550,0.552,0.850
2026-05-10 20:20:27.121518,SEARCHING,19.406,0.996,12.87,0.11,24.65,1.430,1.525,1.457,1.395,0.446,0.534,0.915,-0.006,-0.012
2026-05-10 20:20:27.251048,INSPECTING,19.405,0.996,12.96,0.45,11.46,1.430,1.525,1.457,1.395,0.446,-0.150,0.450,-0.600,-0.800
2026-05-10 20:20:27.534214,INSPECTING,19.394,0.998,13.46,1.96,9.32,1.430,1.525,1.457,1.395,0.446,-0.150,0.450,-0.600,-0.800
2026-05-10 20:20:27.797391,SEARCHING,19.418,1.001,14.12,4.25,13.66,1.430,1.525,1.457,1.395,0.446,0.534,0.915,-0.006,-0.012
2026-05-10 20:20:27.936732,INSPECTING,19.420,1.002,14.34,5.19,7.96,1.430,1.525,1.457,1.395,0.446,-0.150,0.450,-0.600,-0.800
2026-05-10 20:20:28.169517,SEARCHING,19.408,1.002,14.71,5.75,5.66,1.430,1.525,1.457,1.395,0.446,0.534,0.915,-0.006,-0.012
2026-05-10 20:20:28.431748,SEARCHING,19.433,1.003,14.91,6.71,9.16,1.430,1.525,1.457,1.395,0.446,0.350,0.550,0.552,0.850
2026-05-10 20:20:28.600101,INSPECTING,19.438,1.005,15.17,8.03,6.63,1.430,1.525,1.457,1.395,0.446,-0.150,0.450,-0.600,-0.800
2026-05-10 20:20:28.773451,SEARCHING,19.432,1.001,14.85,5.77,6.27,1.430,1.525,1.457,1.395,0.446,0.534,0.915,-0.006,-0.012
2026-05-10 20:20:29.041105,SEARCHING,19.455,1.001,15.48,6.31,10.05,1.430,1.525,1.457,1.395,0.446,0.350,0.550,0.552,0.850
2026-05-10 20:20:29.254795,SEARCHING,19.456,1.003,15.70,7.46,6.65,1.430,1.525,1.457,1.395,0.446,0.350,0.550,0.552,0.850
2026-05-10 20:20:29.477523,SEARCHING,19.461,1.003,16.14,8.22,6.11,0.399,10.000,1.116,10.000,0.227,0.350,0.000,0.000,0.000
2026-05-10 20:20:29.710752,SEARCHING,19.469,1.005,16.89,10.00,3.93,0.399,10.000,1.116,10.000,0.227,0.350,0.000,0.000,0.000
2026-05-10 20:20:29.851152,INSPECTING,19.478,1.005,16.48,10.35,2.63,0.399,10.000,1.116,10.000,0.227,-0.150,0.450,-0.600,-0.800
2026-05-10 20:20:30.125147,INSPECTING,19.487,1.002,16.98,9.32,1.50,0.399,10.000,1.116,10.000,0.227,-0.150,0.450,-0.600,-0.800
2026-05-10 20:20:30.326965,SEARCHING,19.493,1.004,17.76,11.28,-0.31,0.399,10.000,1.116,10.000,0.227,0.700,2.583,-0.726,-1.451
2026-05-10 20:20:30.525291,SEARCHING,19.502,1.002,16.17,8.92,4.45,0.399,10.000,1.116,10.000,0.227,0.350,0.000,0.000,0.000
2026-05-10 20:20:30.811708,SEARCHING,19.516,1.002,16.17,9.17,4.04,0.399,10.000,1.116,10.000,0.227,0.350,0.000,0.000,0.000
2026-05-10 20:20:30.928733,INSPECTING,19.521,1.004,16.79,11.30,0.31,0.399,10.000,1.116,10.000,0.227,-0.150,0.450,-0.600,-0.800
2026-05-10 20:20:31.186806,SEARCHING,19.513,1.001,16.77,9.66,-0.71,0.399,10.000,1.116,10.000,0.227,0.700,2.583,-0.726,-1.451
2026-05-10 20:20:31.435731,SEARCHING,19.538,1.005,17.35,12.64,-2.02,0.399,10.000,1.116,10.000,0.227,0.350,0.000,0.000,0.000
2026-05-10 20:20:31.578980,INSPECTING,19.548,1.008,17.36,14.77,-3.67,0.399,10.000,1.116,10.000,0.227,-0.150,0.450,-0.600,-0.800
2026-05-10 20:20:31.796054,SEARCHING,19.531,1.006,16.55,13.45,-8.70,0.399,10.000,1.116,10.000,0.227,0.700,2.583,-0.726,-1.451
2026-05-10 20:20:32.043992,SEARCHING,19.555,1.009,15.76,14.60,-8.91,0.399,10.000,1.116,10.000,0.227,0.350,0.000,0.000,0.000
2026-05-10 20:20:32.213374,SEARCHING,19.572,1.013,16.11,17.67,-12.68,0.399,10.000,1.116,10.000,0.227,0.700,2.583,-0.726,-1.451
2026-05-10 20:20:32.519062,SEARCHING,19.576,1.004,10.41,8.34,-9.32,0.399,10.000,1.116,10.000,0.227,0.350,0.000,0.000,0.000
2026-05-10 20:20:32.637117,INSPECTING,19.596,1.007,11.03,10.76,-13.68,0.399,10.000,1.116,10.000,0.227,-0.150,0.450,-0.600,-0.800
2026-05-10 20:20:32.842411,SEARCHING,19.586,1.005,9.99,9.04,-14.80,0.399,10.000,1.116,10.000,0.227,0.700,2.583,-0.726,-1.451
2026-05-10 20:20:33.107234,SEARCHING,19.617,1.006,8.94,9.16,-13.57,0.399,10.000,1.116,10.000,0.227,0.350,0.000,0.000,0.000
2026-05-10 20:20:33.279766,INSPECTING,19.632,1.010,9.52,12.35,-17.38,0.399,10.000,1.116,10.000,0.227,-0.150,0.450,-0.600,-0.800
2026-05-10 20:20:33.484554,SEARCHING,19.616,1.007,7.70,9.23,-21.23,0.399,10.000,1.116,10.000,0.227,0.700,2.583,-0.726,-1.451
2026-05-10 20:20:33.758162,SEARCHING,19.649,1.014,9.04,14.72,-24.19,10.000,10.000,0.344,10.000,0.395,0.350,0.550,0.552,0.850
2026-05-10 20:20:33.903114,INSPECTING,19.663,1.013,9.21,14.05,-19.50,10.000,10.000,0.344,10.000,0.395,-0.150,0.450,0.600,0.800
2026-05-10 20:20:34.101750,SEARCHING,19.658,1.008,9.86,12.07,-1.89,10.000,10.000,0.344,10.000,0.395,0.700,1.458,1.265,2.530
2026-05-10 20:20:34.367383,SEARCHING,19.711,1.000,11.07,8.50,23.53,10.000,10.000,0.344,10.000,0.395,0.350,0.550,0.552,0.850
2026-05-10 20:20:34.541518,INSPECTING,19.730,0.996,11.19,6.24,34.22,10.000,10.000,0.344,10.000,0.395,-0.150,0.450,0.600,0.800
2026-05-10 20:20:34.753174,SEARCHING,19.714,0.990,11.14,2.87,39.51,10.000,10.000,0.344,10.000,0.395,0.700,1.458,1.265,2.530
2026-05-10 20:20:35.057524,SEARCHING,19.707,0.988,12.80,0.29,40.75,1.439,1.525,0.584,1.496,0.441,0.350,0.550,0.552,0.850
2026-05-10 20:20:35.177257,INSPECTING,19.704,0.987,13.23,-0.69,44.59,1.439,1.525,0.584,1.496,0.441,-0.150,0.450,0.600,0.800
2026-05-10 20:20:35.441940,INSPECTING,19.695,0.985,14.26,-3.19,47.96,1.439,1.525,0.584,1.496,0.441,-0.150,0.450,0.600,0.800
2026-05-10 20:20:35.610526,SEARCHING,19.684,0.985,14.58,-3.49,50.09,1.439,1.525,0.584,1.496,0.441,0.534,0.960,0.458,0.916
2026-05-10 20:20:35.889767,SEARCHING,19.683,0.987,15.32,-3.19,45.75,1.439,1.525,0.584,1.496,0.441,0.350,0.550,0.552,0.850
2026-05-10 20:20:36.037798,INSPECTING,19.678,0.987,15.99,-4.08,46.91,1.439,1.525,0.584,1.496,0.441,-0.150,0.450,0.600,0.800
2026-05-10 20:20:36.273632,SEARCHING,19.660,0.988,16.07,-3.48,52.64,1.439,1.525,0.584,1.496,0.441,0.534,0.960,0.458,0.916
2026-05-10 20:20:36.502816,SEARCHING,19.660,0.987,16.53,-4.66,51.73,1.439,1.525,0.584,1.496,0.441,0.350,0.550,0.552,0.850
2026-05-10 20:20:36.742938,SEARCHING,19.654,0.985,17.31,-6.91,53.93,1.439,1.525,0.584,1.496,0.441,0.350,0.550,0.552,0.850
2026-05-10 20:20:36.889491,INSPECTING,19.649,0.984,17.96,-7.84,55.79,1.439,1.525,0.584,1.496,0.441,-0.150,0.450,0.600,0.800
2026-05-10 20:20:37.119566,SEARCHING,19.635,0.988,18.38,-6.32,57.23,1.439,1.525,0.584,1.496,0.441,0.534,0.960,0.458,0.916
2026-05-10 20:20:37.347125,INSPECTING,19.635,0.991,19.03,-5.31,47.98,1.439,1.525,0.584,1.496,0.441,-0.150,0.450,0.600,0.800
2026-05-10 20:20:37.577684,INSPECTING,19.626,0.993,19.40,-4.66,52.04,1.439,1.525,0.584,1.496,0.441,-0.150,0.450,0.600,0.800
2026-05-10 20:20:37.776484,SEARCHING,19.615,0.991,19.92,-6.02,53.95,1.439,1.525,0.584,1.496,0.441,0.534,0.960,0.458,0.916
2026-05-10 20:20:38.016984,SEARCHING,19.611,0.993,20.24,-5.67,50.24,1.439,1.525,0.584,1.496,0.441,0.350,0.550,0.552,0.850
2026-05-10 20:20:38.265250,SEARCHING,19.605,0.991,20.95,-7.62,52.32,1.439,1.525,0.584,1.496,0.441,0.350,0.550,0.552,0.850
2026-05-10 20:20:38.504556,SEARCHING,19.599,0.989,21.60,-9.58,54.63,1.439,1.525,0.584,1.496,0.441,0.350,0.550,0.552,0.850
2026-05-10 20:20:38.653315,INSPECTING,19.593,0.987,22.07,-11.29,58.62,1.439,1.525,0.584,1.496,0.441,-0.150,0.450,0.600,0.800
2026-05-10 20:20:38.853801,SEARCHING,19.579,0.989,21.75,-9.78,62.72,1.439,1.525,0.584,1.496,0.441,0.534,0.960,0.458,0.916
2026-05-10 20:20:39.096460,INSPECTING,19.575,0.986,22.12,-11.85,59.92,1.173,0.296,0.227,0.986,0.295,0.350,0.550,0.552,0.850
2026-05-10 20:20:39.340681,INSPECTING,19.570,0.985,22.52,-13.36,64.62,6.022,0.227,0.250,0.370,0.227,0.000,0.000,0.000,0.000
2026-05-10 20:20:39.559782,INSPECTING,19.564,0.985,22.51,-13.35,68.75,6.022,0.227,0.250,0.370,0.227,0.000,0.000,0.000,0.000
2026-05-10 20:20:39.766888,INSPECTING,19.564,0.985,22.51,-13.35,68.75,6.022,0.227,0.250,0.370,0.227,0.000,0.000,0.000,0.000
2026-05-10 20:20:39.967029,INSPECTING,19.564,0.985,22.51,-13.35,68.75,6.022,0.227,0.250,0.370,0.227,0.000,0.000,0.000,0.000
2026-05-10 20:20:40.195458,INSPECTING,19.564,0.985,22.51,-13.35,68.75,6.022,0.227,0.250,0.370,0.227,0.000,0.000,0.000,0.000
2026-05-10 20:20:40.433454,INSPECTING,19.564,0.985,22.51,-13.35,68.75,6.022,0.227,0.250,0.370,0.227,0.000,0.000,0.000,0.000
2026-05-10 20:20:40.666568,INSPECTING,19.564,0.985,22.51,-13.35,68.75,6.022,0.227,0.250,0.370,0.227,0.000,0.000,0.000,0.000
2026-05-10 20:20:40.962750,SEARCHING,19.564,0.985,22.51,-13.35,68.75,0.227,1.515,0.268,1.525,10.000,0.350,0.000,0.000,0.000
2026-05-10 20:20:41.190515,SEARCHING,19.570,0.984,22.54,-13.60,68.07,0.227,1.515,0.268,1.525,10.000,0.350,0.000,0.000,0.000
2026-05-10 20:20:41.361183,INSPECTING,19.567,0.983,22.67,-14.54,62.75,0.227,1.515,0.268,1.525,10.000,0.000,0.000,0.000,0.000
2026-05-10 20:20:41.590152,INSPECTING,19.564,0.988,21.84,-11.51,59.10,0.227,1.515,0.268,1.525,10.000,-0.150,-0.450,-0.600,-0.800
2026-05-10 20:20:41.821655,SEARCHING,19.557,0.990,21.73,-10.36,52.69,0.227,1.515,0.268,1.525,10.000,0.350,0.000,0.000,0.000
2026-05-10 20:20:42.065178,SEARCHING,19.559,0.990,21.73,-10.36,52.69,0.227,1.515,0.268,1.525,10.000,0.350,0.000,0.000,0.000
2026-05-10 20:20:42.301274,SEARCHING,19.565,0.992,21.47,-9.23,51.47,0.227,1.515,0.268,1.525,10.000,0.350,0.000,0.000,0.000
2026-05-10 20:20:42.543203,INSPECTING,19.564,0.995,20.96,-6.84,48.99,0.227,1.515,0.268,1.525,10.000,0.000,0.000,0.000,0.000
2026-05-10 20:20:42.708719,INSPECTING,19.564,1.000,20.53,-3.99,43.13,0.227,1.515,0.268,1.525,10.000,-0.150,-0.450,-0.600,-0.800
2026-05-10 20:20:42.940963,INSPECTING,19.569,1.000,20.51,-3.99,36.26,0.227,1.515,0.268,1.525,10.000,0.000,0.000,0.000,0.000
2026-05-10 20:20:43.088849,INSPECTING,19.575,1.004,19.79,-1.16,34.35,1.467,1.505,0.636,1.439,0.481,-0.150,0.450,0.600,0.800
2026-05-10 20:20:43.328362,INSPECTING,19.568,1.005,19.69,-0.91,36.87,1.496,1.412,0.629,1.486,0.473,-0.150,0.450,0.600,0.800
2026-05-10 20:20:43.508371,INSPECTING,19.563,1.006,20.15,-0.65,35.65,1.467,1.536,0.632,1.404,0.470,-0.150,0.450,0.600,0.800
2026-05-10 20:20:43.699676,SEARCHING,19.548,1.006,20.37,-1.00,39.84,1.496,1.515,0.629,1.412,0.473,0.530,0.844,0.415,0.830
2026-05-10 20:20:43.986226,SEARCHING,19.551,1.008,20.90,-0.38,34.64,1.476,1.496,0.630,1.387,0.489,0.350,0.550,0.552,0.850
2026-05-10 20:20:44.129630,INSPECTING,19.546,1.009,21.51,-0.39,33.98,1.476,1.496,0.630,1.387,0.489,-0.150,0.450,0.600,0.800
2026-05-10 20:20:44.341449,SEARCHING,19.530,1.010,21.49,0.07,38.77,1.476,1.515,0.620,1.378,0.491,0.530,0.787,0.421,0.842
2026-05-10 20:20:44.608901,SEARCHING,19.532,1.011,22.49,-0.74,35.86,1.476,1.515,0.620,1.378,0.491,0.350,0.550,0.552,0.850
2026-05-10 20:20:44.748085,INSPECTING,19.525,1.010,23.11,-1.70,38.69,1.476,1.515,0.620,1.378,0.491,-0.150,0.450,0.600,0.800
2026-05-10 20:20:44.977115,INSPECTING,19.512,1.012,23.29,-0.87,41.99,10.000,10.000,0.613,10.000,10.000,-0.150,-0.450,0.600,0.800
2026-05-10 20:20:45.164911,SEARCHING,19.502,1.012,23.99,-1.87,43.96,10.000,10.000,0.613,10.000,10.000,0.700,0.000,0.689,1.377
2026-05-10 20:20:45.474369,SEARCHING,19.502,1.013,25.12,-2.13,39.40,10.000,10.000,0.613,10.000,10.000,0.350,0.550,0.552,0.850
2026-05-10 20:20:45.626131,INSPECTING,19.494,1.012,26.36,-3.92,39.29,10.000,10.000,0.613,10.000,10.000,-0.150,-0.450,0.600,0.800
2026-05-10 20:20:45.796389,SEARCHING,19.488,1.015,25.96,-1.98,39.05,10.000,10.000,0.613,10.000,10.000,0.700,0.000,0.689,1.377
2026-05-10 20:20:46.050558,SEARCHING,19.482,1.018,26.88,-1.26,36.47,10.000,10.000,0.613,10.000,10.000,0.350,0.550,0.552,0.850
2026-05-10 20:20:46.323465,SEARCHING,19.468,1.019,27.57,-1.99,41.42,10.000,10.000,0.613,10.000,10.000,0.350,0.550,0.552,0.850
2026-05-10 20:20:46.433197,INSPECTING,19.465,1.019,28.02,-2.48,44.26,10.000,10.000,0.613,10.000,10.000,-0.150,-0.450,0.600,0.800
2026-05-10 20:20:46.656074,SEARCHING,19.449,1.019,28.72,-3.28,45.95,1.536,1.536,0.591,1.515,0.546,0.537,0.703,0.468,0.936
2026-05-10 20:20:46.909168,SEARCHING,19.449,1.018,29.68,-4.38,43.58,1.536,1.536,0.591,1.515,0.546,0.350,0.550,0.552,0.850
2026-05-10 20:20:47.164390,SEARCHING,19.443,1.018,30.27,-5.11,45.26,6.022,10.000,0.227,3.269,0.238,0.350,0.000,0.000,0.000
2026-05-10 20:20:47.285727,INSPECTING,19.433,1.018,30.73,-6.05,53.94,6.022,10.000,0.227,3.269,0.238,-0.150,0.450,0.600,0.800
2026-05-10 20:20:47.479891,SEARCHING,19.419,1.016,31.79,-8.25,56.07,6.022,10.000,0.227,3.269,0.238,0.700,2.339,1.908,3.815
2026-05-10 20:20:47.732702,SEARCHING,19.413,1.012,33.24,-11.92,58.48,6.022,10.000,0.227,3.269,0.238,0.350,0.000,0.000,0.000
2026-05-10 20:20:47.953678,SEARCHING,19.406,1.009,34.09,-14.50,64.87,2.080,0.227,0.344,0.227,1.907,0.350,-0.550,0.552,0.850
2026-05-10 20:20:48.186257,SEARCHING,19.402,1.009,34.06,-14.49,70.89,2.080,0.227,0.344,0.227,1.907,0.350,-0.550,0.552,0.850
2026-05-10 20:20:48.428456,SEARCHING,19.405,1.008,34.11,-14.64,71.93,2.080,0.227,0.344,0.227,1.907,0.350,-0.550,0.552,0.850
2026-05-10 20:20:48.556510,INSPECTING,19.399,1.006,34.67,-16.36,67.14,2.080,0.227,0.344,0.227,1.907,-0.150,-0.450,0.600,0.800
2026-05-10 20:20:48.793537,SEARCHING,19.390,1.006,34.64,-16.34,75.86,2.080,0.227,0.344,0.227,1.907,0.350,-0.550,0.552,0.850
2026-05-10 20:20:49.062251,SEARCHING,19.394,1.006,34.63,-16.34,79.24,2.080,0.227,0.344,0.227,1.907,0.350,-0.550,0.552,0.850
2026-05-10 20:20:49.336781,SEARCHING,19.390,1.004,35.02,-17.67,77.13,2.080,0.227,0.344,0.227,1.907,0.350,-0.550,0.552,0.850
2026-05-10 20:20:49.521547,SEARCHING,19.388,1.004,35.13,-18.06,76.64,2.080,0.227,0.344,0.227,1.907,0.350,-0.550,0.552,0.850
2026-05-10 20:20:49.685493,INSPECTING,19.384,1.003,35.27,-18.67,82.98,2.896,0.781,1.090,2.222,0.258,-0.150,0.450,0.600,0.800
2026-05-10 20:20:49.857570,INSPECTING,19.381,1.002,35.50,-19.58,85.34,2.896,0.781,1.090,2.222,0.258,-0.150,0.450,0.600,0.800
2026-05-10 20:20:50.033649,INSPECTING,19.373,0.998,36.26,-22.31,84.31,2.860,2.487,0.234,2.222,2.487,-0.150,-0.450,0.600,0.800
2026-05-10 20:20:50.275089,INSPECTING,19.363,0.992,37.59,-26.88,85.66,2.724,0.605,0.604,2.200,0.605,0.000,0.000,0.000,0.000
2026-05-10 20:20:50.486547,SEARCHING,19.359,0.991,37.44,-27.45,103.62,2.972,2.724,0.713,3.178,2.724,0.700,0.031,0.480,0.960
2026-05-10 20:20:50.668693,INSPECTING,19.338,0.988,37.53,-28.85,107.00,2.972,2.692,0.700,3.223,2.692,-0.150,0.450,0.600,0.800
2026-05-10 20:20:50.870476,SEARCHING,19.349,0.988,37.50,-28.82,116.19,3.134,3.051,0.926,3.092,3.051,0.700,0.003,0.342,0.684
2026-05-10 20:20:51.095804,SEARCHING,19.282,0.988,37.46,-28.81,124.79,3.134,3.011,0.904,3.316,3.011,0.700,0.018,0.354,0.708
2026-05-10 20:20:51.279769,SEARCHING,19.195,0.988,37.43,-28.79,132.83,3.415,2.934,1.162,3.223,2.934,0.700,0.018,0.256,0.511
2026-05-10 20:20:51.493044,SEARCHING,19.094,0.988,37.41,-28.78,139.37,3.945,2.896,1.150,3.051,2.896,0.700,0.010,0.277,0.555
2026-05-10 20:20:51.705359,SEARCHING,18.984,0.988,37.40,-28.77,145.77,3.467,3.092,1.150,3.051,3.092,0.700,-0.003,0.262,0.523
2026-05-10 20:20:51.927042,SEARCHING,18.864,0.988,37.38,-28.76,151.95,3.316,3.520,1.323,3.134,3.520,0.700,-0.021,0.205,0.409
2026-05-10 20:20:52.111511,SEARCHING,18.738,0.988,37.37,-28.75,156.94,3.178,3.814,1.370,3.691,3.814,0.700,-0.005,0.187,0.374
2026-05-10 20:20:52.313285,SEARCHING,18.608,0.988,37.36,-28.75,161.04,3.134,3.878,1.308,3.751,3.878,0.700,-0.005,0.201,0.401
2026-05-10 20:20:52.519349,SEARCHING,18.474,0.988,37.35,-28.74,165.64,3.051,3.092,1.095,3.878,3.092,0.700,0.039,0.264,0.527
2026-05-10 20:20:52.740425,SEARCHING,18.302,0.988,37.33,-28.73,172.61,2.972,2.934,3.092,3.365,2.934,0.700,0.026,-0.006,-0.012
2026-05-10 20:20:52.929599,SEARCHING,18.198,0.988,37.33,-28.73,173.08,3.134,2.860,3.316,3.223,2.860,0.700,0.024,-0.008,-0.016
2026-05-10 20:20:53.127177,SEARCHING,18.059,0.988,37.33,-28.73,172.92,2.972,2.790,3.223,3.134,2.790,0.700,0.024,-0.012,-0.024
2026-05-10 20:20:53.346042,SEARCHING,17.920,0.988,37.33,-28.73,172.67,2.896,2.757,3.178,3.051,2.757,0.700,0.021,-0.014,-0.028
2026-05-10 20:20:53.541652,SEARCHING,17.781,0.988,37.33,-28.73,172.35,2.542,2.542,2.972,2.896,2.542,0.700,0.029,-0.026,-0.051
2026-05-10 20:20:53.757365,SEARCHING,17.643,0.988,37.33,-28.73,171.81,2.409,2.434,2.860,2.757,2.434,0.700,0.029,-0.029,-0.059
2026-05-10 20:20:53.957800,SEARCHING,17.504,0.988,37.33,-28.73,171.14,2.409,2.434,2.860,2.757,2.434,0.700,0.029,-0.029,-0.059
2026-05-10 20:20:54.173933,SEARCHING,17.366,0.988,37.33,-28.73,170.45,2.179,2.243,2.600,2.542,2.243,0.700,0.031,-0.033,-0.067
2026-05-10 20:20:54.362384,SEARCHING,17.228,0.988,37.33,-28.73,169.67,2.043,3.178,2.460,3.223,3.178,0.700,0.003,-0.037,-0.075
2026-05-10 20:20:54.577242,SEARCHING,17.090,0.988,37.33,-28.73,168.82,1.939,3.178,2.335,3.011,3.178,0.700,-0.010,-0.039,-0.079
2026-05-10 20:20:54.779317,SEARCHING,16.953,0.988,37.33,-28.73,167.92,1.802,2.630,2.200,2.825,2.630,0.700,0.016,-0.045,-0.090
2026-05-10 20:20:54.990340,SEARCHING,16.817,0.988,37.33,-28.73,166.94,1.720,2.600,2.061,2.661,2.600,0.700,0.005,-0.043,-0.087
2026-05-10 20:20:55.182958,SEARCHING,16.680,0.988,37.33,-28.73,165.97,1.634,2.542,1.907,2.460,2.542,0.700,-0.008,-0.039,-0.079
2026-05-10 20:20:55.400006,SEARCHING,16.545,0.988,37.33,-28.73,165.97,3.751,2.409,1.831,2.359,2.409,0.700,-0.005,0.126,0.252
2026-05-10 20:20:55.596689,SEARCHING,16.408,0.988,37.32,-28.73,168.81,3.520,2.359,1.760,2.266,2.384,0.700,-0.013,0.128,0.256
2026-05-10 20:20:55.809791,SEARCHING,16.270,0.988,37.32,-28.73,171.71,3.092,2.200,1.720,2.243,2.200,0.700,0.005,0.116,0.232
2026-05-10 20:20:56.009365,SEARCHING,16.131,0.988,37.32,-28.73,174.31,2.724,2.200,1.682,2.200,2.200,0.700,0.000,0.102,0.205
2026-05-10 20:20:56.219534,SEARCHING,15.992,0.988,37.32,-28.72,176.66,2.600,2.222,1.646,2.159,2.222,0.700,-0.008,0.100,0.201
2026-05-10 20:20:56.434371,SEARCHING,15.852,0.988,37.31,-28.72,178.84,2.043,2.200,1.600,2.119,2.200,0.700,-0.010,0.061,0.122
2026-05-10 20:20:56.630396,SEARCHING,15.712,0.988,37.31,-28.72,-179.75,1.973,1.923,1.567,2.080,1.923,0.673,0.024,0.059,0.118
2026-05-10 20:20:56.830472,SEARCHING,15.576,0.988,37.31,-28.72,-178.29,1.990,1.939,1.467,1.907,1.939,0.679,-0.005,0.081,0.161
2026-05-10 20:20:57.808125,SEARCHING,15.440,0.988,37.31,-28.72,-176.49,2.007,1.956,1.467,1.907,4.487,0.684,-0.181,0.083,0.165
2026-05-10 20:20:57.879048,SEARCHING,15.304,0.988,37.31,-28.72,-174.59,2.007,1.956,1.467,1.907,4.487,0.684,-0.181,0.083,0.165
2026-05-10 20:20:59.393184,SEARCHING,15.132,0.988,37.31,-28.72,-172.23,1.876,3.134,1.395,1.695,3.134,0.700,-0.163,0.083,0.165
2026-05-10 20:20:59.410702,SEARCHING,15.028,0.988,37.31,-28.72,-170.81,1.845,3.051,1.378,1.708,3.051,0.700,-0.155,0.083,0.165
2026-05-10 20:20:59.590984,SEARCHING,14.890,0.988,37.30,-28.72,-168.91,1.845,3.051,1.378,1.708,3.051,0.700,-0.155,0.083,0.165
2026-05-10 20:20:59.797297,SEARCHING,14.753,0.988,37.30,-28.72,-168.80,1.646,2.692,10.000,3.092,2.692,0.700,0.029,-0.228,-0.457
2026-05-10 20:20:59.994870,SEARCHING,14.615,0.988,37.29,-28.71,-174.03,1.956,2.896,1.008,5.581,2.896,0.700,0.100,0.216,0.433
2026-05-10 20:21:00.201226,SEARCHING,14.476,0.988,37.28,-28.70,-171.24,2.007,4.014,0.901,5.867,4.014,0.700,0.047,0.275,0.551
2026-05-10 20:21:00.405919,SEARCHING,14.339,0.988,37.26,-28.69,-167.54,1.845,2.542,10.000,2.825,2.542,0.700,0.024,-0.199,-0.398
2026-05-10 20:21:00.638723,SEARCHING,14.201,0.988,37.25,-28.69,-172.02,1.907,3.134,10.000,5.448,3.134,0.700,0.081,-0.191,-0.382
2026-05-10 20:21:00.814935,SEARCHING,14.062,0.988,37.24,-28.68,-176.37,2.080,5.720,10.000,7.151,5.720,0.700,0.021,-0.171,-0.343
2026-05-10 20:21:01.034473,SEARCHING,13.922,0.988,37.24,-28.68,179.66,2.159,10.000,0.467,10.000,10.000,0.700,0.000,0.755,1.510
2026-05-10 20:21:01.234362,SEARCHING,13.783,0.988,37.12,-28.62,-167.33,1.891,5.085,10.000,6.934,5.085,0.700,0.031,-0.193,-0.386
2026-05-10 20:21:01.439040,SEARCHING,13.648,0.988,37.06,-28.58,-165.35,1.733,2.487,6.356,2.934,2.487,0.700,0.037,-0.189,-0.378
2026-05-10 20:21:01.656412,SEARCHING,13.511,0.988,37.05,-28.58,-169.85,1.695,3.814,10.000,5.581,3.814,0.700,0.050,-0.220,-0.441
2026-05-10 20:21:01.860432,SEARCHING,13.373,0.988,37.04,-28.57,-174.74,2.025,6.022,10.000,8.172,6.022,0.700,0.026,-0.177,-0.354
2026-05-10 20:21:02.060331,SEARCHING,13.233,0.988,37.04,-28.57,-179.00,2.409,10.000,10.000,10.000,10.000,0.700,0.000,-0.142,-0.284
2026-05-10 20:21:02.264651,SEARCHING,13.093,0.988,37.03,-28.57,177.59,2.825,10.000,10.000,10.000,10.000,0.700,0.000,-0.114,-0.229
2026-05-10 20:21:02.462799,SEARCHING,12.953,0.988,37.03,-28.56,175.14,5.200,10.000,10.000,10.000,10.000,0.700,0.000,-0.042,-0.083
2026-05-10 20:21:02.660937,SEARCHING,12.814,0.988,37.03,-28.56,174.07,5.085,10.000,10.000,10.000,10.000,0.700,0.000,-0.043,-0.087
2026-05-10 20:21:02.871463,SEARCHING,12.675,0.988,37.03,-28.56,173.10,5.200,10.000,10.000,10.000,10.000,0.700,0.000,-0.042,-0.083
2026-05-10 20:21:03.069756,SEARCHING,12.536,0.988,37.03,-28.56,172.26,7.627,10.000,10.000,10.000,10.000,0.700,0.000,-0.014,-0.028
2026-05-10 20:21:03.267251,SEARCHING,12.397,0.988,37.03,-28.56,171.95,10.000,10.000,10.000,10.000,10.000,0.700,0.000,0.000,0.000
2026-05-10 20:21:03.478866,SEARCHING,12.259,0.988,37.03,-28.56,171.95,10.000,10.000,10.000,10.000,10.000,0.700,0.000,0.000,0.000
2026-05-10 20:21:03.691233,SEARCHING,12.120,0.988,37.03,-28.56,171.95,10.000,10.000,10.000,10.000,10.000,0.700,0.000,0.000,0.000
2026-05-10 20:21:03.881460,SEARCHING,11.982,0.988,37.03,-28.56,171.95,10.000,10.000,10.000,10.000,10.000,0.700,0.000,0.000,0.000
2026-05-10 20:21:04.082905,SEARCHING,11.843,0.988,37.03,-28.56,171.95,10.000,10.000,10.000,10.000,10.000,0.700,0.000,0.000,0.000
2026-05-10 20:21:04.285877,SEARCHING,11.704,0.988,37.03,-28.56,171.95,10.000,10.000,10.000,10.000,10.000,0.700,0.000,0.000,0.000
2026-05-10 20:21:04.587639,SEARCHING,11.496,0.988,37.03,-28.56,171.95,10.000,10.000,10.000,10.000,10.000,0.700,0.000,0.000,0.000
2026-05-10 20:21:04.792754,SEARCHING,11.358,0.988,37.03,-28.56,171.95,10.000,10.000,10.000,10.000,10.000,0.700,0.000,0.000,0.000
2026-05-10 20:21:05.001970,SEARCHING,11.219,0.988,37.03,-28.56,171.95,10.000,10.000,10.000,10.000,10.000,0.700,0.000,0.000,0.000
2026-05-10 20:21:05.193846,SEARCHING,11.081,0.988,37.03,-28.56,171.95,10.000,10.000,10.000,10.000,10.000,0.700,0.000,0.000,0.000
2026-05-10 20:21:05.400595,SEARCHING,10.942,0.988,37.03,-28.56,171.95,10.000,10.000,10.000,10.000,10.000,0.700,0.000,0.000,0.000
2026-05-10 20:21:05.604566,SEARCHING,10.803,0.988,37.03,-28.56,171.95,10.000,10.000,10.000,10.000,10.000,0.700,0.000,0.000,0.000
2026-05-10 20:21:05.812037,SEARCHING,10.665,0.988,37.03,-28.56,171.95,10.000,10.000,10.000,10.000,10.000,0.700,0.000,0.000,0.000
2026-05-10 20:21:06.010261,SEARCHING,10.526,0.988,37.03,-28.56,171.95,10.000,10.000,10.000,10.000,10.000,0.700,0.000,0.000,0.000
2026-05-10 20:21:06.207935,SEARCHING,10.387,0.988,37.03,-28.56,171.95,10.000,10.000,10.000,10.000,10.000,0.700,0.000,0.000,0.000
2026-05-10 20:21:06.425835,SEARCHING,10.249,0.988,37.03,-28.56,171.95,10.000,10.000,10.000,10.000,10.000,0.700,0.000,0.000,0.000
2026-05-10 20:21:06.623730,SEARCHING,10.110,0.988,37.03,-28.56,171.95,10.000,10.000,10.000,10.000,10.000,0.700,0.000,0.000,0.000
2026-05-10 20:21:06.827535,SEARCHING,9.972,0.988,37.03,-28.56,171.95,10.000,10.000,10.000,10.000,10.000,0.700,0.000,0.000,0.000
2026-05-10 20:21:07.038672,SEARCHING,9.833,0.988,37.03,-28.56,171.95,10.000,10.000,10.000,10.000,10.000,0.700,0.000,0.000,0.000
2026-05-10 20:21:07.248370,SEARCHING,9.694,0.988,37.03,-28.56,171.95,10.000,10.000,10.000,10.000,10.000,0.700,0.000,0.000,0.000
2026-05-10 20:21:07.437588,SEARCHING,9.556,0.988,37.03,-28.56,171.95,10.000,10.000,10.000,10.000,10.000,0.700,0.000,0.000,0.000
2026-05-10 20:21:07.648861,SEARCHING,9.417,0.988,37.03,-28.56,171.95,10.000,10.000,10.000,10.000,10.000,0.700,0.000,0.000,0.000
2026-05-10 20:21:07.855846,SEARCHING,9.278,0.988,37.03,-28.56,171.95,10.000,10.000,10.000,10.000,10.000,0.700,0.000,0.000,0.000
2026-05-10 20:21:08.058536,SEARCHING,9.140,0.988,37.03,-28.56,171.95,10.000,10.000,10.000,10.000,10.000,0.700,0.000,0.000,0.000
2026-05-10 20:21:08.261951,SEARCHING,9.001,0.988,37.03,-28.56,171.95,10.000,10.000,10.000,10.000,10.000,0.700,0.000,0.000,0.000
2026-05-10 20:21:08.476914,SEARCHING,8.863,0.988,37.03,-28.56,171.95,10.000,10.000,10.000,10.000,10.000,0.700,0.000,0.000,0.000
2026-05-10 20:21:08.675792,SEARCHING,8.724,0.988,37.03,-28.56,171.95,10.000,10.000,10.000,10.000,10.000,0.700,0.000,0.000,0.000
2026-05-10 20:21:08.873014,SEARCHING,8.585,0.988,37.03,-28.56,171.95,10.000,10.000,10.000,10.000,10.000,0.700,0.000,0.000,0.000
2026-05-10 20:21:09.087192,SEARCHING,8.447,0.988,37.03,-28.56,171.95,10.000,10.000,10.000,10.000,10.000,0.700,0.000,0.000,0.000
