timestamp,state,x,y,z,roll_deg,pitch_deg,yaw_deg,dist_left,dist_center,dist_right,dist_top,dist_bottom,dtof_alert,collision_event,best_dir,max_space,cmd_vx,cmd_vz,cmd_yaw
01:23:03.158,SEARCHING,0.000,0.000,0.000,0.00,0.00,0.00,10.000,10.000,10.000,10.000,10.000,0,0,SEARCHING,0.000,0.526,0.000,0.000
01:23:03.366,SEARCHING,0.117,0.000,1.000,0.00,0.00,0.00,10.000,10.000,10.000,10.000,10.000,0,0,SEARCHING,0.000,0.734,0.000,0.000
01:23:03.567,SEARCHING,0.269,0.000,1.000,0.00,0.00,0.57,2.028,2.062,3.216,2.059,2.037,0,0,SEARCHING,0.000,0.706,0.000,0.151
01:23:03.768,SEARCHING,0.386,0.003,1.000,0.00,0.00,2.16,0.999,1.005,2.534,1.005,0.989,0,0,SEARCHING,0.000,0.389,0.000,0.033
01:23:03.968,SEARCHING,0.454,0.005,1.000,0.00,0.00,1.55,0.803,0.802,2.479,0.804,0.790,0,0,SEARCHING,0.000,0.283,0.000,-0.198
01:23:04.168,INSPECTING,0.508,0.006,1.000,0.00,0.00,-1.34,0.722,0.723,2.371,0.723,0.721,0,0,INSPECT_RIGHT,0.000,0.298,0.000,-0.398
01:23:04.369,INSPECTING,0.575,0.002,1.000,0.00,0.00,-6.33,0.645,2.146,2.109,2.137,2.052,0,0,INSPECT_RIGHT,0.000,0.375,0.000,-0.475
01:23:04.570,INSPECTING,0.643,-0.009,1.014,0.00,0.00,-10.16,0.550,2.983,1.820,3.017,2.742,0,0,INSPECT_TOP,0.000,0.394,0.263,-0.166
01:23:04.770,SEARCHING,0.715,-0.022,1.077,0.00,0.00,-12.37,0.493,2.982,1.724,2.975,2.840,0,0,SEARCHING,0.000,0.599,0.132,-0.586
01:23:04.971,SEARCHING,0.820,-0.051,1.091,0.00,0.00,-19.63,2.744,2.625,1.554,2.624,2.589,0,0,SEARCHING,0.000,0.715,0.027,-0.624
01:23:05.172,SEARCHING,0.923,-0.092,1.095,0.00,0.00,-23.28,3.150,2.129,1.366,2.122,2.109,0,0,SEARCHING,0.000,0.612,0.006,-0.279
01:23:05.372,SEARCHING,1.023,-0.137,1.095,0.00,0.00,-25.84,2.852,1.837,1.229,1.831,1.839,0,0,SEARCHING,0.000,0.456,0.002,-0.136
01:23:05.573,SEARCHING,1.098,-0.175,1.095,0.00,0.00,-26.97,2.660,1.677,1.139,1.676,1.681,0,0,SEARCHING,0.000,0.364,0.000,-0.038
01:23:05.774,SEARCHING,1.159,-0.206,1.095,0.00,0.00,-27.10,2.556,1.589,1.089,1.585,1.580,0,0,SEARCHING,0.000,0.311,0.000,0.029
01:23:05.974,SEARCHING,1.213,-0.233,1.095,0.00,0.00,-26.57,2.472,1.532,1.054,1.535,1.535,0,0,SEARCHING,0.000,0.281,0.000,0.075
01:23:06.174,SEARCHING,1.262,-0.257,1.095,0.00,0.00,-25.58,2.422,1.507,1.037,1.517,1.523,0,0,SEARCHING,0.000,0.264,0.000,0.104
01:23:06.376,SEARCHING,1.309,-0.279,1.095,0.00,0.00,-24.28,2.390,1.502,1.019,1.517,1.522,0,0,SEARCHING,0.000,0.255,0.000,0.127
01:23:06.577,SEARCHING,1.356,-0.300,1.095,0.00,0.00,-22.75,2.393,1.517,1.013,1.515,1.525,0,0,SEARCHING,0.000,0.256,0.000,0.140
01:23:06.777,SEARCHING,1.403,-0.319,1.095,0.00,0.00,-21.14,2.440,1.552,1.013,1.527,1.536,0,0,SEARCHING,0.000,0.261,0.000,0.139
01:23:06.978,SEARCHING,1.453,-0.337,1.095,0.00,0.00,-19.57,2.474,1.616,1.014,1.597,1.583,0,0,SEARCHING,0.000,0.275,0.000,0.133
01:23:07.179,SEARCHING,1.506,-0.355,1.095,0.00,0.00,-18.07,2.489,1.618,1.021,1.621,1.641,0,0,SEARCHING,0.000,0.284,0.000,0.126
01:23:07.379,SEARCHING,1.560,-0.372,1.095,0.00,0.00,-16.66,2.535,1.647,1.025,1.653,1.673,0,0,SEARCHING,0.000,0.291,0.000,0.118
01:23:07.580,SEARCHING,1.617,-0.389,1.095,0.00,0.00,-15.37,2.602,1.693,1.030,1.687,1.690,0,0,SEARCHING,0.000,0.303,0.000,0.103
01:23:07.781,SEARCHING,1.676,-0.405,1.095,0.00,0.00,-14.22,2.633,1.726,1.025,1.709,1.712,0,0,SEARCHING,0.000,0.314,0.000,0.097
01:23:07.981,SEARCHING,1.738,-0.420,1.095,0.00,0.00,-13.14,2.681,1.761,1.030,1.778,1.776,0,0,SEARCHING,0.000,0.328,0.000,0.087
01:23:08.181,SEARCHING,1.803,-0.434,1.095,0.00,0.00,-12.18,2.702,1.777,1.023,1.798,1.816,0,0,SEARCHING,0.000,0.334,0.000,0.082
01:23:08.382,SEARCHING,1.869,-0.448,1.095,0.00,0.00,-11.25,2.737,1.824,1.030,1.824,1.825,0,0,SEARCHING,0.000,0.347,0.000,0.076
01:23:08.583,SEARCHING,1.937,-0.461,1.095,0.00,0.00,-10.42,2.736,1.779,1.037,1.778,1.784,0,0,SEARCHING,0.000,0.347,0.000,0.068
01:23:08.784,SEARCHING,2.005,-0.473,1.095,0.00,0.00,-9.66,2.738,1.721,1.035,1.713,1.713,0,0,SEARCHING,0.000,0.332,0.000,0.065
01:23:08.984,SEARCHING,2.069,-0.484,1.095,0.00,0.00,-8.90,2.731,1.643,1.016,1.639,1.643,0,0,SEARCHING,0.000,0.310,0.000,0.072
01:23:09.184,SEARCHING,2.128,-0.492,1.095,0.00,0.00,-8.03,2.731,1.568,1.021,1.564,1.570,0,0,SEARCHING,0.000,0.287,0.000,0.078
01:23:09.385,SEARCHING,2.184,-0.500,1.095,0.00,0.00,-7.15,2.729,1.524,1.039,1.511,1.512,0,0,SEARCHING,0.000,0.270,0.000,0.072
01:23:09.586,SEARCHING,2.237,-0.506,1.095,0.00,0.00,-6.38,2.787,1.484,1.048,1.470,1.481,0,0,SEARCHING,0.000,0.258,0.000,0.057
01:23:09.786,SEARCHING,2.287,-0.512,1.095,0.00,0.00,-5.79,2.823,1.466,1.056,1.439,1.465,0,0,SEARCHING,0.000,0.252,0.000,0.042
01:23:09.986,SEARCHING,2.337,-0.517,1.095,0.00,0.00,-5.35,2.817,1.468,1.065,1.441,1.469,0,0,SEARCHING,0.000,0.250,0.000,0.033
01:23:10.186,SEARCHING,2.387,-0.521,1.095,0.00,0.00,-5.01,2.883,1.457,1.064,1.421,1.448,0,0,SEARCHING,0.000,0.250,0.000,0.022
01:23:10.388,SEARCHING,2.437,-0.525,1.095,0.00,0.00,-4.76,2.848,1.431,1.053,1.413,1.407,0,0,SEARCHING,0.000,0.250,0.000,0.026
01:23:10.588,SEARCHING,2.487,-0.529,1.095,0.00,0.00,-4.44,2.849,1.396,1.048,1.392,1.377,0,0,SEARCHING,0.000,0.250,0.000,0.031
01:23:10.789,SEARCHING,2.537,-0.533,1.095,0.00,0.00,-4.06,2.842,1.367,1.045,1.373,1.352,0,0,SEARCHING,0.000,0.250,0.000,0.036
01:23:10.990,SEARCHING,2.587,-0.536,1.095,0.00,0.00,-3.65,2.844,1.338,1.054,1.345,1.326,0,0,SEARCHING,0.000,0.250,0.000,0.035
01:23:11.190,SEARCHING,2.637,-0.539,1.095,0.00,0.00,-3.27,2.841,1.313,1.032,1.329,1.319,0,0,SEARCHING,0.000,0.250,0.000,0.036
01:23:11.390,SEARCHING,2.686,-0.542,1.095,0.00,0.00,-2.78,2.846,1.278,0.984,1.308,1.291,0,0,SEARCHING,0.000,0.250,0.000,0.060
01:23:11.591,SEARCHING,2.736,-0.544,1.095,0.00,0.00,-1.98,2.984,1.262,0.921,1.281,1.276,0,0,SEARCHING,0.000,0.250,0.000,0.086
01:23:11.792,SEARCHING,2.786,-0.546,1.095,0.00,0.00,-0.87,3.039,1.264,0.875,1.273,1.267,0,0,SEARCHING,0.000,0.250,0.000,0.118
01:23:11.992,SEARCHING,2.836,-0.546,1.095,0.00,0.00,0.60,3.223,1.276,0.823,1.271,1.270,0,0,SEARCHING,0.000,0.250,0.000,0.144
01:23:12.193,SEARCHING,2.886,-0.545,1.095,0.00,0.00,2.16,3.654,1.334,0.810,1.294,1.311,0,0,SEARCHING,0.000,0.250,0.000,0.104
01:23:12.394,SEARCHING,2.936,-0.542,1.095,0.00,0.00,3.02,4.084,1.348,0.811,1.344,1.345,0,0,SEARCHING,0.000,0.250,0.000,0.013
01:23:12.594,SEARCHING,2.986,-0.540,1.095,0.00,0.00,2.84,4.137,1.327,0.805,1.340,1.346,0,0,SEARCHING,0.000,0.250,0.000,-0.047
01:23:12.796,SEARCHING,3.036,-0.537,1.095,0.00,0.00,2.32,3.930,1.278,0.779,1.290,1.290,0,0,SEARCHING,0.000,0.250,0.000,-0.019
01:23:12.995,SEARCHING,3.086,-0.535,1.095,0.00,0.00,2.39,3.824,1.237,0.760,1.246,1.244,0,0,SEARCHING,0.000,0.250,0.000,0.048
01:23:13.197,SEARCHING,3.136,-0.533,1.095,0.00,0.00,3.18,3.815,1.205,0.734,1.242,1.220,0,0,SEARCHING,0.000,0.250,0.000,0.103
01:23:13.397,SEARCHING,3.186,-0.530,1.095,0.00,0.00,4.45,3.944,1.208,0.728,1.255,1.234,0,0,SEARCHING,0.000,0.250,0.000,0.111
01:23:13.597,SEARCHING,3.236,-0.526,1.095,0.00,0.00,5.66,4.111,1.236,0.729,1.243,1.251,0,0,SEARCHING,0.000,0.250,0.000,0.087
01:23:13.798,SEARCHING,3.286,-0.520,1.095,0.00,0.00,6.51,4.154,1.265,0.728,1.231,1.246,0,0,SEARCHING,0.000,0.250,0.000,0.059
01:23:13.999,SEARCHING,3.335,-0.514,1.095,0.00,0.00,7.14,4.130,1.340,0.726,1.277,1.253,0,0,SEARCHING,0.000,0.250,0.000,0.054
01:23:14.199,SEARCHING,3.385,-0.508,1.095,0.00,0.00,7.80,4.047,1.333,0.711,1.307,1.277,0,0,SEARCHING,0.000,0.250,0.000,0.075
01:23:14.400,SEARCHING,3.434,-0.501,1.095,0.00,0.00,8.78,4.023,1.320,0.719,1.330,1.316,0,0,SEARCHING,0.000,0.250,0.000,0.095
01:23:14.601,SEARCHING,3.484,-0.493,1.095,0.00,0.00,9.91,3.975,1.314,0.720,1.362,1.333,0,0,SEARCHING,0.000,0.250,0.000,0.104
01:23:14.801,SEARCHING,3.533,-0.484,1.095,0.00,0.00,11.11,3.941,1.370,0.731,1.375,1.379,0,0,SEARCHING,0.000,0.250,0.000,0.103
01:23:15.002,SEARCHING,3.582,-0.473,1.095,0.00,0.00,12.30,3.875,1.462,0.727,1.400,1.404,0,0,SEARCHING,0.000,0.250,0.000,0.113
01:23:15.202,SEARCHING,3.630,-0.462,1.095,0.00,0.00,13.63,3.835,1.500,0.745,1.510,1.518,0,0,SEARCHING,0.000,0.250,0.000,0.116
01:23:15.403,SEARCHING,3.679,-0.450,1.095,0.00,0.00,14.94,3.785,1.556,0.763,1.594,1.652,0,0,SEARCHING,0.000,0.250,0.000,0.107
01:23:15.604,SEARCHING,3.728,-0.436,1.095,0.00,0.00,16.15,3.742,1.731,0.772,1.704,1.701,0,0,SEARCHING,0.000,0.277,0.000,0.102
01:23:15.805,SEARCHING,3.784,-0.420,1.095,0.00,0.00,17.21,3.722,1.845,0.812,1.835,1.844,0,0,SEARCHING,0.000,0.316,0.000,0.068
01:23:16.005,SEARCHING,3.847,-0.400,1.095,0.00,0.00,17.85,3.669,1.932,0.838,1.876,1.898,0,0,SEARCHING,0.000,0.352,0.000,0.038
01:23:16.205,SEARCHING,3.922,-0.375,1.095,0.00,0.00,18.20,3.755,2.402,0.818,2.196,2.151,0,0,SEARCHING,0.000,0.485,0.000,0.024
01:23:16.406,SEARCHING,4.020,-0.343,1.095,0.00,0.00,18.46,3.735,2.509,0.815,2.477,2.481,0,0,SEARCHING,0.000,0.563,0.000,0.024
01:23:16.607,SEARCHING,4.130,-0.306,1.095,0.00,0.00,18.77,3.602,2.425,0.829,2.428,2.446,0,0,SEARCHING,0.000,0.582,0.000,0.037
01:23:16.808,SEARCHING,4.239,-0.269,1.095,0.00,0.00,19.27,3.619,2.436,0.845,2.432,2.424,0,0,SEARCHING,0.000,0.571,0.000,0.043
01:23:17.008,SEARCHING,4.347,-0.230,1.095,0.00,0.00,19.72,3.556,2.493,0.835,2.500,2.513,0,0,SEARCHING,0.000,0.583,0.000,0.043
01:23:17.209,SEARCHING,4.458,-0.190,1.095,0.00,0.00,20.30,3.619,2.545,0.839,2.520,2.547,0,0,SEARCHING,0.000,0.607,0.000,0.051
01:23:17.410,SEARCHING,4.573,-0.147,1.095,0.00,0.00,20.69,3.893,2.548,0.866,2.587,2.532,0,0,SEARCHING,0.000,0.621,0.000,-0.013
01:23:17.611,SEARCHING,4.690,-0.103,1.095,0.00,0.00,20.37,3.393,2.510,0.873,2.545,2.481,0,0,SEARCHING,0.000,0.623,0.000,-0.009
01:23:17.811,SEARCHING,4.805,-0.060,1.095,0.00,0.00,20.72,2.989,2.465,0.849,2.470,2.438,0,0,SEARCHING,0.000,0.598,0.000,0.104
01:23:18.012,SEARCHING,4.915,-0.017,1.095,0.00,0.00,22.24,3.383,2.426,0.892,2.411,2.447,0,0,SEARCHING,0.000,0.584,0.000,0.120
01:23:18.212,SEARCHING,5.023,0.028,1.095,0.00,0.00,22.88,3.814,2.452,1.093,2.448,2.450,0,0,SEARCHING,0.000,0.593,0.000,-0.083
01:23:18.413,SEARCHING,5.133,0.073,1.095,0.00,0.00,21.23,3.308,2.374,1.105,2.373,2.356,0,0,SEARCHING,0.000,0.590,0.000,-0.168
01:23:18.614,SEARCHING,5.241,0.114,1.095,0.00,0.00,19.89,2.508,2.162,1.034,2.152,2.182,0,0,SEARCHING,0.000,0.533,0.000,-0.007
01:23:18.814,SEARCHING,5.337,0.148,1.095,0.00,0.00,20.41,2.314,2.053,0.990,2.031,2.065,0,0,SEARCHING,0.000,0.469,0.000,0.117
01:23:19.015,SEARCHING,5.422,0.181,1.095,0.00,0.00,21.98,2.222,2.049,1.029,2.051,2.057,0,0,SEARCHING,0.000,0.444,0.000,0.153
01:23:19.215,SEARCHING,5.503,0.215,1.095,0.00,0.00,23.73,2.144,2.010,1.073,2.011,2.008,0,0,SEARCHING,0.000,0.433,0.000,0.147
01:23:19.416,SEARCHING,5.581,0.251,1.095,0.00,0.00,25.14,3.123,1.944,1.106,1.939,1.942,0,0,SEARCHING,0.000,0.417,0.000,0.042
01:23:19.617,SEARCHING,5.655,0.286,1.095,0.00,0.00,25.00,3.413,1.861,1.147,1.857,1.844,0,0,SEARCHING,0.000,0.395,0.000,-0.093
01:23:19.818,SEARCHING,5.725,0.317,1.095,0.00,0.00,23.72,3.281,1.787,1.139,1.779,1.770,0,0,SEARCHING,0.000,0.369,0.000,-0.122
01:23:20.019,SEARCHING,5.791,0.346,1.095,0.00,0.00,22.81,1.975,1.715,1.087,1.698,1.703,0,0,SEARCHING,0.000,0.342,0.000,0.033
01:23:20.219,SEARCHING,5.853,0.372,1.095,0.00,0.00,23.70,1.749,1.641,1.068,1.633,1.626,0,0,SEARCHING,0.000,0.316,0.000,0.129
01:23:20.420,SEARCHING,5.909,0.397,1.095,0.00,0.00,25.29,2.151,1.585,1.112,1.584,1.578,0,0,SEARCHING,0.000,0.295,0.000,0.136
01:23:20.621,SEARCHING,5.961,0.423,1.095,0.00,0.00,26.49,3.028,1.523,1.138,1.535,1.534,0,0,SEARCHING,0.000,0.279,0.000,0.026
01:23:20.822,SEARCHING,6.010,0.447,1.095,0.00,0.00,26.40,3.083,1.474,1.142,1.478,1.468,0,0,SEARCHING,0.000,0.263,0.000,-0.047
01:23:21.022,SEARCHING,6.056,0.470,1.095,0.00,0.00,25.76,3.042,1.424,1.131,1.427,1.425,0,0,SEARCHING,0.000,0.253,0.000,-0.060
01:23:21.222,SEARCHING,6.102,0.492,1.095,0.00,0.00,25.12,2.197,1.368,1.097,1.381,1.373,0,0,SEARCHING,0.000,0.251,0.000,0.001
01:23:21.424,SEARCHING,6.147,0.513,1.095,0.00,0.00,25.71,1.507,1.314,1.079,1.327,1.325,0,0,SEARCHING,0.000,0.250,0.000,0.109
01:23:21.624,SEARCHING,6.192,0.535,1.095,0.00,0.00,27.05,2.301,1.285,1.106,1.281,1.279,0,0,SEARCHING,0.000,0.250,0.000,0.115
01:23:21.825,SEARCHING,6.236,0.558,1.095,0.00,0.00,28.12,2.773,1.234,1.114,1.223,1.229,0,0,SEARCHING,0.000,0.250,0.000,0.049
01:23:22.025,SEARCHING,6.280,0.582,1.095,0.00,0.00,28.53,2.777,1.201,1.088,1.188,1.196,0,0,SEARCHING,0.000,0.250,0.000,0.026
01:23:22.226,SEARCHING,6.324,0.606,1.095,0.00,0.00,28.88,2.649,1.154,1.048,1.150,1.153,0,0,SEARCHING,0.000,0.250,0.000,0.050
01:23:22.427,SEARCHING,6.368,0.630,1.095,0.00,0.00,29.61,2.612,1.099,0.998,1.100,1.098,0,0,SEARCHING,0.000,0.250,0.000,0.089
01:23:22.627,SEARCHING,6.411,0.655,1.095,0.00,0.00,30.79,2.636,1.059,0.960,1.064,1.059,0,0,SEARCHING,0.000,0.250,0.000,0.124
01:23:22.828,SEARCHING,6.454,0.681,1.095,0.00,0.00,32.31,2.768,1.019,0.918,1.021,1.019,0,0,SEARCHING,0.000,0.250,0.000,0.145
01:23:23.029,SEARCHING,6.495,0.709,1.095,0.00,0.00,34.04,2.788,0.980,0.875,0.975,0.977,0,0,SEARCHING,0.000,0.250,0.000,0.169
01:23:23.228,SEARCHING,6.536,0.737,1.095,0.00,0.00,36.16,2.710,0.945,0.832,0.942,0.944,0,0,SEARCHING,0.000,0.250,0.000,0.219
01:23:23.431,SEARCHING,6.576,0.768,1.095,0.00,0.00,38.95,2.574,0.900,0.788,0.903,0.902,0,0,SEARCHING,0.000,0.250,0.000,0.291
01:23:23.630,SEARCHING,6.614,0.800,1.095,0.00,0.00,42.60,2.460,0.880,0.758,0.882,0.881,0,0,SEARCHING,0.000,0.250,0.000,0.364
01:23:23.831,SEARCHING,6.650,0.835,1.095,0.00,0.00,47.07,2.340,1.620,0.727,1.535,1.636,0,0,SEARCHING,0.000,0.255,0.000,0.436
01:23:24.032,SEARCHING,6.686,0.877,1.096,0.00,0.00,51.83,2.187,2.391,0.699,2.165,2.430,0,0,SEARCHING,0.000,0.421,0.037,0.505
01:23:24.232,SEARCHING,6.732,0.940,1.106,0.00,0.00,56.72,2.073,2.564,0.671,2.212,2.569,0,0,SEARCHING,0.000,0.548,0.074,0.571
01:23:24.432,SEARCHING,6.781,1.022,1.122,0.00,0.00,60.73,2.025,2.453,1.876,2.182,2.447,0,0,SEARCHING,0.000,0.651,0.079,0.199
01:23:24.633,SEARCHING,6.833,1.116,1.137,0.00,0.00,61.67,1.961,2.329,2.026,2.146,2.330,0,0,SEARCHING,0.000,0.667,0.059,0.048
01:23:24.834,SEARCHING,6.882,1.208,1.146,0.00,0.00,61.92,1.863,2.223,1.998,2.129,2.219,0,0,SEARCHING,0.000,0.627,0.019,0.017
01:23:25.034,SEARCHING,6.933,1.304,1.148,0.00,0.00,62.05,1.774,2.135,1.949,2.089,2.128,0,0,SEARCHING,0.000,0.577,0.004,0.009
01:23:25.236,SEARCHING,6.986,1.403,1.148,0.00,0.00,62.13,1.645,2.027,1.851,2.012,2.026,0,0,SEARCHING,0.000,0.523,0.001,0.003
01:23:25.435,SEARCHING,7.033,1.493,1.148,0.00,0.00,62.13,1.554,1.929,1.774,1.927,1.929,0,0,SEARCHING,0.000,0.476,0.000,-0.005
01:23:25.636,SEARCHING,7.076,1.574,1.148,0.00,0.00,62.04,1.482,1.843,1.708,1.836,1.838,0,0,SEARCHING,0.000,0.429,0.000,-0.013
01:23:25.837,SEARCHING,7.115,1.647,1.148,0.00,0.00,61.86,1.425,1.771,1.654,1.767,1.764,0,0,SEARCHING,0.000,0.395,0.000,-0.021
01:23:26.037,SEARCHING,7.151,1.715,1.148,0.00,0.00,61.59,1.369,1.702,1.604,1.700,1.708,0,0,SEARCHING,0.000,0.365,0.000,-0.029
01:23:26.239,SEARCHING,7.185,1.777,1.148,0.00,0.00,61.22,1.326,1.649,1.564,1.647,1.653,0,0,SEARCHING,0.000,0.337,0.000,-0.038
01:23:26.440,SEARCHING,7.217,1.834,1.148,0.00,0.00,60.75,1.281,1.604,1.522,1.602,1.599,0,0,SEARCHING,0.000,0.315,0.000,-0.046
01:23:26.640,SEARCHING,7.247,1.888,1.148,0.00,0.00,60.19,1.240,1.556,1.465,1.558,1.559,0,0,SEARCHING,0.000,0.297,0.000,-0.053
01:23:26.841,SEARCHING,7.276,1.938,1.148,0.00,0.00,59.55,1.200,1.508,1.421,1.513,1.511,0,0,SEARCHING,0.000,0.279,0.000,-0.060
01:23:27.041,SEARCHING,7.304,1.985,1.148,0.00,0.00,58.83,1.168,1.471,1.378,1.472,1.470,0,0,SEARCHING,0.000,0.263,0.000,-0.066
01:23:27.241,SEARCHING,7.332,2.030,1.148,0.00,0.00,58.05,1.132,1.439,1.323,1.436,1.437,0,0,SEARCHING,0.000,0.254,0.000,-0.071
01:23:27.442,SEARCHING,7.358,2.072,1.148,0.00,0.00,57.22,1.102,1.407,1.282,1.413,1.408,0,0,SEARCHING,0.000,0.251,0.000,-0.075
01:23:27.643,SEARCHING,7.386,2.114,1.148,0.00,0.00,56.36,1.075,1.381,1.245,1.387,1.385,0,0,SEARCHING,0.000,0.250,0.000,-0.078
01:23:27.844,SEARCHING,7.414,2.156,1.148,0.00,0.00,55.45,1.046,1.353,1.201,1.354,1.357,0,0,SEARCHING,0.000,0.250,0.000,-0.080
01:23:28.044,SEARCHING,7.443,2.197,1.148,0.00,0.00,54.53,1.022,1.324,1.162,1.329,1.329,0,0,SEARCHING,0.000,0.250,0.000,-0.081
01:23:28.245,SEARCHING,7.472,2.237,1.148,0.00,0.00,53.60,0.996,1.301,1.126,1.304,1.303,0,0,SEARCHING,0.000,0.250,0.000,-0.081
01:23:28.445,SEARCHING,7.502,2.277,1.148,0.00,0.00,52.67,0.971,1.281,1.090,1.279,1.278,0,0,SEARCHING,0.000,0.250,0.000,-0.082
01:23:28.645,SEARCHING,7.532,2.317,1.148,0.00,0.00,51.73,0.949,1.255,1.052,1.250,1.254,0,0,SEARCHING,0.000,0.250,0.000,-0.080
01:23:28.846,SEARCHING,7.564,2.356,1.148,0.00,0.00,50.82,0.927,1.211,1.026,1.232,1.221,0,0,SEARCHING,0.000,0.250,0.000,-0.079
01:23:29.047,SEARCHING,7.596,2.394,1.148,0.00,0.00,49.93,0.902,1.163,0.981,1.215,1.167,0,0,SEARCHING,0.000,0.250,0.000,-0.075
01:23:29.248,SEARCHING,7.628,2.432,1.148,0.00,0.00,49.10,0.878,1.096,0.935,1.189,1.104,0,0,SEARCHING,0.000,0.250,0.013,-0.065
01:23:29.448,SEARCHING,7.654,2.462,1.152,0.00,0.00,48.55,0.859,1.061,0.912,1.169,1.065,0,0,SEARCHING,0.000,0.250,0.041,-0.058
01:23:29.651,SEARCHING,7.681,2.492,1.162,0.00,0.00,48.02,0.841,1.032,0.901,1.147,1.025,0,0,SEARCHING,0.000,0.250,0.062,-0.061
01:23:29.850,SEARCHING,7.708,2.522,1.175,0.00,0.00,47.45,0.821,0.992,0.883,1.125,0.977,0,0,SEARCHING,0.000,0.250,0.085,-0.066
01:23:30.051,SEARCHING,7.735,2.551,1.194,0.00,0.00,46.67,0.802,1.058,0.968,1.106,0.937,0,0,SEARCHING,0.000,0.250,0.110,-0.125
01:23:30.251,SEARCHING,7.763,2.580,1.218,0.00,0.00,45.16,0.785,1.096,1.231,1.100,0.892,0,0,SEARCHING,0.000,0.250,0.144,-0.237
01:23:30.451,SEARCHING,7.792,2.608,1.250,0.00,0.00,42.42,0.781,1.113,1.450,1.116,0.839,0,0,SEARCHING,0.000,0.250,0.195,-0.354
01:23:30.652,SEARCHING,7.822,2.634,1.293,0.00,0.00,38.88,0.788,1.138,1.614,1.139,0.794,0,0,SEARCHING,0.000,0.250,0.272,-0.407
01:23:30.853,SEARCHING,7.854,2.658,1.354,0.00,0.00,35.10,0.807,1.220,1.877,1.217,0.790,0,0,SEARCHING,0.000,0.250,0.347,-0.409
01:23:31.053,SEARCHING,7.887,2.680,1.423,0.00,0.00,31.55,0.841,1.332,2.960,1.321,0.913,0,0,SEARCHING,0.000,0.250,0.303,-0.315
01:23:31.254,SEARCHING,7.921,2.701,1.476,0.00,0.00,29.33,0.872,1.439,3.174,1.279,1.090,0,0,SEARCHING,0.000,0.250,0.179,-0.176
01:23:31.455,SEARCHING,7.956,2.720,1.504,0.00,0.00,28.03,0.884,1.501,3.123,1.194,1.186,0,0,SEARCHING,0.000,0.250,0.069,-0.121
01:23:31.656,SEARCHING,7.992,2.738,1.513,0.00,0.00,26.98,0.896,1.527,3.079,1.158,1.222,0,0,SEARCHING,0.000,0.250,0.017,-0.110
01:23:31.856,SEARCHING,8.032,2.758,1.515,0.00,0.00,25.87,0.906,1.521,3.028,1.146,1.229,0,0,SEARCHING,0.000,0.251,0.004,-0.108
01:23:32.057,SEARCHING,8.078,2.780,1.515,0.00,0.00,24.62,0.912,2.641,2.982,1.148,1.231,0,0,SEARCHING,0.000,0.378,0.001,-0.111
01:23:32.256,SEARCHING,8.171,2.822,1.515,0.00,0.00,23.34,0.916,3.077,2.956,1.139,1.226,0,0,SEARCHING,0.000,0.686,0.000,-0.112
01:23:32.457,SEARCHING,8.306,2.878,1.515,0.00,0.00,22.02,0.913,3.027,2.871,1.143,1.217,0,0,SEARCHING,0.000,0.773,0.000,-0.126
01:23:32.659,SEARCHING,8.437,2.929,1.513,0.00,0.00,20.64,0.906,2.939,2.766,1.901,1.217,0,0,SEARCHING,0.000,0.793,-0.005,-0.149
01:23:32.859,SEARCHING,8.571,2.978,1.512,0.00,0.00,19.00,0.909,2.789,2.610,2.456,1.211,0,0,SEARCHING,0.000,0.779,-0.038,-0.176
01:23:33.059,SEARCHING,8.687,3.016,1.502,0.00,0.00,17.29,1.245,2.735,2.486,2.410,1.215,0,0,SEARCHING,0.000,0.752,-0.067,-0.136
01:23:33.260,SEARCHING,8.804,3.052,1.489,0.00,0.00,16.76,1.856,2.706,2.352,2.318,1.177,0,0,SEARCHING,0.000,0.784,-0.040,0.001
01:23:33.460,SEARCHING,8.925,3.089,1.484,0.00,0.00,16.97,1.956,2.641,2.309,2.184,1.136,0,0,SEARCHING,0.000,0.796,-0.009,0.033
01:23:33.661,SEARCHING,9.062,3.131,1.485,0.00,0.00,17.31,1.949,2.522,2.184,2.027,1.133,0,0,SEARCHING,0.000,0.775,0.030,0.029
01:23:33.862,SEARCHING,9.177,3.167,1.493,0.00,0.00,17.53,1.937,2.433,2.127,1.921,1.143,0,0,SEARCHING,0.000,0.729,0.057,0.020
01:23:34.063,SEARCHING,9.285,3.201,1.505,0.00,0.00,17.70,1.906,2.336,2.093,1.807,1.191,0,0,SEARCHING,0.000,0.682,0.068,0.017
01:23:34.263,SEARCHING,9.384,3.233,1.519,0.00,0.00,17.83,1.873,2.206,2.024,1.694,1.219,0,0,SEARCHING,0.000,0.621,0.063,0.011
01:23:34.465,SEARCHING,9.475,3.262,1.531,0.00,0.00,17.91,1.869,2.112,1.900,1.590,1.240,0,0,SEARCHING,0.000,0.573,0.060,0.005
01:23:34.666,SEARCHING,9.560,3.290,1.543,0.00,0.00,17.93,1.865,2.026,1.838,1.491,1.250,0,0,SEARCHING,0.000,0.533,0.052,0.001
01:23:34.866,SEARCHING,9.638,3.315,1.553,0.00,0.00,17.93,1.867,1.938,1.742,1.405,2.380,0,0,SEARCHING,0.000,0.492,0.066,-0.001
01:23:37.128,SEARCHING,9.710,3.338,1.576,0.00,0.00,17.92,1.854,1.849,1.672,1.322,3.299,0,0,SEARCHING,0.000,0.448,0.263,-0.000
01:23:37.141,SEARCHING,9.768,3.357,1.637,0.00,0.00,17.92,1.852,1.839,1.660,1.309,3.319,0,0,SEARCHING,0.000,0.424,0.369,0.001
01:23:37.208,SEARCHING,9.824,3.375,1.715,0.00,0.00,17.93,1.850,1.714,1.597,1.268,3.304,0,0,SEARCHING,0.000,0.403,0.390,0.003
01:23:37.386,SEARCHING,9.878,3.393,1.791,0.00,0.00,18.08,1.787,1.195,1.189,1.129,3.260,0,0,SEARCHING,0.000,0.299,0.349,0.050
01:23:37.584,SEARCHING,9.920,3.407,1.857,0.00,0.00,18.83,1.759,1.083,1.086,1.073,3.206,0,0,SEARCHING,0.000,0.262,0.296,0.115
01:23:37.784,SEARCHING,9.959,3.420,1.913,0.00,0.00,20.09,1.746,1.033,1.029,1.035,3.060,0,0,SEARCHING,0.000,0.253,0.232,0.161
01:23:37.985,SEARCHING,9.996,3.434,1.955,0.00,0.00,21.71,1.682,1.051,0.982,1.045,2.911,0,0,SEARCHING,0.000,0.251,0.172,0.195
01:23:38.188,SEARCHING,10.033,3.450,1.986,0.00,0.00,23.65,1.593,1.084,0.935,1.068,2.809,0,0,SEARCHING,0.000,0.250,0.134,0.232
01:23:38.387,SEARCHING,10.070,3.466,2.008,0.00,0.00,25.93,1.500,1.146,0.886,1.158,1.795,0,0,SEARCHING,0.000,0.250,0.020,0.268
01:23:38.588,SEARCHING,10.105,3.485,2.005,0.00,0.00,28.55,1.408,1.196,0.834,1.194,1.509,0,0,SEARCHING,0.000,0.250,-0.055,0.308
01:23:38.788,SEARCHING,10.140,3.505,1.995,0.00,0.00,31.55,1.302,1.401,0.778,1.437,1.517,0,0,SEARCHING,0.000,0.250,-0.020,0.353
01:23:38.989,SEARCHING,10.178,3.529,1.993,0.00,0.00,35.39,1.205,1.475,0.789,1.489,1.512,0,0,SEARCHING,0.000,0.250,-0.005,0.370
01:23:39.189,SEARCHING,10.217,3.559,1.993,0.00,0.00,39.40,1.099,1.507,0.879,1.520,1.496,0,0,SEARCHING,0.000,0.250,-0.001,0.282
01:23:39.389,SEARCHING,10.255,3.592,1.993,0.00,0.00,42.03,1.018,1.509,1.000,1.520,1.504,0,0,SEARCHING,0.000,0.251,-0.000,0.129
01:23:39.591,SEARCHING,10.292,3.626,1.993,0.00,0.00,42.78,0.968,1.440,1.161,1.446,1.441,0,0,SEARCHING,0.000,0.251,-0.000,-0.035
01:23:39.791,SEARCHING,10.329,3.660,1.993,0.00,0.00,41.97,0.940,1.396,1.154,1.398,1.394,0,0,SEARCHING,0.000,0.250,-0.000,-0.113
01:23:39.991,SEARCHING,10.367,3.693,1.993,0.00,0.00,40.57,0.930,1.401,1.115,1.403,1.389,0,0,SEARCHING,0.000,0.250,-0.000,-0.130
01:23:40.192,SEARCHING,10.405,3.725,1.993,0.00,0.00,39.10,0.926,1.349,1.069,1.349,1.342,0,0,SEARCHING,0.000,0.250,-0.000,-0.120
01:23:40.392,SEARCHING,10.444,3.756,1.993,0.00,0.00,37.80,0.924,1.283,1.027,1.289,1.283,0,0,SEARCHING,0.000,0.250,-0.000,-0.099
01:23:40.593,SEARCHING,10.484,3.786,1.993,0.00,0.00,36.77,0.921,1.221,0.982,1.228,1.228,0,0,SEARCHING,0.000,0.250,-0.000,-0.073
01:23:40.793,SEARCHING,10.524,3.816,1.993,0.00,0.00,36.04,0.914,1.165,0.945,1.174,1.179,0,0,SEARCHING,0.000,0.250,-0.000,-0.046
01:23:40.996,SEARCHING,10.565,3.845,1.993,0.00,0.00,35.62,0.903,1.114,0.904,1.127,1.127,0,0,SEARCHING,0.000,0.250,-0.000,-0.020
01:23:41.194,SEARCHING,10.606,3.874,1.993,0.00,0.00,35.49,0.882,1.068,0.869,1.078,1.079,0,0,SEARCHING,0.000,0.250,-0.000,0.002
01:23:41.395,SEARCHING,10.646,3.904,1.993,0.00,0.00,35.59,0.864,1.023,0.835,1.031,1.035,0,0,SEARCHING,0.000,0.250,-0.000,0.021
01:23:41.596,SEARCHING,10.687,3.933,1.993,0.00,0.00,35.92,0.841,0.986,0.798,0.987,0.991,0,0,SEARCHING,0.000,0.250,-0.000,0.042
01:23:41.797,SEARCHING,10.727,3.962,1.993,0.00,0.00,36.48,0.815,0.948,0.763,0.947,0.951,0,0,SEARCHING,0.000,0.250,-0.000,0.061
01:23:41.998,SEARCHING,10.767,3.992,1.993,0.00,0.00,37.22,0.780,0.912,0.734,0.909,0.912,0,0,SEARCHING,0.000,0.250,-0.000,0.069
01:23:42.199,SEARCHING,10.807,4.023,1.993,0.00,0.00,38.05,0.749,0.876,0.700,0.876,0.877,0,0,SEARCHING,0.000,0.250,-0.000,0.079
01:23:42.399,SEARCHING,10.846,4.054,1.993,0.00,0.00,38.98,0.715,0.843,0.672,0.846,0.846,0,0,SEARCHING,0.000,0.250,-0.000,0.084
01:23:42.599,SEARCHING,10.885,4.085,1.993,0.00,0.00,39.94,0.679,0.814,0.641,0.815,0.816,0,0,SEARCHING,0.000,0.250,-0.000,0.084
01:23:42.801,INSPECTING,10.909,4.106,1.993,0.00,0.00,40.56,0.648,0.783,0.612,0.784,0.783,0,0,INSPECT_BOTTOM,0.000,0.166,-0.204,0.042
01:23:43.001,INSPECTING,10.929,4.123,1.938,0.00,0.00,40.76,0.634,0.768,0.599,0.767,0.768,0,0,INSPECT_BOTTOM,0.000,0.158,-0.353,0.010
01:23:43.202,INSPECTING,10.947,4.139,1.864,0.00,0.00,40.81,0.622,0.745,0.581,0.747,0.850,0,0,INSPECT_BOTTOM,0.000,0.159,-0.389,0.002
01:23:43.404,INSPECTING,10.968,4.156,1.786,0.00,0.00,40.82,0.607,0.724,0.567,0.725,0.916,0,0,INSPECT_BOTTOM,0.000,0.175,-0.397,0.001
01:23:43.602,INSPECTING,10.989,4.175,1.705,0.00,0.00,40.83,0.598,0.704,0.552,0.699,0.910,0,0,INSPECT_BOTTOM,0.000,0.181,-0.399,0.000
01:23:43.804,INSPECTING,11.011,4.194,1.626,0.00,0.00,40.83,0.583,0.849,1.346,0.675,0.892,0,0,INSPECT_RIGHT,0.000,0.208,-0.280,-0.150
01:23:44.004,INSPECTING,11.041,4.219,1.588,0.00,0.00,37.92,0.578,0.882,1.455,0.639,0.889,0,0,INSPECT_RIGHT,0.000,0.267,-0.067,-0.416
01:23:44.204,INSPECTING,11.077,4.245,1.580,0.00,0.00,33.74,0.595,0.954,1.465,0.579,0.953,0,0,INSPECT_RIGHT,0.000,0.286,-0.016,-0.480
01:23:44.404,INSPECTING,11.121,4.272,1.578,0.00,0.00,28.69,0.633,1.091,1.455,0.526,1.097,0,0,INSPECT_RIGHT,0.000,0.291,-0.004,-0.495
01:23:44.606,INSPECTING,11.173,4.298,1.578,0.00,0.00,23.00,0.702,1.262,1.342,0.505,1.262,0,0,INSPECT_RIGHT,0.000,0.280,-0.001,-0.499
01:23:44.807,INSPECTING,11.225,4.317,1.578,0.00,0.00,17.28,0.815,1.372,1.330,0.512,1.384,0,0,INSPECT_RIGHT,0.000,0.270,-0.000,-0.500
01:23:45.008,INSPECTING,11.277,4.331,1.578,0.00,0.00,11.55,0.947,1.374,1.376,0.503,1.401,0,0,INSPECT_RIGHT,0.000,0.272,-0.000,-0.500
01:23:45.209,INSPECTING,11.331,4.339,1.578,0.00,0.00,5.82,1.100,1.389,1.430,0.507,2.015,0,0,INSPECT_BOTTOM,0.000,0.314,-0.120,-0.350
01:23:45.409,SEARCHING,11.388,4.344,1.536,0.00,0.00,4.15,1.166,1.495,2.753,0.554,2.363,0,0,INSPECT_BOTTOM,0.000,0.379,-0.333,-0.084
01:23:45.611,SEARCHING,11.447,4.348,1.450,0.00,0.00,4.01,1.133,2.331,3.777,0.755,2.479,0,0,SEARCHING,0.000,0.447,-0.464,0.092
01:23:45.810,SEARCHING,11.528,4.355,1.370,0.00,0.00,5.64,1.089,2.382,4.096,0.937,2.439,0,0,SEARCHING,0.000,0.544,-0.251,0.245
01:23:46.012,SEARCHING,11.614,4.365,1.332,0.00,0.00,8.11,1.025,2.188,4.095,1.081,2.209,0,0,SEARCHING,0.000,0.524,-0.105,0.274
01:23:46.213,SEARCHING,11.692,4.378,1.315,0.00,0.00,10.52,0.961,1.936,4.040,1.150,1.944,0,0,SEARCHING,0.000,0.447,-0.071,0.239
01:23:46.414,SEARCHING,11.756,4.390,1.301,0.00,0.00,12.42,0.896,1.696,3.856,1.213,1.713,0,0,SEARCHING,0.000,0.358,-0.066,0.157
01:23:46.614,SEARCHING,11.806,4.402,1.288,0.00,0.00,13.47,0.848,1.519,3.778,1.224,1.553,0,0,SEARCHING,0.000,0.286,-0.063,0.069
01:23:46.815,SEARCHING,11.848,4.412,1.276,0.00,0.00,13.82,0.806,1.445,3.756,1.293,1.474,0,0,SEARCHING,0.000,0.259,-0.040,0.003
01:23:47.016,SEARCHING,11.888,4.422,1.271,0.00,0.00,13.59,0.773,1.422,3.734,1.329,1.452,0,0,SEARCHING,0.000,0.252,-0.010,-0.055
01:23:47.217,SEARCHING,11.937,4.433,1.271,0.00,0.00,12.71,0.726,1.408,3.683,1.317,1.454,0,0,SEARCHING,0.000,0.251,-0.002,-0.125
01:23:47.417,SEARCHING,11.985,4.444,1.271,0.00,0.00,10.87,0.662,1.478,3.606,1.292,1.489,0,0,SEARCHING,0.000,0.250,-0.001,-0.238
01:23:47.617,SEARCHING,12.030,4.451,1.270,0.00,0.00,7.88,0.668,1.616,3.576,1.277,1.599,0,0,SEARCHING,0.000,0.253,-0.028,-0.332
01:23:47.819,SEARCHING,12.071,4.456,1.263,0.00,0.00,5.04,0.779,1.752,3.638,1.312,1.771,0,0,SEARCHING,0.000,0.278,-0.026,-0.237
01:23:48.019,SEARCHING,12.120,4.460,1.261,0.00,0.00,3.68,0.941,1.992,3.700,1.334,2.898,0,0,SEARCHING,0.000,0.347,0.092,-0.040
01:23:48.220,SEARCHING,12.195,4.465,1.293,0.00,0.00,3.95,0.980,3.464,3.620,1.275,3.223,0,0,SEARCHING,0.000,0.648,0.270,0.072
01:23:48.421,SEARCHING,12.310,4.473,1.353,0.00,0.00,4.72,0.945,3.540,3.519,1.132,3.345,0,0,SEARCHING,0.000,0.764,0.333,0.076
01:23:48.622,SEARCHING,12.435,4.484,1.421,0.00,0.00,5.23,0.904,3.402,3.364,0.962,3.651,0,0,SEARCHING,0.000,0.791,0.348,0.022
01:23:48.823,SEARCHING,12.562,4.496,1.489,0.00,0.00,5.14,0.873,3.286,3.257,0.789,3.824,0,0,SEARCHING,0.000,0.798,0.289,-0.045
01:23:49.024,SEARCHING,12.689,4.507,1.538,0.00,0.00,4.48,0.855,3.089,3.111,0.645,3.987,0,0,SEARCHING,0.000,0.799,0.126,-0.105
01:23:49.224,SEARCHING,12.817,4.515,1.550,0.00,0.00,3.31,0.851,2.930,3.002,0.585,4.074,0,0,SEARCHING,0.000,0.800,-0.043,-0.148
01:23:49.425,SEARCHING,12.944,4.521,1.537,0.00,0.00,1.83,0.857,2.839,2.882,0.610,4.030,0,0,SEARCHING,0.000,0.783,-0.087,-0.175
01:23:49.628,SEARCHING,13.066,4.524,1.518,0.00,0.00,0.14,0.873,2.768,2.814,0.635,3.996,0,0,SEARCHING,0.000,0.748,-0.077,-0.188
01:23:49.827,SEARCHING,13.184,4.522,1.509,0.00,0.00,-1.55,1.110,2.663,2.724,0.686,3.955,0,0,SEARCHING,0.000,0.721,0.021,-0.133
01:23:50.029,SEARCHING,13.299,4.519,1.516,0.00,0.00,-2.10,1.538,2.580,2.665,0.669,3.947,0,0,SEARCHING,0.000,0.720,0.028,0.013
01:23:50.228,SEARCHING,13.413,4.515,1.542,0.00,0.00,-1.64,1.769,2.410,2.504,1.607,4.056,0,0,SEARCHING,0.000,0.695,0.446,0.067
01:23:50.428,SEARCHING,13.520,4.512,1.649,0.00,0.00,-1.03,1.784,2.271,2.310,0.659,4.236,0,0,SEARCHING,0.000,0.642,0.452,0.057
01:23:50.630,SEARCHING,13.619,4.511,1.731,0.00,0.00,-0.58,1.834,2.186,2.263,1.456,4.430,0,0,SEARCHING,0.000,0.597,0.506,0.044
01:23:50.831,SEARCHING,13.713,4.510,1.778,0.00,-0.00,-0.22,1.862,2.092,2.149,2.080,4.637,0,0,SEARCHING,0.000,0.565,0.653,0.032
01:23:51.034,SEARCHING,13.800,4.510,1.778,0.00,-0.00,0.00,1.883,2.006,1.992,2.081,4.664,0,0,SEARCHING,0.000,0.524,0.689,0.016
01:23:51.233,SEARCHING,13.881,4.510,1.778,0.00,-0.00,0.09,1.879,1.953,1.904,2.014,4.669,0,0,SEARCHING,0.000,0.497,0.697,0.005
01:23:51.434,SEARCHING,14.312,4.481,2.245,0.03,-0.12,-3.06,1.590,1.629,1.645,1.644,2.065,0,0,SEARCHING,0.000,0.410,0.374,-0.000
01:23:51.634,SEARCHING,14.370,4.478,2.295,0.03,-0.12,-3.08,1.483,1.519,1.550,1.529,1.552,0,0,SEARCHING,0.000,0.331,0.095,-0.005
01:23:51.834,SEARCHING,14.420,4.475,2.307,0.03,-0.12,-3.15,1.434,1.464,1.504,1.469,1.447,0,0,SEARCHING,0.000,0.291,0.023,-0.009
01:23:52.035,SEARCHING,14.464,4.473,2.310,0.03,-0.12,-3.24,1.385,1.415,1.446,1.418,1.398,0,0,SEARCHING,0.000,0.268,0.005,-0.011
01:23:52.236,SEARCHING,14.517,4.470,2.310,0.03,-0.12,-3.38,1.334,1.361,1.398,1.364,1.358,0,0,SEARCHING,0.000,0.255,0.001,-0.014
01:23:52.436,SEARCHING,14.567,4.467,2.310,0.03,-0.12,-3.54,1.285,1.313,1.341,1.312,1.313,0,0,SEARCHING,0.000,0.251,0.000,-0.015
01:23:52.636,SEARCHING,14.617,4.463,2.310,0.03,-0.12,-3.72,1.236,1.265,1.299,1.265,1.265,0,0,SEARCHING,0.000,0.250,0.000,-0.018
01:23:52.838,SEARCHING,14.667,4.460,2.310,0.03,-0.12,-3.95,1.188,1.213,1.247,1.213,1.216,0,0,SEARCHING,0.000,0.250,0.000,-0.022
01:23:53.039,SEARCHING,14.717,4.457,2.310,0.03,-0.12,-4.21,1.146,1.177,1.207,1.177,1.178,0,0,SEARCHING,0.000,0.250,0.000,-0.025
01:23:53.239,SEARCHING,14.767,4.453,2.310,0.03,-0.12,-4.52,1.087,1.116,1.151,1.119,1.117,0,0,SEARCHING,0.000,0.250,0.000,-0.030
01:23:53.439,SEARCHING,14.817,4.449,2.310,0.03,-0.12,-4.89,1.035,1.068,1.103,1.068,1.069,0,0,SEARCHING,0.000,0.250,0.000,-0.037
01:23:53.640,SEARCHING,14.867,4.444,2.310,0.03,-0.12,-5.34,0.984,1.021,1.055,1.019,1.022,0,0,SEARCHING,0.000,0.250,0.000,-0.044
01:23:53.841,SEARCHING,14.916,4.439,2.310,0.03,-0.12,-5.88,0.946,0.977,1.017,0.977,0.979,0,0,SEARCHING,0.000,0.250,0.000,-0.051
01:23:54.041,SEARCHING,14.966,4.434,2.310,0.03,-0.12,-6.51,0.888,0.920,0.960,0.920,0.919,0,0,SEARCHING,0.000,0.250,0.000,-0.061
01:23:54.243,SEARCHING,15.016,4.428,2.310,0.03,-0.12,-7.25,0.836,0.871,0.912,0.873,0.870,0,0,SEARCHING,0.000,0.250,0.000,-0.073
01:23:54.444,SEARCHING,15.065,4.421,2.310,0.03,-0.12,-8.15,0.786,0.822,0.864,0.824,0.823,0,0,SEARCHING,0.000,0.250,0.000,-0.089
01:23:54.644,INSPECTING,15.112,4.414,2.310,0.03,-0.12,-9.49,0.735,0.773,0.818,0.775,0.774,0,0,INSPECT_RIGHT,0.000,0.170,0.000,-0.303
01:23:54.845,INSPECTING,15.144,4.408,2.310,0.03,-0.12,-13.79,0.690,0.737,0.792,0.738,0.736,0,0,INSPECT_RIGHT,0.000,0.162,0.000,-0.453
01:23:55.045,INSPECTING,15.175,4.399,2.310,0.03,-0.12,-19.18,0.648,0.712,0.789,0.711,0.711,0,0,INSPECT_RIGHT,0.000,0.159,0.000,-0.489
01:23:55.246,INSPECTING,15.205,4.387,2.310,0.03,-0.12,-24.83,0.619,0.694,0.795,0.696,0.695,0,0,INSPECT_RIGHT,0.000,0.158,0.000,-0.497
01:23:55.446,INSPECTING,15.233,4.373,2.310,0.03,-0.12,-30.54,0.588,0.684,0.818,0.685,0.683,0,0,INSPECT_RIGHT,0.000,0.161,0.000,-0.499
01:23:55.647,INSPECTING,15.260,4.355,2.310,0.03,-0.12,-36.26,0.569,0.684,0.857,0.686,0.685,0,0,INSPECT_RIGHT,0.000,0.167,0.000,-0.500
01:23:55.848,INSPECTING,15.286,4.334,2.310,0.03,-0.12,-41.99,0.559,0.694,0.916,0.695,0.694,0,0,INSPECT_RIGHT,0.000,0.176,0.000,-0.500
01:23:56.051,INSPECTING,15.312,4.308,2.310,0.03,-0.12,-47.72,0.555,0.715,1.012,0.715,0.716,0,0,INSPECT_RIGHT,0.000,0.189,0.000,-0.500
01:23:56.249,INSPECTING,15.337,4.278,2.310,0.03,-0.12,-53.45,0.558,0.749,1.137,0.750,0.749,0,0,INSPECT_RIGHT,0.000,0.211,0.000,-0.500
01:23:56.450,INSPECTING,15.362,4.241,2.310,0.03,-0.12,-59.18,0.567,0.797,1.343,0.799,0.799,0,0,INSPECT_RIGHT,0.000,0.243,0.000,-0.500
01:23:56.650,INSPECTING,15.386,4.196,2.310,0.03,-0.12,-64.91,0.588,0.877,1.465,0.877,0.876,0,0,INSPECT_RIGHT,0.000,0.277,0.000,-0.500
01:23:56.851,INSPECTING,15.408,4.144,2.310,0.03,-0.12,-70.64,0.620,0.980,1.460,0.978,0.983,0,0,INSPECT_RIGHT,0.000,0.289,0.000,-0.500
01:23:57.052,INSPECTING,15.424,4.088,2.310,0.03,-0.12,-76.37,0.670,1.159,1.456,1.153,1.161,0,0,INSPECT_RIGHT,0.000,0.291,0.000,-0.500
01:23:57.252,INSPECTING,15.436,4.031,2.310,0.03,-0.12,-82.10,0.745,1.381,1.444,1.232,1.376,0,0,INSPECT_RIGHT,0.000,0.290,0.000,-0.500
01:23:57.453,INSPECTING,15.441,3.974,2.310,0.03,-0.12,-87.83,0.869,1.376,1.430,1.239,1.377,0,0,INSPECT_RIGHT,0.000,0.288,0.000,-0.500
01:23:57.653,INSPECTING,15.440,3.916,2.310,0.03,-0.12,-93.56,1.068,1.324,1.427,1.237,1.322,0,0,INSPECT_RIGHT,0.000,0.286,0.000,-0.500
01:23:57.853,INSPECTING,15.434,3.859,2.310,0.03,-0.12,-99.29,1.145,1.286,1.432,1.232,1.282,0,0,INSPECT_RIGHT,0.000,0.286,0.000,-0.500
01:23:58.056,INSPECTING,15.423,3.803,2.310,0.03,-0.12,-105.02,1.103,1.258,1.458,1.225,1.256,0,0,INSPECT_RIGHT,0.000,0.288,0.000,-0.500
01:23:58.255,INSPECTING,15.405,3.747,2.310,0.03,-0.12,-110.75,1.061,1.244,1.654,1.224,1.244,0,0,INSPECT_RIGHT,0.000,0.309,0.000,-0.500
01:23:58.456,INSPECTING,15.380,3.689,2.310,0.03,-0.12,-116.48,1.028,1.244,1.564,1.224,1.246,0,0,INSPECT_RIGHT,0.000,0.319,0.000,-0.500
01:23:58.656,INSPECTING,15.349,3.635,2.310,0.03,-0.12,-122.21,1.007,1.267,1.411,1.235,1.265,0,0,INSPECT_RIGHT,0.000,0.300,0.000,-0.500
01:23:58.857,SEARCHING,15.316,3.587,2.310,0.03,-0.12,-127.93,1.001,1.449,1.277,1.237,1.450,0,0,INSPECT_RIGHT,0.000,0.273,0.000,-0.500
01:23:59.057,SEARCHING,15.290,3.554,2.307,0.03,-0.12,-130.90,1.006,1.561,1.187,1.239,1.555,0,0,SEARCHING,0.000,0.264,-0.041,-0.209
01:23:59.258,SEARCHING,15.261,3.523,2.297,0.03,-0.12,-132.32,1.001,1.525,1.136,1.263,1.530,0,0,SEARCHING,0.000,0.263,-0.048,-0.119
01:23:59.458,SEARCHING,15.233,3.492,2.290,0.03,-0.12,-133.24,0.989,1.464,1.094,1.286,1.469,0,0,SEARCHING,0.000,0.254,-0.016,-0.085
01:23:59.659,SEARCHING,15.202,3.459,2.288,0.03,-0.12,-134.03,0.971,1.408,1.062,1.274,1.407,0,0,SEARCHING,0.000,0.251,-0.004,-0.071
01:23:59.859,SEARCHING,15.167,3.423,2.288,0.03,-0.12,-134.83,0.987,1.345,1.024,1.265,1.347,0,0,SEARCHING,0.000,0.250,-0.001,-0.056
01:24:00.059,SEARCHING,15.131,3.388,2.288,0.03,-0.12,-135.21,1.068,1.289,0.987,1.263,1.291,0,0,SEARCHING,0.000,0.250,-0.000,0.012
01:24:00.261,SEARCHING,15.096,3.353,2.288,0.03,-0.12,-134.85,1.055,1.250,0.948,1.244,1.248,0,0,SEARCHING,0.000,0.250,-0.000,0.058
01:24:00.462,SEARCHING,15.061,3.317,2.288,0.03,-0.12,-134.09,1.022,1.219,0.924,1.221,1.221,0,0,SEARCHING,0.000,0.250,-0.000,0.075
01:24:00.661,SEARCHING,15.026,3.281,2.288,0.03,-0.12,-133.21,0.985,1.193,0.900,1.192,1.195,0,0,SEARCHING,0.000,0.250,-0.000,0.077
01:24:00.862,SEARCHING,14.992,3.244,2.288,0.03,-0.12,-132.33,0.946,1.166,0.874,1.165,1.171,0,0,SEARCHING,0.000,0.250,-0.000,0.074
01:24:01.063,SEARCHING,14.959,3.207,2.288,0.03,-0.12,-131.50,0.911,1.147,0.852,1.146,1.146,0,0,SEARCHING,0.000,0.250,-0.000,0.069
01:24:01.265,SEARCHING,14.926,3.169,2.288,0.03,-0.12,-130.74,0.876,1.124,0.827,1.126,1.122,0,0,SEARCHING,0.000,0.250,-0.000,0.062
01:24:01.464,SEARCHING,14.894,3.131,2.288,0.03,-0.12,-130.05,0.842,1.096,0.803,1.101,1.092,0,0,SEARCHING,0.000,0.250,-0.000,0.056
01:24:01.664,SEARCHING,14.862,3.093,2.288,0.03,-0.12,-129.45,0.806,1.066,0.781,1.071,1.065,0,0,SEARCHING,0.000,0.250,-0.000,0.044
01:24:01.865,SEARCHING,14.830,3.054,2.288,0.03,-0.12,-129.00,0.774,1.038,0.755,1.038,1.040,0,0,SEARCHING,0.000,0.250,-0.000,0.032
01:24:02.065,SEARCHING,14.799,3.015,2.288,0.03,-0.12,-128.66,0.741,1.003,0.725,1.004,1.003,0,0,SEARCHING,0.000,0.250,-0.000,0.028
01:24:02.266,SEARCHING,14.768,2.976,2.288,0.03,-0.12,-128.35,0.707,0.966,0.701,0.971,0.970,0,0,SEARCHING,0.000,0.250,-0.000,0.020
01:24:02.466,SEARCHING,14.737,2.937,2.288,0.03,-0.12,-128.18,0.674,0.923,0.674,0.928,0.925,0,0,SEARCHING,0.000,0.250,-0.000,0.008
01:24:02.667,SEARCHING,14.706,2.898,2.288,0.03,-0.12,-128.12,0.645,0.883,0.646,0.884,0.883,0,0,SEARCHING,0.000,0.250,-0.000,0.001
01:24:02.871,SEARCHING,14.675,2.858,2.288,0.03,-0.12,-128.12,0.615,0.842,0.618,0.842,0.841,0,0,SEARCHING,0.000,0.250,-0.000,-0.003
01:24:03.071,SEARCHING,14.644,2.819,2.288,0.03,-0.12,-128.16,0.588,0.800,0.589,0.804,0.800,0,0,SEARCHING,0.000,0.250,-0.000,-0.004
01:24:03.271,INSPECTING,14.624,2.794,2.290,0.03,-0.12,-128.19,0.561,0.766,0.563,0.769,0.768,0,0,INSPECT_TOP,0.000,0.165,0.204,-0.002
01:24:03.472,INSPECTING,14.609,2.774,2.344,0.03,-0.12,-128.20,0.545,0.744,0.548,0.751,0.746,0,0,INSPECT_TOP,0.000,0.155,0.353,-0.001
01:24:03.675,INSPECTING,14.594,2.755,2.418,0.03,-0.12,-128.21,0.532,0.726,0.534,0.732,0.726,0,0,INSPECT_TOP,0.000,0.149,0.389,-0.000
01:24:03.875,INSPECTING,14.579,2.736,2.497,0.03,-0.12,-128.21,0.518,0.708,0.518,0.709,0.704,0,0,INSPECT_TOP,0.000,0.145,0.397,-0.000
01:24:04.075,INSPECTING,14.565,2.718,2.577,0.03,-0.12,-128.21,0.503,0.690,0.506,0.603,0.689,0,0,INSPECT_TOP,0.000,0.133,0.399,-0.000
01:24:04.276,INSPECTING,14.552,2.702,2.629,0.03,-0.12,-128.21,0.489,0.670,0.494,0.473,0.669,0,0,INSPECT_BOTTOM,0.000,0.133,-0.126,-0.000
01:24:04.477,INSPECTING,14.539,2.685,2.583,0.03,-0.12,-128.21,0.474,0.653,0.480,0.492,0.652,0,0,INSPECT_BOTTOM,0.000,0.132,-0.334,-0.000
01:24:04.676,INSPECTING,14.526,2.669,2.511,0.03,-0.12,-128.21,0.464,0.635,0.465,0.603,0.635,0,0,INSPECT_BOTTOM,0.000,0.129,-0.384,-0.000
01:24:04.878,INSPECTING,14.513,2.653,2.433,0.03,-0.12,-128.21,0.453,0.618,0.456,0.613,0.619,0,0,INSPECT_BOTTOM,0.000,0.126,-0.396,-0.000
01:24:05.080,INSPECTING,14.501,2.637,2.353,0.03,-0.12,-128.21,0.440,0.604,0.444,0.598,0.603,0,0,INSPECT_BOTTOM,0.000,0.123,-0.399,-0.000
01:24:05.280,INSPECTING,14.489,2.622,2.273,0.03,-0.12,-128.21,0.426,0.587,0.431,0.583,0.584,0,0,INSPECT_BOTTOM,0.000,0.119,-0.400,-0.000
01:24:05.480,INSPECTING,14.477,2.607,2.193,0.03,-0.12,-128.21,0.415,0.570,0.419,0.570,0.568,0,0,INSPECT_BOTTOM,0.000,0.116,-0.400,-0.000
01:24:05.681,INSPECTING,14.466,2.593,2.113,0.03,-0.12,-128.21,0.408,0.558,0.412,0.559,0.558,0,0,INSPECT_BOTTOM,0.000,0.113,-0.400,-0.000
01:24:05.882,INSPECTING,14.455,2.579,2.033,0.03,-0.12,-128.21,0.395,0.541,0.400,0.542,0.541,0,0,INSPECT_BOTTOM,0.000,0.110,-0.400,-0.000
01:24:06.082,INSPECTING,14.444,2.565,1.953,0.03,-0.12,-128.21,0.384,0.527,0.390,0.526,0.528,0,0,INSPECT_BOTTOM,0.000,0.107,-0.400,-0.000
01:24:06.283,INSPECTING,14.434,2.552,1.873,0.03,-0.12,-128.21,0.373,0.514,0.380,0.514,0.516,0,0,INSPECT_BOTTOM,0.000,0.105,-0.400,-0.000
01:24:06.520,TURNING,14.423,2.538,1.793,0.03,-0.12,-128.21,0.361,0.499,0.367,0.500,0.501,0,0,TURNING,0.000,0.087,-0.280,-0.420
01:24:06.683,TURNING,14.418,2.532,1.749,0.03,-0.12,-133.39,0.361,0.484,0.355,0.482,0.502,0,0,TURNING,0.000,0.063,-0.096,-1.064
01:24:06.888,TURNING,14.411,2.526,1.737,0.03,-0.11,-144.61,0.392,0.424,0.326,0.424,0.577,0,0,TURNING,0.000,0.053,-0.023,-1.319
01:24:07.089,TURNING,14.404,2.521,1.734,0.03,-0.11,-157.06,0.408,0.342,0.289,0.340,0.990,0,0,TURNING,0.000,0.051,-0.006,-1.381
01:24:07.291,TURNING,14.394,2.519,1.734,0.03,-0.11,-172.96,0.326,0.292,1.515,0.289,1.311,0,0,TURNING,0.000,0.050,-0.001,-1.395
01:24:07.491,TURNING,14.384,2.519,1.734,0.03,-0.11,171.03,0.761,2.114,3.066,0.262,1.807,0,0,TURNING,0.000,0.050,-0.000,-1.399
01:24:07.692,TURNING,14.374,2.522,1.734,0.03,-0.11,154.99,2.349,4.089,1.302,0.246,2.927,0,0,TURNING,0.000,0.050,-0.000,-1.400
01:24:07.893,TURNING,14.366,2.527,1.734,0.03,-0.11,138.95,4.280,1.161,0.430,0.253,3.301,0,0,TURNING,0.000,0.050,-0.000,-1.400
01:24:08.094,TURNING,14.359,2.534,1.734,0.03,-0.11,122.91,1.687,0.411,0.439,0.296,2.831,0,0,TURNING,0.000,0.050,-0.000,-1.400
01:24:08.296,TURNING,14.355,2.543,1.734,0.03,-0.11,106.87,0.469,0.427,0.834,0.408,2.483,0,0,TURNING,0.000,0.050,-0.000,-1.400
01:24:08.497,TURNING,14.353,2.553,1.734,0.03,-0.11,90.82,0.417,0.758,2.188,0.750,2.349,0,0,TURNING,0.000,0.050,-0.000,-1.400
01:24:08.697,TURNING,14.354,2.563,1.734,0.03,-0.11,74.78,0.720,2.067,2.455,2.048,2.428,0,0,TURNING,0.000,0.050,-0.000,-1.400
01:24:08.897,TURNING,14.358,2.572,1.734,0.03,-0.11,58.74,1.884,2.573,1.920,2.546,2.684,0,0,TURNING,0.000,0.050,-0.000,-1.400
01:24:09.099,RETURNING,14.362,2.578,1.735,0.03,-0.11,50.31,2.345,2.112,1.574,2.146,3.154,0,0,RETURNING,0.000,0.043,0.127,0.385
01:24:09.300,RETURNING,14.366,2.584,1.774,0.03,-0.11,59.49,2.371,2.130,1.571,2.151,3.124,0,0,RETURNING,0.000,0.048,0.273,1.332
01:24:11.535,RETURNING,14.370,2.591,1.823,0.03,-0.11,72.57,2.292,2.414,1.674,2.412,2.900,0,0,RETURNING,0.000,0.050,0.212,1.448
01:24:11.565,RETURNING,14.371,2.598,1.863,0.03,-0.11,85.56,2.292,2.414,1.674,2.412,2.900,0,0,RETURNING,0.000,0.050,0.167,1.355
01:24:11.704,RETURNING,14.371,2.606,1.896,0.03,-0.11,97.40,0.649,1.281,2.443,1.301,2.339,0,0,RETURNING,0.000,0.050,0.121,0.695
01:24:11.896,RETURNING,14.370,2.614,1.909,0.03,-0.11,97.26,0.454,0.859,2.419,0.872,1.020,0,0,RETURNING,0.000,0.050,-0.057,-0.550
01:24:12.095,RETURNING,14.370,2.622,1.894,0.03,-0.11,90.01,0.475,1.016,2.468,1.039,1.808,0,0,RETURNING,0.000,0.050,-0.093,-0.933
01:24:12.296,RETURNING,14.370,2.630,1.877,0.03,-0.11,81.00,0.633,1.983,2.563,1.939,2.272,0,0,RETURNING,0.000,0.050,-0.017,-0.353
01:24:12.498,RETURNING,14.371,2.638,1.879,0.03,-0.11,84.44,0.733,2.330,2.499,2.268,2.378,0,0,RETURNING,0.000,0.050,0.017,0.807
01:24:12.698,RETURNING,14.371,2.646,1.884,0.03,-0.11,93.18,0.595,1.733,2.553,1.709,2.274,0,0,RETURNING,0.000,0.050,0.056,0.985
01:24:12.898,RETURNING,14.371,2.654,1.894,0.03,-0.11,97.39,0.448,0.916,2.410,0.933,2.249,0,0,RETURNING,0.000,0.050,-0.024,-0.361
01:24:13.099,RETURNING,14.370,2.662,1.879,0.03,-0.11,91.03,0.448,0.932,2.420,0.939,2.232,0,0,RETURNING,0.000,0.050,-0.144,-0.888
01:24:13.300,RETURNING,14.370,2.670,1.855,0.03,-0.11,82.22,0.599,1.836,2.532,1.816,2.274,0,0,RETURNING,0.000,0.050,-0.020,-0.357
01:24:13.501,RETURNING,14.371,2.678,1.857,0.03,-0.11,85.47,0.669,2.261,2.571,2.216,2.335,0,0,RETURNING,0.000,0.050,0.019,0.774
01:24:13.700,RETURNING,14.371,2.686,1.862,0.03,-0.11,93.91,0.541,1.452,2.473,1.429,2.220,0,0,RETURNING,0.000,0.050,0.047,0.402
01:24:13.901,RETURNING,14.371,2.694,1.871,0.03,-0.11,91.46,0.482,1.078,2.411,1.094,2.212,0,0,RETURNING,0.000,0.050,0.006,-0.701
01:24:14.102,RETURNING,14.371,2.704,1.871,0.03,-0.11,82.02,0.603,1.845,2.516,1.817,2.252,0,0,RETURNING,0.000,0.050,0.021,-0.303
01:24:14.302,RETURNING,14.372,2.712,1.875,0.03,-0.11,85.55,0.680,2.239,2.518,2.215,2.321,0,0,RETURNING,0.000,0.050,0.013,0.791
01:24:14.505,RETURNING,14.372,2.720,1.879,0.03,-0.11,94.08,0.538,1.407,2.426,1.417,2.186,0,0,RETURNING,0.000,0.050,0.042,0.400
01:24:14.704,RETURNING,14.372,2.728,1.887,0.03,-0.11,91.57,0.472,1.058,2.378,1.070,2.165,0,0,RETURNING,0.000,0.050,-0.004,-0.705
01:24:14.905,RETURNING,14.372,2.736,1.884,0.03,-0.11,83.57,0.542,1.415,2.423,1.431,2.147,0,0,RETURNING,0.000,0.050,0.009,-0.926
01:24:15.106,RETURNING,14.373,2.744,1.888,0.03,-0.11,80.00,0.764,2.198,2.411,2.175,2.286,0,0,RETURNING,0.000,0.050,0.028,0.471
01:24:15.306,RETURNING,14.374,2.752,1.892,0.03,-0.11,87.59,0.685,2.178,2.478,2.121,2.253,0,0,RETURNING,0.000,0.050,0.007,0.999
01:24:15.506,RETURNING,14.374,2.761,1.895,0.03,-0.11,98.00,0.514,1.254,2.379,1.269,2.150,0,0,RETURNING,0.000,0.050,0.027,0.395
01:24:15.707,RETURNING,14.373,2.769,1.892,0.03,-0.11,95.28,0.426,0.848,2.307,0.849,1.035,0,0,RETURNING,0.000,0.050,-0.113,-0.713
01:24:15.907,RETURNING,14.373,2.777,1.863,0.03,-0.11,87.19,0.479,1.074,2.343,1.098,1.919,0,0,RETURNING,0.000,0.050,-0.154,-0.986
01:24:16.108,RETURNING,14.374,2.785,1.841,0.03,-0.11,82.82,0.672,2.089,2.477,2.085,2.218,0,0,RETURNING,0.000,0.050,-0.028,0.387
01:24:16.308,RETURNING,14.374,2.792,1.838,0.03,-0.11,89.63,0.604,1.847,2.424,1.825,2.151,0,0,RETURNING,0.000,0.050,0.010,0.915
01:24:16.509,RETURNING,14.374,2.800,1.842,0.03,-0.11,98.26,0.487,1.149,2.337,1.172,2.094,0,0,RETURNING,0.000,0.050,0.029,0.330
01:24:16.711,RETURNING,14.373,2.808,1.837,0.03,-0.11,95.12,0.417,0.814,2.265,0.838,2.088,0,0,RETURNING,0.000,0.050,-0.175,-0.734
01:24:16.910,RETURNING,14.373,2.816,1.797,0.03,-0.11,86.92,0.479,1.105,2.310,1.113,2.066,0,0,RETURNING,0.000,0.050,-0.153,-0.994
01:24:17.111,RETURNING,14.373,2.824,1.777,0.03,-0.11,82.51,0.659,2.003,2.435,1.981,2.183,0,0,RETURNING,0.000,0.050,-0.010,0.387
01:24:17.312,RETURNING,14.374,2.833,1.777,0.03,-0.11,90.08,0.608,1.801,2.394,1.753,2.104,0,0,RETURNING,0.000,0.050,0.017,0.922
01:24:17.512,RETURNING,14.374,2.841,1.781,0.03,-0.11,94.29,0.480,1.084,2.290,1.078,2.049,0,0,RETURNING,0.000,0.050,-0.016,-0.348
01:24:17.713,RETURNING,14.373,2.849,1.772,0.03,-0.11,87.87,0.499,1.214,2.297,1.194,2.032,0,0,RETURNING,0.000,0.050,-0.057,-0.910
01:24:17.913,RETURNING,14.374,2.857,1.766,0.03,-0.11,83.77,0.641,1.992,2.405,1.987,2.132,0,0,RETURNING,0.000,0.050,0.004,0.386
01:24:18.114,RETURNING,14.375,2.867,1.766,0.03,-0.11,91.22,0.600,1.800,2.365,1.760,2.082,0,0,RETURNING,0.000,0.050,0.015,0.894
01:24:18.315,RETURNING,14.374,2.875,1.769,0.03,-0.11,95.03,0.460,1.030,2.244,1.014,2.023,0,0,RETURNING,0.000,0.050,-0.032,-0.391
01:24:18.516,RETURNING,14.374,2.883,1.755,0.03,-0.11,88.40,0.472,1.082,2.253,1.061,2.013,0,0,RETURNING,0.000,0.050,-0.109,-0.919
01:24:18.715,RETURNING,14.375,2.891,1.737,0.03,-0.11,79.47,0.683,1.951,2.371,1.932,2.107,0,0,RETURNING,0.000,0.050,-0.037,-0.324
01:24:18.916,RETURNING,14.376,2.899,1.733,0.03,-0.11,83.28,0.784,2.118,2.384,2.123,2.155,0,0,RETURNING,0.000,0.050,-0.009,0.850
01:24:19.117,RETURNING,14.376,2.909,1.733,0.03,-0.11,94.24,0.593,1.643,2.306,1.604,2.030,0,0,RETURNING,0.000,0.050,0.011,1.000
01:24:19.316,RETURNING,14.375,2.917,1.732,0.03,-0.11,98.42,0.434,0.902,2.168,0.890,1.989,0,0,RETURNING,0.000,0.050,-0.110,-0.378
01:24:19.517,RETURNING,14.374,2.925,1.696,0.03,-0.10,91.86,0.491,0.920,2.172,0.912,1.977,0,0,RETURNING,0.000,0.050,-0.252,-0.919
01:24:19.718,RETURNING,14.375,2.933,1.652,0.03,-0.10,83.69,0.751,1.486,2.254,1.408,1.974,0,0,RETURNING,0.000,0.050,-0.104,-0.703
01:24:19.918,RETURNING,14.376,2.941,1.639,0.03,-0.10,82.38,0.952,2.029,2.367,2.015,2.086,0,0,RETURNING,0.000,0.050,-0.025,0.621
01:24:20.119,RETURNING,14.376,2.949,1.636,0.03,-0.10,90.86,1.021,1.921,2.308,1.850,2.021,0,0,RETURNING,0.000,0.050,-0.006,1.078
01:24:20.320,RETURNING,14.375,2.959,1.636,0.03,-0.10,100.52,0.984,1.154,2.125,0.893,1.961,0,0,RETURNING,0.000,0.050,-0.079,0.264
01:24:20.525,RETURNING,14.374,2.967,1.601,0.03,-0.10,100.97,1.118,1.151,2.074,0.702,1.944,0,0,RETURNING,0.000,0.050,-0.385,-0.055
01:24:20.723,RETURNING,14.372,2.974,1.509,0.03,-0.10,100.44,1.820,1.762,2.062,0.694,1.935,0,0,RETURNING,0.000,0.050,-0.547,0.307
01:24:20.925,RETURNING,14.371,2.982,1.403,0.03,-0.10,106.75,2.066,1.908,1.998,0.899,1.911,0,0,RETURNING,0.000,0.050,-0.412,0.888
01:24:21.125,RETURNING,14.367,2.991,1.334,0.03,-0.10,115.41,2.205,1.947,1.891,1.072,1.949,0,0,RETURNING,0.000,0.078,-0.222,0.948
01:24:21.325,RETURNING,14.359,3.005,1.299,0.03,-0.10,123.86,2.342,2.026,1.785,1.198,2.029,0,0,RETURNING,0.000,0.140,-0.086,0.878
01:24:21.526,RETURNING,14.342,3.027,1.288,0.03,-0.10,131.50,2.826,2.184,1.763,1.244,2.178,0,0,RETURNING,0.000,0.219,-0.021,0.773
01:24:21.726,RETURNING,14.313,3.057,1.285,0.03,-0.10,138.13,3.067,2.274,1.815,1.257,2.270,0,0,RETURNING,0.000,0.303,0.009,0.668
01:24:21.926,RETURNING,14.271,3.091,1.289,0.03,-0.10,143.89,2.986,2.426,1.881,1.253,2.336,0,0,RETURNING,0.000,0.386,0.043,0.587
01:24:22.127,RETURNING,14.212,3.130,1.299,0.03,-0.10,149.01,2.807,2.739,1.934,1.237,2.385,0,0,RETURNING,0.000,0.513,0.060,0.528
01:24:22.328,RETURNING,14.135,3.173,1.311,0.03,-0.10,153.63,2.669,2.864,1.944,1.200,2.403,0,0,RETURNING,0.000,0.584,0.063,0.478
01:24:22.528,RETURNING,14.047,3.213,1.324,0.03,-0.10,157.82,2.589,2.952,2.032,1.156,2.429,0,0,RETURNING,0.000,0.629,0.056,0.433
01:24:22.729,RETURNING,13.950,3.249,1.334,0.03,-0.10,161.63,2.464,2.971,2.224,1.135,2.452,0,0,RETURNING,0.000,0.662,0.047,0.397
01:24:22.929,RETURNING,13.847,3.281,1.344,0.03,-0.10,165.13,2.375,2.838,2.295,1.134,2.489,0,0,RETURNING,0.000,0.688,0.050,0.364
01:24:23.130,RETURNING,13.738,3.307,1.354,0.03,-0.10,168.33,2.331,2.656,2.314,1.099,2.492,0,0,RETURNING,0.000,0.710,0.037,0.330
01:24:23.330,RETURNING,13.625,3.327,1.359,0.03,-0.10,171.21,2.279,2.540,2.360,1.062,2.443,0,0,RETURNING,0.000,0.726,0.009,0.298
01:24:23.532,RETURNING,13.481,3.346,1.359,0.03,-0.10,174.51,2.227,2.460,2.389,1.047,2.308,0,0,RETURNING,0.000,0.716,-0.012,0.267
01:24:23.732,RETURNING,13.369,3.354,1.353,0.03,-0.10,176.84,2.141,2.417,2.452,1.069,2.176,0,0,RETURNING,0.000,0.693,-0.049,0.240
01:24:23.933,RETURNING,13.261,3.359,1.342,0.03,-0.10,178.94,2.076,2.198,2.371,1.089,2.058,0,0,RETURNING,0.000,0.631,-0.068,0.215
01:24:24.133,RETURNING,13.166,3.359,1.328,0.03,-0.10,-179.20,1.990,2.053,2.212,1.136,1.956,0,0,RETURNING,0.000,0.559,-0.072,0.189
01:24:24.334,RETURNING,13.081,3.357,1.313,0.03,-0.10,-177.57,1.823,1.915,2.094,1.165,1.863,0,0,RETURNING,0.000,0.492,-0.071,0.166
01:24:24.534,RETURNING,13.007,3.353,1.299,0.03,-0.10,-176.13,1.739,1.821,1.987,1.164,1.779,0,0,RETURNING,0.000,0.440,-0.074,0.145
01:24:24.734,RETURNING,12.940,3.348,1.287,0.03,-0.10,-174.88,1.689,1.748,1.887,2.682,1.707,0,0,RETURNING,0.000,0.402,-0.089,0.127
01:24:24.935,RETURNING,12.878,3.342,1.258,0.03,-0.10,-173.79,1.629,1.669,1.800,3.053,1.645,0,0,RETURNING,0.000,0.371,-0.256,0.111
01:24:25.136,RETURNING,12.821,3.335,1.200,0.03,-0.10,-172.83,1.522,1.575,1.677,3.046,1.578,0,0,RETURNING,0.000,0.336,-0.321,0.096
01:24:25.337,RETURNING,12.771,3.328,1.135,0.03,-0.10,-172.00,1.467,1.519,1.566,3.017,1.531,0,0,RETURNING,0.000,0.306,-0.326,0.084
01:24:25.536,RETURNING,12.724,3.321,1.070,0.03,-0.10,-171.48,1.399,1.471,1.499,2.950,1.477,0,0,RETURNING,0.000,0.284,-0.313,0.017
01:24:25.737,RETURNING,12.680,3.315,1.009,0.03,-0.10,-171.47,1.380,1.421,1.422,2.912,1.438,0,0,RETURNING,0.000,0.264,-0.293,-0.005
01:24:25.937,RETURNING,12.639,3.309,0.952,0.03,-0.10,-171.56,1.286,1.383,1.431,2.887,1.397,0,0,RETURNING,0.000,0.253,-0.276,-0.021
01:24:26.138,RETURNING,12.600,3.303,0.907,0.03,-0.10,-171.80,1.287,1.345,1.378,1.606,1.332,0,0,RETURNING,0.000,0.250,-0.094,-0.027
01:24:26.340,RETURNING,12.560,3.297,0.895,0.03,-0.10,-172.04,1.244,1.298,1.314,1.347,1.282,0,0,RETURNING,0.000,0.249,-0.022,-0.025
01:24:26.540,RETURNING,12.521,3.292,0.892,0.03,-0.10,-172.29,1.156,1.262,1.258,1.286,1.260,0,0,RETURNING,0.000,0.248,-0.005,-0.033
01:24:26.740,RETURNING,12.472,3.285,0.892,0.03,-0.10,-172.74,1.077,1.227,1.235,1.238,1.231,0,0,RETURNING,0.000,0.248,-0.001,-0.056
01:24:26.940,RETURNING,12.423,3.279,0.892,0.03,-0.10,-173.49,1.022,1.185,1.188,1.186,1.189,0,0,RETURNING,0.000,0.248,-0.000,-0.079
01:24:27.141,RETURNING,12.373,3.274,0.892,0.03,-0.10,-174.50,0.971,1.124,1.166,1.137,1.134,0,0,RETURNING,0.000,0.247,-0.000,-0.105
01:24:27.343,RETURNING,12.324,3.270,0.892,0.03,-0.10,-175.76,0.978,1.068,1.145,1.088,1.086,0,0,RETURNING,0.000,0.246,-0.000,-0.112
01:24:27.542,RETURNING,12.275,3.267,0.892,0.03,-0.10,-177.03,0.948,1.009,1.113,1.037,1.037,0,0,RETURNING,0.000,0.245,-0.000,-0.111
01:24:27.743,RETURNING,12.226,3.265,0.892,0.03,-0.10,-178.31,0.920,0.984,1.073,0.979,0.992,0,0,RETURNING,0.000,0.244,-0.000,-0.114
01:24:27.944,RETURNING,12.177,3.264,0.892,0.03,-0.10,-179.65,0.877,0.943,1.032,0.934,0.948,0,0,RETURNING,0.000,0.243,-0.000,-0.124
01:24:28.144,RETURNING,12.129,3.264,0.892,0.03,-0.10,178.87,0.837,0.909,0.997,0.893,0.910,0,0,RETURNING,0.000,0.241,-0.000,-0.142
01:24:28.345,RETURNING,12.081,3.266,0.892,0.03,-0.10,177.16,0.792,0.868,0.958,0.867,0.867,0,0,RETURNING,0.000,0.239,-0.000,-0.165
01:24:28.545,RETURNING,12.033,3.269,0.892,0.03,-0.10,175.15,0.747,0.827,0.926,0.829,0.827,0,0,RETURNING,0.000,0.237,-0.000,-0.197
01:24:28.786,INSPECTING,11.986,3.274,0.892,0.03,-0.10,172.71,0.696,0.782,0.892,0.782,0.782,0,0,RETURNING,0.000,0.164,-0.000,-0.244
01:24:28.946,INSPECTING,11.967,3.276,0.868,0.03,-0.10,171.93,0.670,0.759,0.875,0.761,0.759,0,0,INSPECT_BOTTOM,0.000,0.156,-0.304,-0.059
01:24:29.147,INSPECTING,11.943,3.280,0.801,0.03,-0.10,171.65,0.650,0.737,0.856,0.739,0.738,0,0,INSPECT_BOTTOM,0.000,0.151,-0.377,-0.014
01:24:29.347,INSPECTING,11.919,3.283,0.723,0.03,-0.10,171.58,0.628,0.716,0.833,0.717,0.717,0,0,INSPECT_BOTTOM,0.000,0.146,-0.394,-0.003
01:24:29.547,INSPECTING,11.897,3.287,0.644,0.03,-0.10,171.57,0.614,0.698,0.812,0.699,0.670,0,0,INSPECT_BOTTOM,0.000,0.141,-0.399,-0.001
01:24:29.748,INSPECTING,11.874,3.290,0.578,0.03,-0.10,170.39,0.592,0.676,0.786,0.675,0.503,0,0,INSPECT_RIGHT,0.000,0.152,-0.137,-0.329
01:24:29.952,INSPECTING,11.850,3.295,0.561,0.03,-0.10,166.63,0.577,0.665,0.782,0.665,0.442,0,0,INSPECT_RIGHT,0.000,0.155,-0.033,-0.459
01:24:30.152,INSPECTING,11.825,3.301,0.557,0.03,-0.10,162.24,0.557,0.658,0.804,0.659,0.426,0,0,INSPECT_RIGHT,0.000,0.158,-0.008,-0.490
01:24:30.352,INSPECTING,11.796,3.312,0.557,0.03,-0.10,156.58,0.542,0.660,0.845,0.661,0.430,0,0,INSPECT_RIGHT,0.000,0.163,-0.002,-0.498
01:24:30.552,INSPECTING,11.766,3.327,0.557,0.03,-0.10,150.87,0.536,0.670,0.898,0.672,0.440,0,0,INSPECT_RIGHT,0.000,0.173,-0.000,-0.499
01:24:30.753,INSPECTING,11.735,3.346,0.557,0.03,-0.10,145.15,0.533,0.695,1.008,0.698,0.474,0,0,INSPECT_RIGHT,0.000,0.188,-0.000,-0.500
01:24:30.953,INSPECTING,11.704,3.369,0.557,0.03,-0.10,139.42,0.538,0.727,1.118,0.728,0.549,0,0,INSPECT_RIGHT,0.000,0.208,-0.000,-0.500
01:24:31.155,INSPECTING,11.673,3.399,0.557,0.03,-0.10,133.69,0.553,0.793,1.253,0.791,0.548,0,0,INSPECT_RIGHT,0.000,0.233,-0.000,-0.500
01:24:31.355,INSPECTING,11.641,3.435,0.557,0.03,-0.10,127.96,0.575,0.875,1.247,0.879,0.475,0,0,INSPECT_RIGHT,0.000,0.246,-0.000,-0.500
01:24:31.556,INSPECTING,11.613,3.475,0.557,0.03,-0.10,122.23,0.615,1.004,1.204,1.007,0.455,0,0,INSPECT_RIGHT,0.000,0.245,-0.000,-0.500
01:24:31.757,INSPECTING,11.589,3.518,0.557,0.03,-0.10,116.50,0.673,1.174,1.180,1.207,0.430,0,0,INSPECT_RIGHT,0.000,0.239,-0.000,-0.500
01:24:31.957,INSPECTING,11.570,3.561,0.557,0.03,-0.10,110.77,0.749,1.213,1.175,1.240,0.686,0,0,INSPECT_RIGHT,0.000,0.236,-0.000,-0.500
01:24:32.157,INSPECTING,11.555,3.606,0.557,0.03,-0.10,105.04,0.877,1.182,1.169,1.206,0.895,0,0,INSPECT_RIGHT,0.000,0.235,-0.000,-0.500
01:24:32.358,INSPECTING,11.545,3.652,0.557,0.03,-0.10,99.31,1.067,1.140,1.164,1.150,0.553,0,0,INSPECT_RIGHT,0.000,0.234,-0.000,-0.500
01:24:32.561,INSPECTING,11.539,3.698,0.557,0.03,-0.10,93.58,1.046,1.099,1.153,1.107,0.659,0,0,INSPECT_RIGHT,0.000,0.232,-0.000,-0.500
01:24:32.760,INSPECTING,11.538,3.744,0.557,0.03,-0.10,87.85,0.985,1.060,1.152,1.065,0.537,0,0,INSPECT_RIGHT,0.000,0.231,-0.000,-0.500
01:24:32.960,INSPECTING,11.542,3.790,0.557,0.03,-0.10,82.12,0.929,1.031,1.159,1.033,0.490,0,0,INSPECT_RIGHT,0.000,0.231,-0.000,-0.500
01:24:33.162,INSPECTING,11.551,3.836,0.557,0.03,-0.10,76.39,0.879,1.015,1.183,1.014,0.440,0,0,INSPECT_RIGHT,0.000,0.234,-0.000,-0.500
01:24:33.361,INSPECTING,11.564,3.881,0.557,0.03,-0.10,70.66,0.848,1.009,1.228,1.009,0.411,0,0,INSPECT_RIGHT,0.000,0.241,-0.000,-0.500
01:24:33.563,INSPECTING,11.582,3.926,0.557,0.03,-0.10,64.93,0.827,1.019,1.256,1.020,0.494,0,0,INSPECT_RIGHT,0.000,0.248,-0.000,-0.500
01:24:33.763,INSPECTING,11.605,3.970,0.557,0.03,-0.10,59.20,0.819,1.033,1.263,1.034,0.486,0,0,INSPECT_RIGHT,0.000,0.251,-0.000,-0.500
01:24:33.964,INSPECTING,11.633,4.012,0.557,0.03,-0.10,53.47,0.817,1.073,1.257,1.075,0.484,0,0,INSPECT_RIGHT,0.000,0.252,-0.000,-0.500
01:24:34.164,INSPECTING,11.664,4.051,0.557,0.03,-0.10,47.75,0.828,1.109,1.233,1.111,0.417,0,0,INSPECT_RIGHT,0.000,0.249,-0.000,-0.500
01:24:34.365,INSPECTING,11.700,4.087,0.557,0.03,-0.10,42.02,0.858,1.134,1.357,1.136,0.412,0,0,INSPECT_RIGHT,0.000,0.257,-0.000,-0.500
01:24:34.566,INSPECTING,11.741,4.121,0.557,0.03,-0.10,36.29,0.895,1.138,1.654,1.139,0.410,0,0,INSPECT_RIGHT,0.000,0.296,-0.000,-0.500
01:24:34.767,INSPECTING,11.793,4.155,0.557,0.03,-0.10,30.56,0.911,1.078,1.923,1.078,0.423,0,0,INSPECT_RIGHT,0.000,0.347,-0.000,-0.500
01:24:34.968,INSPECTING,11.858,4.189,0.557,0.03,-0.10,24.83,0.929,1.138,3.290,1.160,0.662,0,0,INSPECT_RIGHT,0.000,0.386,-0.000,-0.500
01:24:35.169,RETURNING,11.930,4.219,0.557,0.03,-0.10,19.10,0.868,1.411,4.762,1.423,1.069,0,0,INSPECT_RIGHT,0.000,0.397,-0.000,-0.500
01:24:35.368,RETURNING,11.965,4.230,0.564,0.03,-0.10,12.50,0.833,1.592,5.223,1.604,1.119,0,0,RETURNING,0.000,0.133,0.087,-1.427
01:24:35.569,RETURNING,11.980,4.232,0.583,0.03,-0.10,-2.81,1.204,3.675,4.194,3.115,1.147,0,0,RETURNING,0.000,0.070,-0.016,-1.764
01:24:35.770,RETURNING,11.989,4.230,0.558,0.03,-0.10,-19.00,3.216,4.049,3.128,3.689,1.109,0,0,RETURNING,0.000,0.055,-0.323,-1.750
01:24:35.970,RETURNING,11.997,4.227,0.484,0.03,-0.10,-34.89,3.674,3.400,2.609,3.352,1.083,0,0,RETURNING,0.000,0.051,-0.374,-1.686
01:24:36.172,RETURNING,12.003,4.221,0.467,-0.00,0.00,-49.81,3.433,2.872,1.982,2.886,0.328,0,0,RETURNING,0.000,0.050,0.174,-1.545
01:24:36.373,RETURNING,12.007,4.215,0.504,-0.00,0.00,-63.25,2.941,2.019,1.525,2.331,3.928,0,0,RETURNING,0.000,0.050,0.508,-1.365
01:24:36.573,RETURNING,12.010,4.207,0.591,-0.00,0.00,-72.51,2.445,1.327,1.412,1.959,0.952,0,0,RETURNING,0.000,0.050,0.241,-0.496
01:24:36.773,RETURNING,12.013,4.199,0.649,-0.00,0.00,-74.94,1.819,1.592,1.710,1.905,0.639,0,0,RETURNING,0.000,0.050,0.526,-0.435
01:24:36.974,RETURNING,12.014,4.192,0.760,-0.00,0.00,-81.54,1.864,1.859,1.905,1.891,0.830,0,0,RETURNING,0.000,0.061,0.478,-0.865
01:24:37.175,RETURNING,12.015,4.179,0.842,-0.00,0.00,-89.80,1.797,1.874,1.726,1.877,1.069,0,0,RETURNING,0.000,0.106,0.259,-0.895
01:24:37.376,RETURNING,12.014,4.158,0.882,-0.00,0.00,-97.76,1.720,1.886,1.448,1.884,1.218,0,0,RETURNING,0.000,0.155,0.112,-0.825
01:24:37.576,RETURNING,12.009,4.131,0.897,-0.00,0.00,-104.93,1.675,1.845,1.249,1.925,1.302,0,0,RETURNING,0.000,0.194,0.027,-0.729
01:24:37.778,RETURNING,11.999,4.101,0.900,-0.00,0.00,-111.21,1.664,1.558,1.107,1.989,1.323,0,0,RETURNING,0.000,0.190,0.006,-0.633
01:24:37.978,RETURNING,11.984,4.067,0.900,-0.00,0.00,-116.46,1.671,1.337,1.010,2.079,1.291,0,0,RETURNING,0.000,0.179,0.002,-0.090
01:24:38.179,RETURNING,11.968,4.035,0.900,-0.00,0.00,-116.22,1.659,1.269,0.971,2.081,1.262,0,0,RETURNING,0.000,0.178,0.000,0.145
01:24:38.379,RETURNING,11.953,4.003,0.900,-0.00,0.00,-114.19,1.624,1.250,0.954,2.031,1.258,0,0,RETURNING,0.000,0.174,0.000,0.214
01:24:38.579,RETURNING,11.940,3.972,0.900,-0.00,0.00,-111.63,1.597,1.277,0.953,1.981,1.267,0,0,RETURNING,0.000,0.166,0.000,0.233
01:24:38.780,RETURNING,11.928,3.941,0.900,-0.00,0.00,-108.94,1.555,1.324,0.963,1.895,1.282,0,0,RETURNING,0.000,0.158,0.000,0.232
01:24:38.981,RETURNING,11.919,3.912,0.900,-0.00,0.00,-106.32,1.525,1.357,0.972,1.821,1.315,0,0,RETURNING,0.000,0.148,0.000,0.223
01:24:39.181,RETURNING,11.911,3.884,0.900,-0.00,0.00,-103.80,1.491,1.428,0.986,1.764,1.322,0,0,RETURNING,0.000,0.139,0.000,0.212
01:24:39.382,RETURNING,11.905,3.858,0.900,-0.00,0.00,-101.44,1.461,1.483,1.001,1.711,1.328,0,0,RETURNING,0.000,0.129,0.000,0.195
01:24:39.583,RETURNING,11.901,3.833,0.900,-0.00,0.00,-101.32,1.438,1.533,1.018,1.656,1.330,0,0,RETURNING,0.000,0.125,0.000,-0.392
01:24:39.783,RETURNING,11.895,3.808,0.900,-0.00,0.00,-107.01,1.423,1.434,0.973,1.664,1.328,0,0,RETURNING,0.000,0.134,0.000,-0.341
