timestamp,state,x,y,z,roll_deg,pitch_deg,yaw_deg,dist_left,dist_center,dist_right,dist_top,dist_bottom,dtof_alert,collision_event,best_dir,max_space,cmd_vx,cmd_vz,cmd_yaw
23:55:32.145,SEARCHING,0.000,0.000,1.000,0.00,0.00,0.00,7.940,8.961,7.995,8.461,8.674,0,0,SEARCHING,0.000,0.240,0.031,0.005
23:55:32.345,SEARCHING,0.071,0.000,1.000,0.00,0.00,0.16,3.123,6.665,3.337,4.880,5.873,0,0,SEARCHING,0.000,0.666,0.282,0.036
23:55:32.546,SEARCHING,0.210,0.001,1.000,0.00,0.00,0.61,3.089,6.568,3.381,4.870,5.696,0,0,SEARCHING,0.000,0.768,0.379,0.054
23:55:32.746,SEARCHING,0.365,0.003,1.000,0.00,0.00,1.31,3.012,6.349,3.626,4.869,5.317,0,0,SEARCHING,0.000,0.792,0.290,0.102
23:55:32.946,SEARCHING,0.523,0.008,1.000,0.00,0.00,2.73,2.939,5.793,4.194,4.868,4.965,0,0,SEARCHING,0.000,0.798,0.134,0.225
23:55:33.147,SEARCHING,0.683,0.019,1.000,0.00,0.00,5.69,2.742,5.026,4.685,4.752,4.400,0,0,SEARCHING,0.000,0.800,-0.052,0.391
23:55:33.347,SEARCHING,0.841,0.041,1.000,0.00,0.00,10.75,2.338,3.966,5.614,3.950,3.711,0,0,SEARCHING,0.000,0.800,-0.118,0.661
23:55:33.548,SEARCHING,0.996,0.080,1.000,0.00,0.00,19.15,1.718,3.263,6.708,3.274,3.121,0,0,SEARCHING,0.000,0.800,-0.085,0.971
23:55:33.749,SEARCHING,1.142,0.145,1.000,0.00,0.00,30.12,1.375,2.409,4.053,2.408,2.385,0,0,SEARCHING,0.000,0.746,-0.026,0.748
23:55:33.948,SEARCHING,1.257,0.222,1.000,0.00,0.00,37.54,1.176,1.619,2.987,1.611,1.609,0,0,SEARCHING,0.000,0.479,-0.006,0.305
23:55:34.149,SEARCHING,1.325,0.277,1.000,0.00,0.00,40.34,1.072,1.370,2.522,1.367,1.370,0,0,SEARCHING,0.000,0.310,-0.002,0.049
23:55:34.350,SEARCHING,1.370,0.315,1.000,0.00,0.00,40.53,1.026,1.296,2.363,1.291,1.292,0,0,SEARCHING,0.000,0.264,-0.000,-0.081
23:55:34.550,SEARCHING,1.410,0.349,1.000,0.00,0.00,39.44,0.980,1.247,2.342,1.247,1.250,0,0,SEARCHING,0.000,0.253,-0.000,-0.142
23:55:34.750,SEARCHING,1.449,0.381,1.000,0.00,0.00,37.72,0.960,1.227,2.383,1.227,1.223,0,0,SEARCHING,0.000,0.251,-0.000,-0.173
23:55:34.951,SEARCHING,1.490,0.411,1.000,0.00,0.00,35.71,0.939,1.217,2.494,1.213,1.212,0,0,SEARCHING,0.000,0.250,-0.000,-0.182
23:55:35.151,SEARCHING,1.531,0.439,1.000,0.00,0.00,33.59,0.918,1.371,2.483,1.362,1.303,0,0,SEARCHING,0.000,0.250,-0.000,-0.196
23:55:35.352,SEARCHING,1.573,0.466,1.000,0.00,0.00,31.31,0.902,1.530,2.461,1.522,1.523,0,0,SEARCHING,0.000,0.251,-0.000,-0.213
23:55:35.552,SEARCHING,1.616,0.492,1.000,0.00,0.00,28.84,0.896,1.599,2.493,1.602,1.590,0,0,SEARCHING,0.000,0.262,-0.000,-0.223
23:55:35.752,SEARCHING,1.664,0.516,1.000,0.00,0.00,26.29,0.887,1.696,2.682,1.699,1.686,0,0,SEARCHING,0.000,0.285,-0.000,-0.215
23:55:35.953,SEARCHING,1.716,0.541,1.000,0.00,0.00,23.87,0.882,1.795,2.857,1.779,1.794,0,0,SEARCHING,0.000,0.311,-0.000,-0.191
23:55:36.153,SEARCHING,1.774,0.566,1.000,0.00,0.00,21.74,1.006,1.873,3.033,1.878,1.873,0,0,SEARCHING,0.000,0.342,-0.000,-0.128
23:55:36.354,SEARCHING,1.839,0.591,1.000,0.00,0.00,20.64,1.116,1.885,3.164,1.897,1.877,0,0,SEARCHING,0.000,0.371,-0.000,0.010
23:55:36.554,SEARCHING,1.909,0.617,1.000,0.00,0.00,20.92,1.107,1.854,3.109,1.854,1.851,0,0,SEARCHING,0.000,0.376,-0.000,0.057
23:55:36.755,SEARCHING,1.979,0.644,1.000,0.00,0.00,21.52,1.066,1.788,2.922,1.788,1.780,0,0,SEARCHING,0.000,0.360,-0.000,0.026
23:55:36.955,SEARCHING,2.045,0.670,1.000,0.00,0.00,21.71,1.036,1.708,2.769,1.712,1.710,0,0,SEARCHING,0.000,0.336,-0.000,-0.023
23:55:37.155,SEARCHING,2.106,0.695,1.000,0.00,0.00,21.34,1.014,1.657,2.708,1.659,1.664,0,0,SEARCHING,0.000,0.314,-0.000,-0.063
23:55:37.356,SEARCHING,2.164,0.717,1.000,0.00,0.00,20.56,1.011,1.641,2.695,1.639,1.649,0,0,SEARCHING,0.000,0.299,-0.000,-0.083
23:55:37.556,SEARCHING,2.221,0.738,1.000,0.00,0.00,19.58,0.997,1.762,2.723,1.762,1.772,0,0,SEARCHING,0.000,0.319,-0.000,-0.092
23:55:37.757,SEARCHING,2.282,0.759,1.000,0.00,0.00,18.53,1.002,1.734,2.765,1.733,1.737,0,0,SEARCHING,0.000,0.324,-0.000,-0.089
23:55:37.957,SEARCHING,2.343,0.779,1.000,0.00,0.00,17.53,1.007,1.649,2.873,1.652,1.655,0,0,SEARCHING,0.000,0.311,-0.000,-0.073
23:55:38.157,SEARCHING,2.402,0.797,1.000,0.00,0.00,16.75,1.008,1.583,2.911,1.581,1.590,0,0,SEARCHING,0.000,0.290,-0.000,-0.055
23:55:38.358,SEARCHING,2.457,0.813,1.000,0.00,0.00,16.14,0.991,1.528,2.975,1.529,1.533,0,0,SEARCHING,0.000,0.271,-0.000,-0.049
23:55:38.558,SEARCHING,2.508,0.828,1.000,0.00,0.00,15.62,1.001,1.473,3.107,1.473,1.474,0,0,SEARCHING,0.000,0.256,-0.000,-0.028
23:55:38.759,SEARCHING,2.557,0.841,1.000,0.00,0.00,15.34,0.995,1.422,3.174,1.427,1.424,0,0,SEARCHING,0.000,0.252,-0.000,-0.009
23:55:38.959,SEARCHING,2.606,0.855,1.000,0.00,0.00,15.28,0.988,1.377,3.162,1.378,1.380,0,0,SEARCHING,0.000,0.250,-0.000,-0.000
23:55:39.160,SEARCHING,2.654,0.868,1.000,0.00,0.00,15.02,0.735,1.336,3.161,1.335,1.337,0,0,SEARCHING,0.000,0.250,-0.000,-0.153
23:55:39.360,SEARCHING,2.703,0.880,1.000,0.00,0.00,12.79,0.614,1.326,3.821,1.320,1.323,0,0,SEARCHING,0.000,0.250,-0.000,-0.321
23:55:39.561,SEARCHING,2.752,0.890,1.000,0.00,0.00,9.37,0.718,1.407,5.324,1.413,1.416,0,0,SEARCHING,0.000,0.250,-0.000,-0.067
23:55:39.761,SEARCHING,2.801,0.898,1.000,0.00,0.00,10.02,1.061,1.443,5.623,1.448,1.439,0,0,SEARCHING,0.000,0.250,-0.000,0.483
23:55:39.961,SEARCHING,2.850,0.908,1.000,0.00,0.00,15.12,0.716,1.230,3.619,1.229,1.232,0,0,SEARCHING,0.000,0.250,-0.000,0.134
23:55:40.162,SEARCHING,2.898,0.922,1.000,0.00,0.00,15.88,1.006,1.133,2.447,1.127,1.131,0,0,SEARCHING,0.000,0.250,-0.000,-0.095
23:55:40.362,SEARCHING,2.946,0.935,1.000,0.00,0.00,14.69,0.901,1.098,2.580,1.099,1.105,0,0,SEARCHING,0.000,0.250,-0.000,-0.149
23:55:40.563,SEARCHING,2.995,0.947,1.000,0.00,0.00,12.83,0.884,1.108,3.294,1.117,1.118,0,0,SEARCHING,0.000,0.250,-0.000,-0.153
23:55:40.763,SEARCHING,3.043,0.958,1.000,0.00,0.00,11.69,0.894,1.130,4.104,1.132,1.131,0,0,SEARCHING,0.000,0.250,-0.000,0.053
23:55:40.963,SEARCHING,3.092,0.968,1.000,0.00,0.00,12.55,0.852,1.083,4.033,1.087,1.084,0,0,SEARCHING,0.000,0.250,-0.000,0.114
23:55:41.164,SEARCHING,3.141,0.980,1.000,0.00,0.00,13.62,0.808,1.017,3.411,1.018,1.023,0,0,SEARCHING,0.000,0.250,-0.000,-0.014
23:55:41.364,SEARCHING,3.190,0.991,1.000,0.00,0.00,13.14,0.758,0.982,3.317,0.983,0.985,0,0,SEARCHING,0.000,0.250,-0.000,-0.143
23:55:41.565,SEARCHING,3.239,1.002,1.000,0.00,0.00,11.31,0.700,0.985,3.879,0.980,0.987,0,0,SEARCHING,0.000,0.250,-0.000,-0.188
23:55:41.765,SEARCHING,3.288,1.011,1.000,0.00,0.00,9.18,0.643,1.015,4.524,1.025,1.032,0,0,SEARCHING,0.000,0.250,-0.000,-0.158
23:55:41.965,SEARCHING,3.337,1.018,1.000,0.00,0.00,7.57,0.633,1.054,4.957,1.060,1.058,0,0,SEARCHING,0.000,0.250,-0.000,-0.067
23:55:42.166,SEARCHING,3.387,1.025,1.000,0.00,0.00,6.98,0.620,1.057,5.076,1.061,1.058,0,0,SEARCHING,0.000,0.250,-0.000,-0.010
23:55:42.366,SEARCHING,3.436,1.031,1.000,0.00,0.00,6.84,0.606,1.049,5.067,1.056,1.046,0,0,SEARCHING,0.000,0.250,-0.000,-0.026
23:55:42.567,SEARCHING,3.486,1.036,1.000,0.00,0.00,6.50,0.598,1.033,5.060,1.045,1.031,0,0,SEARCHING,0.000,0.250,-0.000,-0.044
23:55:42.767,SEARCHING,3.536,1.042,1.000,0.00,0.00,5.96,0.583,1.038,5.243,1.032,1.021,0,0,SEARCHING,0.000,0.250,-0.000,-0.052
23:55:42.967,SEARCHING,3.586,1.047,1.000,0.00,0.00,5.37,0.573,1.004,5.291,1.001,1.002,0,0,SEARCHING,0.000,0.250,-0.000,-0.056
23:55:43.168,SEARCHING,3.635,1.051,1.000,0.00,0.00,4.82,0.567,0.989,5.582,0.989,1.009,0,0,SEARCHING,0.000,0.250,-0.000,-0.012
23:55:43.369,SEARCHING,3.685,1.055,1.000,0.00,0.00,4.76,0.555,0.965,5.709,0.974,0.983,0,0,SEARCHING,0.000,0.250,-0.000,0.012
23:55:43.569,SEARCHING,3.735,1.060,1.000,0.00,0.00,4.77,0.535,0.928,5.350,0.951,0.945,0,0,SEARCHING,0.000,0.250,-0.000,-0.072
23:55:43.770,SEARCHING,3.785,1.063,1.000,0.00,0.00,3.78,0.527,0.937,5.560,0.939,0.933,0,0,SEARCHING,0.000,0.250,-0.000,-0.119
23:55:43.970,SEARCHING,3.835,1.066,1.000,0.00,0.00,2.31,0.528,0.989,5.726,0.990,1.000,0,0,SEARCHING,0.000,0.250,-0.000,-0.130
23:55:44.170,SEARCHING,3.885,1.068,1.000,0.00,0.00,1.12,0.534,1.022,6.137,1.039,1.013,0,0,SEARCHING,0.000,0.250,-0.000,0.001
23:55:44.371,SEARCHING,3.935,1.069,1.000,0.00,0.00,1.30,0.526,1.037,6.126,1.025,0.995,0,0,SEARCHING,0.000,0.250,-0.000,0.044
23:55:44.571,SEARCHING,3.985,1.070,1.000,0.00,0.00,1.75,0.508,0.992,6.046,0.985,0.957,0,0,SEARCHING,0.000,0.250,-0.000,0.005
23:55:44.771,SEARCHING,4.035,1.071,1.000,0.00,0.00,1.68,0.494,0.953,6.213,0.944,0.925,0,0,SEARCHING,0.000,0.250,-0.000,-0.027
23:55:44.972,SEARCHING,4.085,1.073,1.000,0.00,0.00,1.25,0.483,0.922,6.137,0.920,0.913,0,0,SEARCHING,0.000,0.250,-0.000,-0.055
23:55:45.172,SEARCHING,4.135,1.074,1.000,0.00,0.00,0.61,0.474,0.926,5.978,0.904,0.922,0,0,SEARCHING,0.000,0.250,-0.000,-0.070
23:55:45.373,SEARCHING,4.185,1.074,1.000,0.00,0.00,-0.23,0.473,0.945,6.019,0.921,0.947,0,0,SEARCHING,0.000,0.250,-0.000,-0.079
23:55:45.575,SEARCHING,4.235,1.073,1.000,0.00,0.00,-1.09,0.475,0.930,6.236,0.957,0.963,0,0,SEARCHING,0.000,0.250,-0.000,-0.049
23:55:45.777,SEARCHING,4.285,1.072,1.000,0.00,0.00,-1.53,0.476,0.961,6.304,0.970,0.957,0,0,SEARCHING,0.000,0.250,-0.000,-0.006
23:55:45.978,SEARCHING,4.335,1.071,1.000,0.00,0.00,-1.55,0.470,0.939,6.225,0.939,0.917,0,0,SEARCHING,0.000,0.250,-0.000,0.003
23:55:46.180,SEARCHING,4.385,1.069,1.000,0.00,0.00,-1.56,0.454,0.923,6.191,0.935,0.969,0,0,SEARCHING,0.000,0.250,-0.000,-0.010
23:55:46.380,SEARCHING,4.435,1.068,1.000,0.00,0.00,-1.69,0.445,0.926,6.185,0.932,0.937,0,0,SEARCHING,0.000,0.250,-0.000,-0.013
23:55:46.580,SEARCHING,4.485,1.066,1.000,0.00,0.00,-1.87,0.441,0.883,6.025,0.890,0.919,0,0,SEARCHING,0.000,0.250,-0.000,-0.038
23:55:46.780,SEARCHING,4.535,1.065,1.000,0.00,0.00,-2.35,0.434,1.264,6.117,1.369,1.313,0,0,SEARCHING,0.000,0.250,0.020,-0.043
23:55:46.981,SEARCHING,4.584,1.062,1.000,0.00,0.00,-2.82,0.431,1.562,6.204,1.395,1.443,0,0,SEARCHING,0.000,0.250,0.005,-0.026
23:55:47.181,SEARCHING,4.634,1.060,1.000,0.00,0.00,-3.04,0.433,1.529,6.218,1.401,1.425,0,0,SEARCHING,0.000,0.250,0.001,-0.001
23:55:47.381,SEARCHING,4.684,1.057,1.000,0.00,0.00,-3.07,0.424,1.510,6.207,1.409,1.501,0,0,SEARCHING,0.000,0.250,0.000,-0.004
23:55:47.582,SEARCHING,4.734,1.055,1.000,0.00,0.00,-3.10,0.416,1.481,6.187,1.479,1.495,0,0,SEARCHING,0.000,0.250,0.000,-0.001
23:55:47.783,SEARCHING,4.784,1.052,1.000,0.00,0.00,-3.11,0.408,1.459,6.061,1.507,1.465,0,0,SEARCHING,0.000,0.250,0.000,-0.013
23:55:47.983,SEARCHING,4.834,1.049,1.000,0.00,0.00,-3.34,0.399,1.472,6.026,1.564,1.453,0,0,SEARCHING,0.000,0.250,0.000,-0.039
23:55:48.184,SEARCHING,4.884,1.046,1.000,0.00,0.00,-3.79,0.397,1.540,6.141,1.656,1.566,0,0,SEARCHING,0.000,0.250,0.000,-0.031
23:55:48.384,SEARCHING,4.934,1.043,1.000,0.00,0.00,-4.08,0.401,1.608,6.177,1.678,1.628,0,0,SEARCHING,0.000,0.250,0.000,-0.010
23:55:48.585,SEARCHING,4.984,1.039,1.000,0.00,0.00,-4.16,0.404,1.634,6.183,1.686,1.679,0,0,SEARCHING,0.000,0.250,0.000,-0.002
23:55:48.785,SEARCHING,5.034,1.035,1.000,0.00,0.00,-4.21,0.474,1.678,5.982,1.676,1.675,0,0,SEARCHING,0.000,0.260,0.000,-0.036
23:55:48.986,SEARCHING,5.086,1.031,1.000,0.00,0.00,-4.56,0.543,1.676,6.175,1.670,1.672,0,0,SEARCHING,0.000,0.266,0.000,0.034
23:55:49.186,SEARCHING,5.139,1.027,1.000,0.00,0.00,-3.92,0.558,1.651,6.013,1.632,1.642,0,0,SEARCHING,0.000,0.266,0.000,0.109
23:55:49.386,SEARCHING,5.192,1.024,1.000,0.00,0.00,-2.85,0.529,1.525,5.449,1.536,1.509,0,0,SEARCHING,0.000,0.255,0.000,-0.016
23:55:49.587,SEARCHING,5.243,1.021,1.000,0.00,0.00,-3.33,0.541,1.481,5.343,1.495,1.476,0,0,SEARCHING,0.000,0.251,0.000,-0.111
23:55:49.787,SEARCHING,5.293,1.018,1.000,0.00,0.00,-4.63,0.561,1.527,5.607,1.520,1.539,0,0,SEARCHING,0.000,0.250,0.000,-0.079
23:55:49.988,SEARCHING,5.343,1.014,1.000,0.00,0.00,-5.18,0.573,1.628,5.941,1.592,1.738,0,0,SEARCHING,0.000,0.252,0.000,0.064
23:55:50.188,SEARCHING,5.393,1.009,1.000,0.00,0.00,-4.31,0.567,1.616,5.638,1.515,1.652,0,0,SEARCHING,0.000,0.257,0.000,0.075
23:55:50.390,SEARCHING,5.444,1.006,1.000,0.00,0.00,-3.64,0.553,1.500,5.295,1.474,1.478,0,0,SEARCHING,0.000,0.252,0.000,-0.025
23:55:50.590,SEARCHING,5.494,1.003,1.000,0.00,0.00,-4.20,0.559,1.508,5.204,1.465,1.548,0,0,SEARCHING,0.000,0.250,0.000,-0.112
23:55:50.790,SEARCHING,5.544,0.998,1.000,0.00,0.00,-5.38,0.588,1.656,5.606,1.640,1.686,0,0,SEARCHING,0.000,0.255,0.000,-0.027
23:55:50.991,SEARCHING,5.596,0.993,1.000,0.00,0.00,-5.38,0.598,1.675,5.777,1.783,1.761,0,0,SEARCHING,0.000,0.270,0.000,0.092
23:55:51.191,SEARCHING,5.650,0.989,1.000,0.00,0.00,-4.19,0.589,1.597,5.321,1.596,1.604,0,0,SEARCHING,0.000,0.264,0.000,0.089
23:55:51.392,SEARCHING,5.702,0.985,1.000,0.00,0.00,-3.51,0.563,1.468,4.935,1.470,1.473,0,0,SEARCHING,0.000,0.253,0.000,-0.070
23:55:51.592,SEARCHING,5.752,0.982,1.000,0.00,0.00,-4.65,0.579,1.488,4.963,1.498,1.597,0,0,SEARCHING,0.000,0.251,0.000,-0.160
23:55:51.793,SEARCHING,5.804,0.977,1.000,0.00,0.00,-6.31,0.622,2.403,5.473,2.180,1.993,0,0,SEARCHING,0.000,0.363,0.000,-0.032
23:55:51.993,SEARCHING,5.884,0.968,1.000,0.00,0.00,-6.19,0.631,2.394,5.522,2.172,2.181,0,0,SEARCHING,0.000,0.504,0.000,0.127
23:55:52.194,SEARCHING,5.985,0.958,1.000,0.00,0.00,-4.76,0.619,2.127,5.087,1.892,1.891,0,0,SEARCHING,0.000,0.484,0.000,0.076
23:55:52.395,SEARCHING,6.076,0.951,1.000,0.00,0.00,-4.24,0.612,1.630,4.626,1.572,1.569,0,0,SEARCHING,0.000,0.350,0.000,-0.069
23:55:52.596,SEARCHING,6.142,0.946,1.000,0.00,0.00,-5.34,0.590,1.828,4.643,1.740,1.734,0,0,SEARCHING,0.000,0.300,0.000,-0.176
23:55:52.796,SEARCHING,6.204,0.939,1.000,0.00,0.00,-7.30,0.604,2.121,5.011,2.087,2.082,0,0,SEARCHING,0.000,0.370,0.000,-0.125
23:55:52.996,SEARCHING,6.281,0.928,1.000,0.00,0.00,-8.30,0.658,2.201,5.343,2.191,2.208,0,0,SEARCHING,0.000,0.432,0.000,0.062
23:55:53.197,SEARCHING,6.367,0.916,1.000,0.00,0.00,-7.22,0.682,2.113,5.209,2.108,2.128,0,0,SEARCHING,0.000,0.440,0.000,0.175
23:55:53.397,SEARCHING,6.453,0.907,1.000,0.00,0.00,-5.39,0.646,1.967,4.627,1.959,1.972,0,0,SEARCHING,0.000,0.401,0.000,0.058
23:55:53.598,SEARCHING,6.531,0.900,1.000,0.00,0.00,-5.29,0.606,1.898,4.185,1.879,1.891,0,0,SEARCHING,0.000,0.360,0.000,-0.171
23:55:53.798,SEARCHING,6.602,0.892,1.000,0.00,0.00,-7.53,0.639,1.912,4.416,1.908,1.920,0,0,SEARCHING,0.000,0.353,0.000,-0.218
23:55:53.998,SEARCHING,6.672,0.882,1.000,0.00,0.00,-9.52,0.722,1.863,5.059,1.858,1.861,0,0,SEARCHING,0.000,0.347,0.000,0.026
23:55:54.199,SEARCHING,6.740,0.870,1.000,0.00,0.00,-8.77,0.726,1.803,4.977,1.803,1.801,0,0,SEARCHING,0.000,0.335,0.000,0.166
23:55:54.400,SEARCHING,6.805,0.861,1.000,0.00,0.00,-6.90,0.702,1.729,4.425,1.731,1.729,0,0,SEARCHING,0.000,0.313,0.000,0.100
23:55:54.601,SEARCHING,6.867,0.854,1.000,0.00,0.00,-6.21,0.672,1.678,4.009,1.675,1.679,0,0,SEARCHING,0.000,0.292,0.000,-0.086
23:55:54.801,SEARCHING,6.923,0.848,1.000,0.00,0.00,-7.47,0.701,1.600,4.048,1.599,1.602,0,0,SEARCHING,0.000,0.270,0.000,-0.149
23:55:55.001,SEARCHING,6.976,0.840,1.000,0.00,0.00,-9.00,0.743,1.572,4.490,1.576,1.569,0,0,SEARCHING,0.000,0.258,0.000,-0.041
23:55:55.201,SEARCHING,7.027,0.832,1.000,0.00,0.00,-9.12,0.768,1.546,4.605,1.554,1.548,0,0,SEARCHING,0.000,0.253,0.000,0.088
23:55:55.403,SEARCHING,7.077,0.824,1.000,0.00,0.00,-8.00,0.755,1.474,4.320,1.471,1.472,0,0,SEARCHING,0.000,0.251,0.000,0.096
23:55:55.604,SEARCHING,7.127,0.818,1.000,0.00,0.00,-7.16,0.736,1.425,3.921,1.418,1.420,0,0,SEARCHING,0.000,0.250,0.000,-0.020
23:55:55.803,SEARCHING,7.176,0.811,1.000,0.00,0.00,-7.63,0.745,1.359,3.816,1.359,1.362,0,0,SEARCHING,0.000,0.250,0.000,-0.096
23:55:57.105,SEARCHING,7.226,0.804,1.000,0.00,0.00,-8.78,0.745,1.359,3.816,1.359,1.362,0,0,SEARCHING,0.000,0.250,0.000,-0.109
23:55:57.162,SEARCHING,7.275,0.796,1.000,0.00,0.00,-10.01,0.795,1.345,4.098,1.351,1.343,0,0,SEARCHING,0.000,0.250,0.000,-0.062
23:55:57.339,SEARCHING,7.324,0.787,1.000,0.00,0.00,-10.28,0.859,1.399,4.435,1.423,1.394,0,0,SEARCHING,0.000,0.250,0.000,0.117
23:55:57.536,SEARCHING,7.374,0.779,1.000,0.00,0.00,-8.74,0.841,1.292,4.169,1.315,1.288,0,0,SEARCHING,0.000,0.250,0.000,0.157
23:55:57.736,SEARCHING,7.423,0.772,1.000,0.00,0.00,-7.19,0.809,1.187,3.554,1.185,1.178,0,0,SEARCHING,0.000,0.250,0.000,0.025
23:55:57.936,SEARCHING,7.473,0.766,1.000,0.00,0.00,-7.29,0.771,1.138,3.305,1.128,1.128,0,0,SEARCHING,0.000,0.250,0.000,-0.125
23:55:58.137,SEARCHING,7.522,0.759,1.000,0.00,0.00,-8.94,0.873,1.140,3.500,1.149,1.154,0,0,SEARCHING,0.000,0.250,0.000,-0.138
23:55:58.337,SEARCHING,7.572,0.750,1.000,0.00,0.00,-10.13,0.923,1.240,3.859,1.210,1.210,0,0,SEARCHING,0.000,0.250,0.000,0.021
23:55:58.538,SEARCHING,7.621,0.742,1.000,0.00,0.00,-9.64,0.891,1.253,3.884,1.249,1.217,0,0,SEARCHING,0.000,0.250,0.000,0.093
23:55:58.738,SEARCHING,7.670,0.734,1.000,0.00,0.00,-8.69,0.847,1.118,3.481,1.115,1.114,0,0,SEARCHING,0.000,0.250,0.000,0.019
23:55:58.938,SEARCHING,7.720,0.726,1.000,0.00,0.00,-8.76,0.801,1.049,3.219,1.056,1.062,0,0,SEARCHING,0.000,0.250,0.000,-0.104
23:55:59.139,SEARCHING,7.769,0.718,1.000,0.00,0.00,-10.18,0.746,1.115,3.415,1.104,1.100,0,0,SEARCHING,0.000,0.250,0.000,-0.186
23:55:59.339,SEARCHING,7.818,0.708,1.000,0.00,0.00,-12.37,0.684,1.226,3.904,1.240,1.259,0,0,SEARCHING,0.000,0.250,0.000,-0.199
23:55:59.540,SEARCHING,7.867,0.697,1.000,0.00,0.00,-14.66,0.637,1.410,4.231,1.411,1.412,0,0,SEARCHING,0.000,0.250,0.000,-0.205
23:55:59.740,SEARCHING,7.915,0.683,1.000,0.00,0.00,-16.89,0.653,1.804,4.853,1.748,1.787,0,0,SEARCHING,0.000,0.270,0.000,-0.110
23:55:59.940,SEARCHING,7.970,0.666,1.000,0.00,0.00,-17.67,0.686,2.126,5.346,2.106,2.117,0,0,SEARCHING,0.000,0.369,0.000,0.098
23:56:00.142,SEARCHING,8.042,0.644,1.000,0.00,0.00,-16.29,0.674,1.960,5.092,1.942,1.966,0,0,SEARCHING,0.000,0.389,0.000,0.155
23:56:00.342,SEARCHING,8.116,0.623,1.000,0.00,0.00,-14.80,0.632,1.720,4.335,1.710,1.659,0,0,SEARCHING,0.000,0.341,0.000,-0.018
23:56:00.542,SEARCHING,8.179,0.606,1.000,0.00,0.00,-15.52,0.636,1.634,4.061,1.650,1.626,0,0,SEARCHING,0.000,0.280,0.000,-0.193
23:56:00.742,SEARCHING,8.232,0.591,1.000,0.00,0.00,-17.80,0.655,1.844,4.607,1.852,1.856,0,0,SEARCHING,0.000,0.296,0.000,-0.162
23:56:00.943,SEARCHING,8.291,0.571,1.000,0.00,0.00,-19.15,0.713,1.968,5.186,1.964,1.966,0,0,SEARCHING,0.000,0.349,0.000,0.068
23:56:01.143,SEARCHING,8.358,0.548,1.000,0.00,0.00,-17.91,0.721,1.916,5.121,1.912,1.921,0,0,SEARCHING,0.000,0.363,0.000,0.208
23:56:01.344,SEARCHING,8.427,0.527,1.000,0.00,0.00,-15.70,0.669,1.806,4.247,1.795,1.800,0,0,SEARCHING,0.000,0.343,0.000,0.061
23:56:01.545,SEARCHING,8.491,0.509,1.000,0.00,0.00,-15.67,0.637,1.701,3.796,1.698,1.690,0,0,SEARCHING,0.000,0.304,0.000,-0.197
23:56:01.745,SEARCHING,8.549,0.492,1.000,0.00,0.00,-18.22,0.658,1.720,4.141,1.718,1.725,0,0,SEARCHING,0.000,0.293,0.000,-0.251
23:56:01.945,SEARCHING,8.604,0.473,1.000,0.00,0.00,-20.64,0.744,1.668,4.899,1.669,1.667,0,0,SEARCHING,0.000,0.287,0.000,-0.012
23:56:02.146,SEARCHING,8.657,0.453,1.000,0.00,0.00,-20.16,0.751,1.623,5.030,1.623,1.623,0,0,SEARCHING,0.000,0.277,0.000,0.194
23:56:02.347,SEARCHING,8.709,0.434,1.000,0.00,0.00,-17.88,0.712,1.561,4.599,1.565,1.559,0,0,SEARCHING,0.000,0.261,0.000,0.158
23:56:02.548,SEARCHING,8.759,0.419,1.000,0.00,0.00,-16.56,0.670,1.514,3.800,1.516,1.509,0,0,SEARCHING,0.000,0.253,0.000,-0.072
23:56:02.748,SEARCHING,8.807,0.405,1.000,0.00,0.00,-17.95,0.672,1.452,3.728,1.453,1.453,0,0,SEARCHING,0.000,0.251,0.000,-0.246
23:56:02.948,SEARCHING,8.854,0.388,1.000,0.00,0.00,-20.60,0.749,1.425,4.503,1.420,1.418,0,0,SEARCHING,0.000,0.250,0.000,-0.102
23:56:03.149,SEARCHING,8.901,0.370,1.000,0.00,0.00,-21.09,0.797,1.412,4.915,1.410,1.399,0,0,SEARCHING,0.000,0.250,0.000,0.155
23:56:03.350,SEARCHING,8.948,0.353,1.000,0.00,0.00,-19.11,0.771,1.339,4.529,1.334,1.335,0,0,SEARCHING,0.000,0.250,0.000,0.183
23:56:03.549,SEARCHING,8.995,0.337,1.000,0.00,0.00,-17.34,0.714,1.267,3.773,1.267,1.265,0,0,SEARCHING,0.000,0.250,0.000,-0.000
23:56:03.750,SEARCHING,9.043,0.322,1.000,0.00,0.00,-17.92,0.698,1.212,3.406,1.212,1.211,0,0,SEARCHING,0.000,0.250,0.000,-0.212
23:56:03.950,SEARCHING,9.090,0.306,1.000,0.00,0.00,-20.43,0.755,1.199,4.033,1.196,1.192,0,0,SEARCHING,0.000,0.250,0.000,-0.169
23:56:04.151,SEARCHING,9.137,0.288,1.000,0.00,0.00,-21.83,0.800,1.213,4.536,1.245,1.222,0,0,SEARCHING,0.000,0.250,0.000,0.050
23:56:04.351,SEARCHING,9.183,0.269,1.000,0.00,0.00,-20.96,0.776,1.195,4.457,1.240,1.212,0,0,SEARCHING,0.000,0.250,0.000,0.128
23:56:04.553,SEARCHING,9.230,0.252,1.000,0.00,0.00,-19.62,0.739,1.103,4.127,1.107,1.109,0,0,SEARCHING,0.000,0.250,0.000,0.050
23:56:04.752,SEARCHING,9.277,0.235,1.000,0.00,0.00,-19.07,0.681,1.047,3.770,1.046,1.044,0,0,SEARCHING,0.000,0.250,0.000,-0.033
23:56:04.949,SEARCHING,9.325,0.219,1.000,0.00,0.00,-20.02,0.667,0.999,3.686,1.017,1.017,0,0,SEARCHING,0.000,0.250,0.000,-0.226
23:56:05.149,SEARCHING,9.371,0.201,1.000,0.00,0.00,-22.30,0.815,1.122,4.209,1.112,1.099,0,0,SEARCHING,0.000,0.250,0.000,-0.044
23:56:05.349,SEARCHING,9.417,0.182,1.000,0.00,0.00,-22.44,0.776,1.143,4.293,1.145,1.148,0,0,SEARCHING,0.000,0.250,0.000,0.062
23:56:05.550,SEARCHING,9.464,0.163,1.000,0.00,0.00,-21.75,0.738,1.117,4.213,1.114,1.117,0,0,SEARCHING,0.000,0.250,0.000,0.033
23:56:05.751,SEARCHING,9.510,0.145,1.000,0.00,0.00,-21.58,0.691,1.071,4.059,1.064,1.067,0,0,SEARCHING,0.000,0.250,0.000,-0.065
23:56:05.951,SEARCHING,9.557,0.126,1.000,0.00,0.00,-22.62,0.630,1.043,4.068,1.090,1.062,0,0,SEARCHING,0.000,0.250,0.000,-0.190
23:56:06.153,SEARCHING,9.602,0.106,1.000,0.00,0.00,-25.02,0.581,1.168,4.739,1.171,1.171,0,0,SEARCHING,0.000,0.250,0.000,-0.241
23:56:06.352,SEARCHING,9.647,0.084,1.000,0.00,0.00,-27.31,0.589,1.397,6.131,1.360,1.365,0,0,SEARCHING,0.000,0.250,0.000,-0.007
23:56:06.552,SEARCHING,9.692,0.061,1.000,0.00,0.00,-26.50,0.584,1.471,7.016,1.449,1.465,0,0,SEARCHING,0.000,0.250,0.000,0.339
23:56:06.753,SEARCHING,9.737,0.040,1.000,0.00,0.00,-22.88,0.534,1.196,4.710,1.184,1.183,0,0,SEARCHING,0.000,0.250,0.000,0.041
23:56:06.952,SEARCHING,9.783,0.021,1.000,0.00,0.00,-23.77,0.499,1.079,3.896,1.077,1.065,0,0,SEARCHING,0.000,0.250,0.000,-0.472
23:56:07.154,SEARCHING,9.828,-0.001,1.000,0.00,0.00,-29.34,0.564,1.381,5.707,1.363,1.390,0,0,SEARCHING,0.000,0.250,0.000,-0.327
23:56:07.354,SEARCHING,9.872,-0.028,1.000,0.00,0.00,-31.76,0.647,1.839,6.241,1.831,1.838,0,0,SEARCHING,0.000,0.283,0.000,0.181
23:56:07.555,SEARCHING,9.922,-0.058,1.000,0.00,0.00,-29.00,0.631,1.780,6.465,1.768,1.777,0,0,SEARCHING,0.000,0.315,0.000,0.403
23:56:07.754,SEARCHING,9.977,-0.085,1.000,0.00,0.00,-24.20,0.544,1.261,4.962,1.262,1.266,0,0,SEARCHING,0.000,0.272,0.000,0.242
23:56:07.955,SEARCHING,10.026,-0.106,1.000,0.00,0.00,-23.09,0.491,1.015,3.681,1.010,1.020,0,0,SEARCHING,0.000,0.255,0.000,-0.412
23:56:08.156,SEARCHING,10.072,-0.128,1.000,0.00,0.00,-28.54,0.525,1.197,5.075,1.216,1.221,0,0,SEARCHING,0.000,0.251,0.000,-0.509
23:56:08.357,SEARCHING,10.115,-0.154,1.000,0.00,0.00,-33.11,0.640,1.626,6.094,1.637,1.626,0,0,SEARCHING,0.000,0.254,0.000,0.036
23:56:08.556,SEARCHING,10.158,-0.182,1.000,0.00,0.00,-31.83,0.663,1.661,6.116,1.669,1.660,0,0,SEARCHING,0.000,0.269,0.000,0.326
23:56:08.757,SEARCHING,10.204,-0.209,1.000,0.00,0.00,-27.87,0.602,1.566,6.606,1.559,1.563,0,0,SEARCHING,0.000,0.260,0.000,0.404
23:56:08.957,SEARCHING,10.251,-0.231,1.000,0.00,0.00,-24.04,0.519,1.218,4.349,1.172,1.209,0,0,SEARCHING,0.000,0.252,0.000,-0.077
23:56:09.158,SEARCHING,10.297,-0.252,1.000,0.00,0.00,-26.38,0.499,1.100,3.889,1.100,1.147,0,0,SEARCHING,0.000,0.251,0.000,-0.575
23:56:09.358,SEARCHING,10.340,-0.277,1.000,0.00,0.00,-32.47,0.595,1.379,6.041,1.377,1.392,0,0,SEARCHING,0.000,0.250,0.000,-0.192
23:56:09.559,SEARCHING,10.382,-0.304,1.000,0.00,0.00,-33.52,0.680,1.496,5.949,1.474,1.480,0,0,SEARCHING,0.000,0.250,0.000,0.218
23:56:09.759,SEARCHING,10.424,-0.331,1.000,0.00,0.00,-30.56,0.620,1.362,6.304,1.363,1.361,0,0,SEARCHING,0.000,0.250,0.000,0.357
23:56:09.960,SEARCHING,10.468,-0.355,1.000,0.00,0.00,-26.39,0.566,1.294,5.380,1.296,1.292,0,0,SEARCHING,0.000,0.250,0.000,0.249
23:56:10.160,SEARCHING,10.513,-0.376,1.000,0.00,0.00,-24.80,0.501,1.192,3.731,1.091,1.119,0,0,SEARCHING,0.000,0.250,0.000,-0.328
23:56:10.361,SEARCHING,10.558,-0.398,1.000,0.00,0.00,-29.58,0.523,1.176,4.963,1.157,1.158,0,0,SEARCHING,0.000,0.250,0.000,-0.524
23:56:10.560,SEARCHING,10.600,-0.425,1.000,0.00,0.00,-34.43,0.649,1.344,5.885,1.340,1.322,0,0,SEARCHING,0.000,0.250,0.000,-0.009
23:56:10.761,SEARCHING,10.642,-0.453,1.000,0.00,0.00,-33.65,0.695,1.425,5.791,1.434,1.418,0,0,SEARCHING,0.000,0.250,0.000,0.285
23:56:10.962,SEARCHING,10.684,-0.480,1.000,0.00,0.00,-30.12,0.640,1.184,6.198,1.170,1.169,0,0,SEARCHING,0.000,0.250,0.000,0.372
23:56:11.162,SEARCHING,10.728,-0.504,1.000,0.00,0.00,-25.78,0.552,1.014,4.922,1.013,1.009,0,0,SEARCHING,0.000,0.250,0.000,0.204
23:56:11.362,SEARCHING,10.773,-0.525,1.000,0.00,0.00,-25.21,0.494,0.951,3.044,0.951,0.951,0,0,SEARCHING,0.000,0.250,0.000,-0.521
23:56:11.564,SEARCHING,10.818,-0.548,1.000,0.00,0.00,-32.00,0.551,0.933,5.514,0.931,0.933,0,0,SEARCHING,0.000,0.250,0.000,-0.531
23:56:11.764,SEARCHING,10.859,-0.576,1.000,0.00,0.00,-36.44,0.747,1.329,5.529,1.354,1.342,0,0,SEARCHING,0.000,0.250,0.000,0.094
23:56:11.964,SEARCHING,10.899,-0.606,1.000,0.00,0.00,-34.74,0.733,1.353,5.564,1.353,1.382,0,0,SEARCHING,0.000,0.250,0.000,0.296
23:56:12.165,SEARCHING,10.941,-0.633,1.000,0.00,0.00,-31.09,0.716,1.105,5.933,1.106,1.102,0,0,SEARCHING,0.000,0.250,0.000,0.402
23:56:12.365,SEARCHING,10.985,-0.657,1.000,0.00,0.00,-26.09,0.688,0.842,5.114,0.841,0.847,0,0,SEARCHING,0.000,0.250,0.000,0.418
23:56:12.566,INSPECTING,11.030,-0.678,1.000,0.00,0.00,-22.44,0.492,0.678,2.675,0.672,0.678,0,0,INSPECT_RIGHT,0.000,0.290,0.000,-0.233
23:56:12.766,INSPECTING,11.087,-0.703,1.000,0.00,0.00,-25.74,0.524,0.632,2.412,0.629,0.626,0,0,INSPECT_RIGHT,0.000,0.374,0.000,-0.436
23:56:12.966,INSPECTING,11.154,-0.738,1.000,0.00,0.00,-30.88,0.504,0.711,4.873,0.713,0.721,0,0,INSPECT_RIGHT,0.000,0.394,0.000,-0.485
23:56:13.177,INSPECTING,11.220,-0.782,1.000,0.00,0.00,-36.47,0.449,1.010,5.570,1.020,0.994,0,0,INSPECT_RIGHT,0.000,0.398,0.000,-0.496
23:56:13.371,SEARCHING,11.282,-0.832,1.000,0.00,0.00,-42.17,0.531,1.637,5.066,1.637,1.614,0,0,INSPECT_RIGHT,0.000,0.400,0.000,-0.499
23:56:13.572,SEARCHING,11.336,-0.885,1.000,0.00,0.00,-46.87,0.681,2.845,4.588,3.252,2.727,0,0,SEARCHING,0.000,0.511,-0.056,-0.202
23:56:13.772,SEARCHING,11.412,-0.970,1.000,0.00,0.00,-48.57,0.827,6.278,4.301,4.715,5.446,0,0,SEARCHING,0.000,0.725,0.135,0.028
23:56:13.977,SEARCHING,11.510,-1.080,1.000,0.00,0.00,-47.84,0.911,6.605,4.196,4.866,5.757,0,0,SEARCHING,0.000,0.782,0.315,0.162
23:56:14.176,SEARCHING,11.618,-1.195,1.000,0.00,0.00,-45.82,0.934,4.897,4.269,4.868,5.549,0,0,SEARCHING,0.000,0.796,0.350,0.221
23:56:14.377,SEARCHING,11.731,-1.307,1.000,0.00,0.00,-43.23,0.884,3.563,4.388,4.874,3.480,0,0,SEARCHING,0.000,0.799,-0.001,0.235
23:56:14.577,SEARCHING,11.850,-1.414,1.000,0.00,0.00,-40.58,0.812,2.564,4.475,2.563,2.507,0,0,SEARCHING,0.000,0.748,-0.114,0.207
23:56:14.779,SEARCHING,11.957,-1.503,1.000,0.00,0.00,-38.35,0.742,1.968,4.628,1.961,1.998,0,0,SEARCHING,0.000,0.512,-0.027,0.150
23:56:14.979,SEARCHING,12.032,-1.561,1.000,0.00,0.00,-36.75,0.691,1.649,4.746,1.688,1.656,0,0,SEARCHING,0.000,0.349,-0.007,0.095
23:56:15.179,SEARCHING,12.086,-1.600,1.000,0.00,0.00,-35.78,0.654,1.476,4.858,1.467,1.480,0,0,SEARCHING,0.000,0.276,-0.002,0.048
23:56:15.379,SEARCHING,12.130,-1.632,1.000,0.00,0.00,-35.33,0.638,1.390,4.897,1.387,1.378,0,0,SEARCHING,0.000,0.256,-0.000,0.010
23:56:15.580,SEARCHING,12.171,-1.661,1.000,0.00,0.00,-35.25,0.636,1.366,4.954,1.345,1.345,0,0,SEARCHING,0.000,0.252,-0.000,0.003
23:56:15.780,SEARCHING,12.212,-1.690,1.000,0.00,0.00,-35.28,0.609,1.342,4.938,1.317,1.328,0,0,SEARCHING,0.000,0.250,-0.000,-0.034
23:56:15.980,SEARCHING,12.253,-1.719,1.000,0.00,0.00,-35.83,0.585,1.343,4.890,1.321,1.321,0,0,SEARCHING,0.000,0.250,-0.000,-0.103
23:56:16.181,SEARCHING,12.293,-1.749,1.000,0.00,0.00,-37.16,0.589,1.387,4.766,1.380,1.393,0,0,SEARCHING,0.000,0.250,-0.000,-0.153
23:56:16.381,SEARCHING,12.333,-1.780,1.000,0.00,0.00,-38.99,0.616,1.598,4.624,1.588,1.618,0,0,SEARCHING,0.000,0.250,-0.000,-0.166
23:56:16.582,SEARCHING,12.372,-1.812,1.000,0.00,0.00,-40.81,0.668,2.193,4.446,2.691,1.820,0,0,SEARCHING,0.000,0.323,-0.061,-0.122
23:56:16.783,SEARCHING,12.427,-1.861,1.000,0.00,0.00,-42.05,0.704,4.260,4.296,4.597,3.206,0,0,SEARCHING,0.000,0.573,-0.458,-0.067
23:56:16.982,SEARCHING,12.518,-1.945,1.000,0.00,0.00,-42.75,0.744,7.295,4.159,4.846,5.942,0,0,SEARCHING,0.000,0.745,0.051,-0.039
23:56:17.184,SEARCHING,12.629,-2.048,1.000,0.00,0.00,-43.14,0.768,7.229,4.066,4.865,6.101,0,0,SEARCHING,0.000,0.787,0.432,-0.018
23:56:17.384,SEARCHING,12.744,-2.156,1.000,0.00,0.00,-43.34,0.801,7.350,3.963,4.858,6.093,0,0,SEARCHING,0.000,0.797,0.542,-0.007
23:56:17.584,SEARCHING,12.860,-2.265,1.000,0.00,0.00,-43.38,0.818,7.013,3.857,4.867,6.096,0,0,SEARCHING,0.000,0.799,0.557,0.003
23:56:17.784,SEARCHING,12.976,-2.375,1.000,0.00,0.00,-43.32,0.850,6.957,3.798,4.868,6.096,0,0,SEARCHING,0.000,0.800,0.553,0.017
23:56:17.985,SEARCHING,13.093,-2.485,1.000,0.00,0.00,-43.11,0.854,6.973,3.732,4.847,6.060,0,0,SEARCHING,0.000,0.800,0.540,0.017
23:56:18.185,SEARCHING,13.210,-2.594,1.000,0.00,0.00,-42.92,1.298,6.809,3.685,4.866,6.079,0,0,SEARCHING,0.000,0.800,0.545,0.097
23:56:18.385,SEARCHING,13.328,-2.702,1.000,0.00,0.00,-41.32,1.476,6.750,3.674,4.922,6.054,0,0,SEARCHING,0.000,0.800,0.515,0.262
23:56:18.586,SEARCHING,13.451,-2.805,1.000,0.00,0.00,-38.11,1.361,7.012,4.125,4.875,6.188,0,0,SEARCHING,0.000,0.800,0.545,0.354
23:56:18.786,SEARCHING,13.580,-2.899,1.000,0.00,0.00,-33.80,1.196,4.939,4.668,4.551,4.424,0,0,SEARCHING,0.000,0.800,0.279,0.459
23:56:18.991,SEARCHING,13.716,-2.983,1.000,0.00,0.00,-28.37,0.969,3.439,5.193,3.452,3.246,0,0,SEARCHING,0.000,0.800,-0.015,0.522
23:56:19.192,SEARCHING,13.860,-3.052,1.000,0.00,0.00,-22.24,0.775,2.333,6.171,2.335,2.311,0,0,SEARCHING,0.000,0.717,-0.027,0.592
23:56:19.393,SEARCHING,13.982,-3.095,1.000,0.00,0.00,-15.32,0.639,1.301,4.902,1.305,1.317,0,0,SEARCHING,0.000,0.411,-0.006,0.439
23:56:19.594,SEARCHING,14.056,-3.113,1.000,0.00,0.00,-12.09,0.526,0.914,3.204,0.911,0.921,0,0,SEARCHING,0.000,0.289,-0.002,-0.323
23:56:19.795,SEARCHING,14.111,-3.126,1.000,0.00,0.00,-17.11,0.516,0.883,3.324,0.890,0.895,0,0,SEARCHING,0.000,0.259,-0.000,-0.735
23:56:19.994,SEARCHING,14.159,-3.144,1.000,0.00,0.00,-25.06,0.598,1.645,5.721,1.638,1.725,0,0,SEARCHING,0.000,0.256,-0.000,-0.346
23:56:20.194,SEARCHING,14.209,-3.170,1.000,0.00,0.00,-27.61,0.696,2.431,5.701,2.413,2.421,0,0,SEARCHING,0.000,0.421,-0.000,0.154
23:56:20.395,SEARCHING,14.290,-3.210,1.000,0.00,0.00,-25.37,0.674,2.436,5.769,2.428,2.403,0,0,SEARCHING,0.000,0.528,-0.000,0.300
23:56:20.596,SEARCHING,14.386,-3.253,1.000,0.00,0.00,-21.84,0.604,1.998,6.203,2.088,2.138,0,0,SEARCHING,0.000,0.474,-0.000,0.323
23:56:20.796,SEARCHING,14.469,-3.284,1.000,0.00,0.00,-18.23,0.526,1.460,5.658,1.458,1.472,0,0,SEARCHING,0.000,0.329,-0.000,0.175
23:56:20.997,SEARCHING,14.528,-3.302,1.000,0.00,0.00,-17.61,0.469,1.191,3.778,1.194,1.186,0,0,SEARCHING,0.000,0.269,-0.000,-0.410
23:56:21.199,SEARCHING,14.578,-3.320,1.000,0.00,0.00,-23.15,0.493,1.435,5.495,1.444,1.534,0,0,SEARCHING,0.000,0.255,-0.000,-0.527
23:56:21.398,SEARCHING,14.625,-3.343,1.000,0.00,0.00,-27.94,0.727,2.002,5.637,2.000,2.017,0,0,SEARCHING,0.000,0.318,-0.000,0.024
23:56:21.598,SEARCHING,14.685,-3.374,1.000,0.00,0.00,-26.67,0.807,2.049,5.538,2.056,2.053,0,0,SEARCHING,0.000,0.390,-0.000,0.360
23:56:21.799,SEARCHING,14.756,-3.407,1.000,0.00,0.00,-22.23,0.717,1.952,5.916,1.894,1.925,0,0,SEARCHING,0.000,0.388,-0.000,0.454
23:56:21.999,SEARCHING,14.826,-3.433,1.000,0.00,0.00,-17.06,0.602,1.355,4.252,1.386,1.387,0,0,SEARCHING,0.000,0.301,-0.000,0.222
23:56:22.200,SEARCHING,14.882,-3.449,1.000,0.00,0.00,-16.36,0.527,1.093,2.740,1.093,1.111,0,0,SEARCHING,0.000,0.262,-0.000,-0.505
23:56:22.401,SEARCHING,14.931,-3.465,1.000,0.00,0.00,-23.01,0.584,1.372,4.643,1.373,1.407,0,0,SEARCHING,0.000,0.253,-0.000,-0.581
23:56:22.601,SEARCHING,14.976,-3.488,1.000,0.00,0.00,-28.22,0.736,1.698,5.430,1.706,1.700,0,0,SEARCHING,0.000,0.266,-0.000,0.011
23:56:22.802,SEARCHING,15.024,-3.513,1.000,0.00,0.00,-27.19,0.800,1.718,5.379,1.726,1.713,0,0,SEARCHING,0.000,0.293,-0.000,0.319
23:56:23.002,SEARCHING,15.077,-3.539,1.000,0.00,0.00,-23.26,0.718,1.616,5.873,1.621,1.618,0,0,SEARCHING,0.000,0.281,-0.000,0.414
23:56:23.203,SEARCHING,15.128,-3.559,1.000,0.00,0.00,-18.50,0.608,1.472,5.278,1.455,1.455,0,0,SEARCHING,0.000,0.260,-0.000,0.297
23:56:23.403,SEARCHING,15.178,-3.574,1.000,0.00,0.00,-16.64,0.526,1.111,2.759,1.088,1.101,0,0,SEARCHING,0.000,0.252,-0.000,-0.411
23:56:23.604,SEARCHING,15.225,-3.590,1.000,0.00,0.00,-22.56,0.563,1.304,4.449,1.303,1.296,0,0,SEARCHING,0.000,0.251,-0.000,-0.626
23:56:23.804,SEARCHING,15.271,-3.612,1.000,0.00,0.00,-28.46,0.715,1.432,5.336,1.432,1.425,0,0,SEARCHING,0.000,0.250,-0.000,-0.076
23:56:24.004,SEARCHING,15.314,-3.636,1.000,0.00,0.00,-28.36,0.801,1.480,5.222,1.473,1.468,0,0,SEARCHING,0.000,0.250,-0.000,0.257
23:56:24.205,SEARCHING,15.359,-3.658,1.000,0.00,0.00,-25.13,0.748,1.359,5.448,1.353,1.349,0,0,SEARCHING,0.000,0.250,-0.000,0.347
23:56:24.405,SEARCHING,15.405,-3.678,1.000,0.00,0.00,-21.13,0.648,1.276,5.824,1.273,1.273,0,0,SEARCHING,0.000,0.250,-0.000,0.334
23:56:24.606,SEARCHING,15.452,-3.695,1.000,0.00,0.00,-17.92,0.559,1.224,3.364,1.225,1.223,0,0,SEARCHING,0.000,0.250,-0.000,-0.111
23:56:24.807,SEARCHING,15.499,-3.711,1.000,0.00,0.00,-20.82,0.544,1.176,2.678,1.175,1.176,0,0,SEARCHING,0.000,0.250,-0.000,-0.669
23:56:25.007,SEARCHING,15.545,-3.731,1.000,0.00,0.00,-27.96,0.667,1.151,5.166,1.142,1.144,0,0,SEARCHING,0.000,0.250,-0.000,-0.275
23:56:25.207,SEARCHING,15.588,-3.756,1.000,0.00,0.00,-29.90,0.850,1.338,5.067,1.340,1.311,0,0,SEARCHING,0.000,0.250,-0.000,0.172
23:56:25.408,SEARCHING,15.632,-3.780,1.000,0.00,0.00,-27.27,0.816,1.244,5.069,1.248,1.242,0,0,SEARCHING,0.000,0.250,-0.000,0.363
23:56:25.608,SEARCHING,15.677,-3.801,1.000,0.00,0.00,-23.10,0.705,1.023,5.420,1.021,1.019,0,0,SEARCHING,0.000,0.250,-0.000,0.343
23:56:25.808,SEARCHING,15.724,-3.820,1.000,0.00,0.00,-19.38,0.597,0.930,4.042,0.929,0.929,0,0,SEARCHING,0.000,0.250,-0.000,0.085
23:56:26.010,SEARCHING,15.771,-3.836,1.000,0.00,0.00,-20.06,0.552,0.878,2.512,0.876,0.878,0,0,SEARCHING,0.000,0.250,-0.000,-0.550
23:56:26.212,SEARCHING,15.817,-3.855,1.000,0.00,0.00,-26.42,0.665,0.866,4.919,0.867,0.872,0,0,SEARCHING,0.000,0.250,-0.000,-0.342
23:56:26.410,SEARCHING,15.861,-3.879,1.000,0.00,0.00,-29.13,0.670,1.054,5.188,1.051,1.041,0,0,SEARCHING,0.000,0.250,-0.000,0.053
23:56:26.612,SEARCHING,15.905,-3.903,1.000,0.00,0.00,-28.29,0.683,1.062,4.997,1.055,1.055,0,0,SEARCHING,0.000,0.250,-0.000,0.118
23:56:26.812,SEARCHING,15.949,-3.926,1.000,0.00,0.00,-26.93,0.646,0.966,5.162,0.941,0.950,0,0,SEARCHING,0.000,0.250,-0.000,0.110
23:56:27.012,SEARCHING,15.994,-3.948,1.000,0.00,0.00,-25.79,0.603,0.862,5.208,0.863,0.849,0,0,SEARCHING,0.000,0.250,-0.000,0.051
23:56:27.213,SEARCHING,16.039,-3.970,1.000,0.00,0.00,-25.42,0.556,0.800,5.223,0.810,0.791,0,0,SEARCHING,0.000,0.250,-0.000,-0.052
23:56:27.414,INSPECTING,16.084,-3.992,1.000,0.00,0.00,-26.22,0.505,0.788,5.174,0.784,0.789,0,0,INSPECT_RIGHT,0.000,0.290,-0.000,-0.315
23:56:27.615,INSPECTING,16.139,-4.021,1.000,0.00,0.00,-30.27,0.455,0.867,4.994,0.895,0.881,0,0,INSPECT_RIGHT,0.000,0.374,-0.000,-0.456
23:56:27.814,INSPECTING,16.203,-4.062,1.000,0.00,0.00,-35.60,0.497,1.278,4.637,1.245,1.249,0,0,INSPECT_RIGHT,0.000,0.394,-0.000,-0.489
23:56:28.014,SEARCHING,16.264,-4.109,1.000,0.00,0.00,-41.11,0.618,4.445,4.245,4.287,3.457,0,0,SEARCHING,0.000,0.487,-0.183,-0.394
23:56:28.216,SEARCHING,16.344,-4.185,1.000,0.00,0.00,-45.10,0.792,5.293,3.941,4.822,4.527,0,0,SEARCHING,0.000,0.725,-0.162,-0.167
23:56:28.417,SEARCHING,16.447,-4.291,1.000,0.00,0.00,-46.49,0.984,5.200,3.861,4.904,4.418,0,0,SEARCHING,0.000,0.782,-0.194,0.046
23:56:28.617,SEARCHING,16.555,-4.405,1.000,0.00,0.00,-45.60,1.075,5.044,3.714,4.899,4.416,0,0,SEARCHING,0.000,0.796,-0.206,0.164
23:56:28.816,SEARCHING,16.669,-4.517,1.000,0.00,0.00,-43.66,1.066,4.930,3.603,4.885,4.377,0,0,SEARCHING,0.000,0.799,-0.227,0.173
23:56:29.017,SEARCHING,16.786,-4.626,1.000,0.00,0.00,-41.73,1.009,4.941,3.600,4.870,4.393,0,0,SEARCHING,0.000,0.800,-0.222,0.147
23:56:29.218,SEARCHING,16.907,-4.730,1.000,0.00,0.00,-40.00,1.295,4.970,3.595,4.869,4.435,0,0,SEARCHING,0.000,0.800,-0.204,0.196
23:56:30.602,SEARCHING,17.031,-4.831,1.000,0.00,0.00,-37.60,1.248,4.974,3.616,4.868,4.420,0,0,SEARCHING,0.000,0.800,-0.203,0.242
23:56:30.612,SEARCHING,17.160,-4.926,1.000,0.00,0.00,-34.81,1.248,4.974,3.616,4.868,4.420,0,0,SEARCHING,0.000,0.800,-0.199,0.249
23:56:30.739,SEARCHING,17.293,-5.014,1.000,0.00,0.00,-31.97,1.056,5.414,3.765,4.884,4.660,0,0,SEARCHING,0.000,0.800,-0.151,0.232
23:56:30.929,SEARCHING,17.431,-5.096,1.000,0.00,0.00,-29.44,0.954,5.805,3.782,4.900,4.803,0,0,SEARCHING,0.000,0.800,-0.059,0.174
23:56:31.130,SEARCHING,17.571,-5.173,1.000,0.00,0.00,-27.59,0.895,6.045,3.805,4.872,5.229,0,0,SEARCHING,0.000,0.800,0.079,0.115
23:56:31.330,SEARCHING,17.714,-5.245,1.000,0.00,0.00,-26.39,0.827,6.185,3.832,4.877,5.458,0,0,SEARCHING,0.000,0.800,0.162,0.056
23:56:31.530,SEARCHING,17.857,-5.316,1.000,0.00,0.00,-25.89,0.806,6.336,3.816,4.869,5.146,0,0,SEARCHING,0.000,0.800,0.103,0.004
23:56:31.735,SEARCHING,18.001,-5.385,1.000,0.00,0.00,-25.95,0.782,6.354,3.728,4.869,4.797,0,0,SEARCHING,0.000,0.800,0.100,-0.044
23:56:31.933,SEARCHING,18.145,-5.456,1.000,0.00,0.00,-26.57,0.775,6.121,3.665,4.868,4.875,0,0,SEARCHING,0.000,0.800,0.057,-0.086
23:56:32.133,SEARCHING,18.288,-5.529,1.000,0.00,0.00,-27.63,1.282,5.808,3.545,4.868,4.468,0,0,SEARCHING,0.000,0.800,-0.091,-0.002
23:56:32.333,SEARCHING,18.429,-5.603,1.000,0.00,0.00,-27.01,3.282,5.530,3.479,4.847,4.465,0,0,SEARCHING,0.000,0.800,-0.152,0.141
23:56:32.534,SEARCHING,18.573,-5.674,1.000,0.00,0.00,-25.49,3.016,5.794,3.513,4.884,4.569,0,0,SEARCHING,0.000,0.800,-0.165,0.123
23:56:32.735,SEARCHING,18.718,-5.741,1.000,0.00,0.00,-24.05,2.741,5.970,3.519,4.902,4.632,0,0,SEARCHING,0.000,0.800,-0.114,0.151
23:56:32.935,SEARCHING,18.865,-5.804,1.000,0.00,0.00,-22.20,2.546,6.191,3.562,4.872,5.191,0,0,SEARCHING,0.000,0.800,0.026,0.200
23:56:33.135,SEARCHING,19.014,-5.862,1.000,0.00,0.00,-19.81,2.326,6.614,3.617,4.880,5.584,0,0,SEARCHING,0.000,0.800,0.184,0.247
23:56:33.336,SEARCHING,19.166,-5.913,1.000,0.00,0.00,-16.84,2.065,7.252,3.773,4.870,6.062,0,0,SEARCHING,0.000,0.800,0.395,0.309
23:56:33.536,SEARCHING,19.320,-5.955,1.000,0.00,0.00,-13.11,1.757,8.136,4.137,4.869,6.096,0,0,SEARCHING,0.000,0.800,0.519,0.397
23:56:33.737,SEARCHING,19.477,-5.986,1.000,0.00,0.00,-8.27,1.453,5.653,4.700,4.538,4.283,0,0,SEARCHING,0.000,0.800,0.211,0.524
23:56:33.938,SEARCHING,19.636,-6.001,1.000,0.00,0.00,-1.93,1.170,3.314,5.588,3.196,2.976,0,0,SEARCHING,0.000,0.800,-0.044,0.678
23:56:34.137,SEARCHING,19.792,-5.997,1.000,0.00,0.00,6.55,0.918,1.980,7.566,1.965,1.935,0,0,SEARCHING,0.000,0.627,-0.019,0.963
23:56:34.339,SEARCHING,19.902,-5.976,1.000,0.00,0.00,16.72,0.516,1.200,3.604,1.199,1.199,0,0,SEARCHING,0.000,0.356,-0.005,0.224
23:56:34.539,SEARCHING,19.966,-5.956,1.000,0.00,0.00,16.58,0.398,0.927,2.186,0.933,0.930,0,0,SEARCHING,0.000,0.275,-0.001,-0.712
23:56:34.739,SEARCHING,20.018,-5.943,1.000,0.00,0.00,7.56,0.596,1.079,3.344,1.073,1.078,0,0,SEARCHING,0.000,0.256,-0.000,-0.833
23:56:34.939,SEARCHING,20.069,-5.940,1.000,0.00,0.00,0.20,0.763,1.585,7.108,1.582,1.570,0,0,SEARCHING,0.000,0.254,-0.000,0.199
23:56:35.140,SEARCHING,20.121,-5.939,1.000,0.00,0.00,4.40,0.768,1.577,7.636,1.592,1.567,0,0,SEARCHING,0.000,0.273,-0.000,0.849
23:56:35.341,SEARCHING,20.174,-5.931,1.000,0.00,0.00,13.99,0.621,1.105,4.048,1.102,1.104,0,0,SEARCHING,0.000,0.256,-0.000,0.439
23:56:35.541,SEARCHING,20.223,-5.917,1.000,0.00,0.00,16.52,0.526,0.830,2.127,0.843,0.838,0,0,SEARCHING,0.000,0.251,-0.000,-0.520
23:56:35.741,SEARCHING,20.272,-5.905,1.000,0.00,0.00,9.33,0.536,0.899,2.538,0.894,0.897,0,0,SEARCHING,0.000,0.250,-0.000,-0.881
23:56:35.943,SEARCHING,20.322,-5.901,1.000,0.00,0.00,0.16,0.647,1.272,6.498,1.277,1.267,0,0,SEARCHING,0.000,0.250,-0.000,-0.231
23:56:36.142,SEARCHING,20.372,-5.902,1.000,0.00,0.00,-0.40,0.727,1.615,6.944,1.613,1.668,0,0,SEARCHING,0.000,0.254,-0.000,0.504
23:56:36.342,SEARCHING,20.423,-5.900,1.000,0.00,0.00,6.30,0.645,1.269,7.336,1.286,1.271,0,0,SEARCHING,0.000,0.253,-0.000,0.777
23:56:36.543,SEARCHING,20.472,-5.891,1.000,0.00,0.00,13.76,0.517,0.895,3.127,0.891,0.904,0,0,SEARCHING,0.000,0.251,-0.000,-0.069
23:56:36.794,INSPECTING,20.521,-5.879,1.000,0.00,0.00,10.77,0.476,0.794,2.333,0.789,0.799,0,0,SEARCHING,0.000,0.175,-0.000,-0.814
23:56:36.945,INSPECTING,20.574,-5.873,1.000,0.00,0.00,2.94,0.533,0.975,5.918,0.976,0.976,0,0,INSPECT_RIGHT,0.000,0.346,-0.000,-0.575
23:56:37.144,INSPECTING,20.645,-5.873,1.000,0.00,0.00,-3.47,0.639,1.433,6.950,1.412,1.423,0,0,INSPECT_RIGHT,0.000,0.387,-0.000,-0.518
23:56:37.345,SEARCHING,20.723,-5.881,1.000,0.00,0.00,-9.37,0.772,2.232,5.712,2.223,2.243,0,0,INSPECT_RIGHT,0.000,0.397,-0.000,-0.504
23:56:37.545,SEARCHING,20.814,-5.899,1.000,0.00,0.00,-11.58,0.919,4.664,5.007,3.359,2.894,0,0,SEARCHING,0.000,0.670,-0.051,0.234
23:56:37.746,SEARCHING,20.951,-5.924,1.000,0.00,0.00,-8.37,0.889,3.112,5.093,2.877,2.719,0,0,SEARCHING,0.000,0.769,-0.093,0.401
23:56:37.947,SEARCHING,21.100,-5.941,1.000,0.00,0.00,-3.61,0.770,2.135,5.892,2.122,2.082,0,0,SEARCHING,0.000,0.617,-0.028,0.480
23:56:38.145,SEARCHING,21.213,-5.943,1.000,0.00,0.00,2.19,0.651,1.474,6.868,1.470,1.476,0,0,SEARCHING,0.000,0.384,-0.007,0.595
23:56:38.344,SEARCHING,21.284,-5.937,1.000,0.00,0.00,8.76,0.529,0.999,4.877,0.999,1.007,0,0,SEARCHING,0.000,0.282,-0.002,0.249
23:56:38.580,INSPECTING,21.338,-5.928,1.000,0.00,0.00,9.37,0.458,0.800,2.448,0.797,0.789,0,0,SEARCHING,0.000,0.183,-0.000,-0.621
23:56:38.745,INSPECTING,21.392,-5.921,1.000,0.00,0.00,3.40,0.478,0.901,4.938,0.891,0.879,0,0,INSPECT_RIGHT,0.000,0.348,-0.000,-0.529
23:56:38.945,INSPECTING,21.464,-5.921,1.000,0.00,0.00,-2.60,0.554,1.205,6.604,1.207,1.239,0,0,INSPECT_RIGHT,0.000,0.387,-0.000,-0.507
23:56:39.145,SEARCHING,21.542,-5.928,1.000,0.00,0.00,-8.39,0.668,1.667,5.958,1.668,1.699,0,0,INSPECT_RIGHT,0.000,0.397,-0.000,-0.502
23:56:39.346,SEARCHING,21.615,-5.941,1.000,0.00,0.00,-10.98,0.813,3.492,5.143,2.311,2.393,0,0,SEARCHING,0.000,0.503,-0.000,0.160
23:56:39.546,SEARCHING,21.726,-5.961,1.000,0.00,0.00,-8.65,0.805,2.503,5.154,2.192,2.257,0,0,SEARCHING,0.000,0.668,-0.000,0.319
23:56:39.747,SEARCHING,21.852,-5.976,1.000,0.00,0.00,-4.84,0.731,1.787,5.875,1.754,1.759,0,0,SEARCHING,0.000,0.470,-0.000,0.400
23:56:39.947,SEARCHING,21.938,-5.981,1.000,0.00,0.00,-0.02,0.618,1.278,6.649,1.277,1.267,0,0,SEARCHING,0.000,0.310,-0.000,0.476
23:56:40.147,SEARCHING,21.997,-5.978,1.000,0.00,0.00,5.60,0.513,1.012,6.618,1.007,1.022,0,0,SEARCHING,0.000,0.264,-0.000,0.417
23:56:40.385,INSPECTING,22.049,-5.971,1.000,0.00,0.00,8.94,0.432,0.780,2.989,0.777,0.782,0,0,SEARCHING,0.000,0.178,-0.000,-0.309
23:56:40.548,INSPECTING,22.101,-5.964,1.000,0.00,0.00,5.92,0.418,0.756,3.437,0.750,0.754,0,0,INSPECT_RIGHT,0.000,0.347,-0.000,-0.454
23:56:40.749,INSPECTING,22.172,-5.960,1.000,0.00,0.00,0.60,0.453,0.845,6.779,0.840,0.846,0,0,INSPECT_RIGHT,0.000,0.387,-0.000,-0.489
23:56:40.950,INSPECTING,22.250,-5.962,1.000,0.00,0.00,-5.03,0.530,1.025,6.646,1.027,1.012,0,0,INSPECT_RIGHT,0.000,0.397,-0.000,-0.497
23:56:41.149,SEARCHING,22.329,-5.973,1.000,0.00,0.00,-10.73,0.620,1.559,5.658,1.541,1.547,0,0,INSPECT_RIGHT,0.000,0.399,-0.000,-0.499
23:56:41.350,SEARCHING,22.411,-5.991,1.000,0.00,0.00,-14.08,0.701,4.744,4.871,4.090,2.878,0,0,SEARCHING,0.000,0.646,-0.206,-0.022
23:56:41.551,SEARCHING,22.542,-6.025,1.000,0.00,0.00,-13.95,0.768,5.405,4.693,4.777,3.786,0,0,SEARCHING,0.000,0.763,-0.393,0.114
23:56:41.757,SEARCHING,22.692,-6.060,1.000,0.00,0.00,-12.54,0.758,4.718,4.707,4.517,3.212,0,0,SEARCHING,0.000,0.791,-0.483,0.149
23:56:41.958,SEARCHING,22.848,-6.093,1.000,0.00,0.00,-10.79,0.737,4.112,4.907,4.028,2.854,0,0,SEARCHING,0.000,0.798,-0.485,0.168
23:56:42.158,SEARCHING,23.005,-6.120,1.000,0.00,0.00,-8.80,0.688,3.138,5.212,2.892,2.508,0,0,SEARCHING,0.000,0.799,-0.303,0.190
23:56:42.359,SEARCHING,23.156,-6.141,1.000,0.00,0.00,-6.60,0.627,2.012,5.594,2.114,1.997,0,0,SEARCHING,0.000,0.574,-0.116,0.193
23:56:42.559,SEARCHING,23.261,-6.152,1.000,0.00,0.00,-4.44,0.576,1.725,5.897,1.531,1.610,0,0,SEARCHING,0.000,0.379,-0.028,0.164
23:56:42.762,SEARCHING,23.332,-6.156,1.000,0.00,0.00,-2.63,0.526,1.216,6.276,1.151,1.173,0,0,SEARCHING,0.000,0.285,-0.007,0.130
23:56:42.961,SEARCHING,23.387,-6.158,1.000,0.00,0.00,-1.27,0.490,1.007,6.498,0.962,1.022,0,0,SEARCHING,0.000,0.258,-0.017,0.086
23:56:43.162,SEARCHING,23.439,-6.159,1.000,0.00,0.00,-0.24,0.461,0.908,6.764,0.876,0.934,0,0,SEARCHING,0.000,0.252,-0.050,0.124
23:56:43.361,SEARCHING,23.489,-6.158,1.000,0.00,0.00,1.40,0.434,0.833,7.237,0.816,0.848,0,0,SEARCHING,0.000,0.250,-0.051,0.235
23:56:43.563,INSPECTING,23.539,-6.156,1.000,0.00,0.00,4.12,0.396,0.741,6.707,0.732,0.746,0,0,INSPECT_RIGHT,0.000,0.290,-0.017,-0.091
23:56:43.762,INSPECTING,23.601,-6.152,1.000,0.00,0.00,2.10,0.378,0.697,6.795,0.686,0.697,0,0,INSPECT_RIGHT,0.000,0.374,-0.004,-0.402
23:56:43.964,INSPECTING,23.677,-6.152,1.000,0.00,0.00,-2.74,0.394,0.891,6.805,0.870,0.795,0,0,INSPECT_RIGHT,0.000,0.394,-0.001,-0.476
23:56:44.163,SEARCHING,23.756,-6.159,1.000,0.00,0.00,-8.25,0.461,1.616,5.843,1.402,1.397,0,0,INSPECT_RIGHT,0.000,0.398,-0.000,-0.494
23:56:44.363,SEARCHING,23.829,-6.173,1.000,0.00,0.00,-12.73,0.544,3.109,5.209,3.171,2.629,0,0,SEARCHING,0.000,0.510,-0.056,-0.265
23:56:44.564,SEARCHING,23.939,-6.201,1.000,0.00,0.00,-15.26,0.747,5.490,4.800,4.395,3.775,0,0,SEARCHING,0.000,0.730,-0.197,-0.018
23:56:44.765,SEARCHING,24.083,-6.240,1.000,0.00,0.00,-14.90,0.889,7.468,4.669,4.813,4.364,0,0,SEARCHING,0.000,0.783,-0.196,0.198
23:56:44.965,SEARCHING,24.236,-6.278,1.000,0.00,0.00,-12.34,0.865,4.819,4.719,4.231,3.626,0,0,SEARCHING,0.000,0.796,-0.231,0.289
23:56:45.167,SEARCHING,24.392,-6.308,1.000,0.00,0.00,-9.01,0.771,3.390,4.907,3.309,2.993,0,0,SEARCHING,0.000,0.799,-0.171,0.279
23:56:45.369,SEARCHING,24.551,-6.329,1.000,0.00,0.00,-5.91,0.693,2.321,5.282,2.452,2.311,0,0,SEARCHING,0.000,0.713,-0.082,0.242
23:56:45.568,SEARCHING,24.681,-6.340,1.000,0.00,0.00,-3.20,0.623,1.768,5.752,1.770,1.778,0,0,SEARCHING,0.000,0.450,-0.020,0.222
23:56:45.769,SEARCHING,24.763,-6.343,1.000,0.00,0.00,-0.58,0.563,1.408,6.472,1.403,1.349,0,0,SEARCHING,0.000,0.303,-0.005,0.258
23:56:45.969,SEARCHING,24.822,-6.342,1.000,0.00,0.00,2.52,0.501,1.049,7.776,1.038,1.056,0,0,SEARCHING,0.000,0.263,-0.001,0.361
23:56:46.170,SEARCHING,24.874,-6.338,1.000,0.00,0.00,7.25,0.437,0.837,6.445,0.828,0.848,0,0,SEARCHING,0.000,0.253,-0.000,0.403
23:56:46.370,INSPECTING,24.923,-6.330,1.000,0.00,0.00,10.67,0.374,0.649,2.934,0.645,0.653,0,0,INSPECT_RIGHT,0.000,0.290,-0.000,-0.248
23:56:46.570,INSPECTING,24.985,-6.320,1.000,0.00,0.00,7.22,0.360,0.640,2.647,0.630,0.625,0,0,INSPECT_RIGHT,0.000,0.374,-0.000,-0.440
23:56:46.772,INSPECTING,25.061,-6.314,1.000,0.00,0.00,2.04,0.379,0.720,7.108,0.716,0.720,0,0,INSPECT_RIGHT,0.000,0.394,-0.000,-0.485
23:56:46.971,INSPECTING,25.140,-6.314,1.000,0.00,0.00,-3.56,0.431,1.075,6.956,1.016,1.010,0,0,INSPECT_RIGHT,0.000,0.398,-0.000,-0.497
23:56:47.171,SEARCHING,25.219,-6.323,1.000,0.00,0.00,-9.26,0.529,1.806,5.456,1.810,1.799,0,0,INSPECT_RIGHT,0.000,0.400,-0.000,-0.499
23:56:47.371,SEARCHING,25.295,-6.338,1.000,0.00,0.00,-13.55,0.689,4.127,4.774,2.754,2.622,0,0,SEARCHING,0.000,0.531,-0.013,-0.128
23:56:47.572,SEARCHING,25.409,-6.367,1.000,0.00,0.00,-14.42,0.838,7.483,4.531,3.619,3.021,0,0,SEARCHING,0.000,0.735,-0.132,0.102
23:56:47.773,SEARCHING,25.554,-6.403,1.000,0.00,0.00,-12.94,0.867,7.645,4.488,3.435,2.998,0,0,SEARCHING,0.000,0.784,-0.184,0.205
23:56:47.973,SEARCHING,25.708,-6.436,1.000,0.00,0.00,-10.47,0.842,3.612,4.643,2.780,2.664,0,0,SEARCHING,0.000,0.796,-0.100,0.248
23:56:48.173,SEARCHING,25.863,-6.461,1.000,0.00,0.00,-7.63,0.763,2.221,4.912,2.138,2.170,0,0,SEARCHING,0.000,0.660,-0.024,0.244
23:56:48.375,SEARCHING,25.984,-6.474,1.000,0.00,0.00,-4.85,0.687,1.732,5.479,1.717,1.701,0,0,SEARCHING,0.000,0.427,-0.006,0.252
23:56:48.575,SEARCHING,26.062,-6.479,1.000,0.00,0.00,-1.81,0.625,1.470,6.465,1.468,1.464,0,0,SEARCHING,0.000,0.297,-0.001,0.345
23:56:48.775,SEARCHING,26.120,-6.480,1.000,0.00,0.00,2.64,0.541,1.172,8.363,1.194,1.197,0,0,SEARCHING,0.000,0.261,-0.000,0.602
23:56:48.976,SEARCHING,26.171,-6.474,1.000,0.00,0.00,9.53,0.451,0.841,4.561,0.845,0.854,0,0,SEARCHING,0.000,0.253,-0.000,0.235
23:56:49.176,INSPECTING,26.221,-6.465,1.000,0.00,0.00,11.00,0.388,0.680,1.918,0.677,0.687,0,0,INSPECT_RIGHT,0.000,0.285,-0.000,-0.400
23:56:49.376,INSPECTING,26.281,-6.456,1.000,0.00,0.00,6.18,0.392,0.703,3.232,0.697,0.699,0,0,INSPECT_RIGHT,0.000,0.354,-0.000,-0.476
23:56:49.577,INSPECTING,26.353,-6.451,1.000,0.00,0.00,0.67,0.428,0.855,7.715,0.846,0.873,0,0,INSPECT_RIGHT,0.000,0.389,-0.000,-0.494
23:56:49.777,INSPECTING,26.431,-6.454,1.000,0.00,0.00,-5.01,0.501,1.069,7.004,1.061,1.051,0,0,INSPECT_RIGHT,0.000,0.397,-0.000,-0.499
23:56:49.978,SEARCHING,26.510,-6.464,1.000,0.00,0.00,-10.72,0.628,1.469,5.370,1.509,1.541,0,0,INSPECT_RIGHT,0.000,0.399,-0.000,-0.500
23:56:50.178,SEARCHING,26.592,-6.483,1.000,0.00,0.00,-14.13,0.793,5.674,4.576,3.882,2.247,0,0,SEARCHING,0.000,0.647,-0.220,0.014
23:56:50.379,SEARCHING,26.724,-6.516,1.000,0.00,0.00,-13.66,0.760,6.401,4.413,4.779,2.332,0,0,SEARCHING,0.000,0.763,-0.572,0.087
23:56:50.579,SEARCHING,26.874,-6.551,1.000,0.00,0.00,-12.72,0.728,6.112,4.494,4.858,2.254,0,0,SEARCHING,0.000,0.791,-0.669,0.065
23:56:50.779,SEARCHING,27.029,-6.585,1.000,0.00,0.00,-11.99,0.732,5.732,4.567,4.846,2.047,0,0,SEARCHING,0.000,0.798,-0.693,0.068
23:56:50.980,SEARCHING,27.185,-6.617,1.000,0.00,0.00,-11.17,0.705,5.253,4.630,4.835,1.912,0,0,SEARCHING,0.000,0.799,-0.698,0.072
23:56:51.181,SEARCHING,27.343,-6.647,1.000,0.00,0.00,-10.39,0.701,4.945,4.729,4.696,2.795,0,0,SEARCHING,0.000,0.800,-0.700,0.063
23:56:51.381,SEARCHING,27.500,-6.675,1.000,0.00,0.00,-9.64,0.680,4.580,4.901,4.416,3.569,0,0,SEARCHING,0.000,0.800,-0.511,0.076
23:56:51.581,SEARCHING,27.658,-6.701,1.000,0.00,0.00,-8.77,0.660,4.237,3.750,4.166,3.308,0,0,SEARCHING,0.000,0.800,-0.377,-0.035
23:56:51.782,SEARCHING,27.816,-6.726,1.000,0.00,0.00,-9.69,0.654,4.195,4.686,4.199,3.421,0,0,SEARCHING,0.000,0.800,-0.348,-0.130
23:56:51.983,SEARCHING,27.973,-6.755,1.000,0.00,0.00,-10.84,0.694,4.545,4.822,4.517,3.863,0,0,SEARCHING,0.000,0.800,-0.302,0.007
23:56:52.186,SEARCHING,28.131,-6.785,1.000,0.00,0.00,-10.57,0.696,4.677,4.809,4.542,3.829,0,0,SEARCHING,0.000,0.800,-0.298,0.069
23:56:52.388,SEARCHING,28.288,-6.813,1.000,0.00,0.00,-9.72,0.690,4.287,4.872,4.334,3.660,0,0,SEARCHING,0.000,0.800,-0.291,0.088
23:56:52.589,SEARCHING,28.446,-6.839,1.000,0.00,0.00,-8.25,1.125,3.925,5.256,4.050,3.518,0,0,SEARCHING,0.000,0.800,-0.255,0.378
23:56:52.789,SEARCHING,28.605,-6.856,1.000,0.00,0.00,-2.89,1.095,3.121,6.662,3.164,2.913,0,0,SEARCHING,0.000,0.800,-0.172,0.807
23:56:52.989,SEARCHING,28.759,-6.853,1.000,0.00,0.00,7.05,0.819,1.900,6.185,1.906,1.883,0,0,SEARCHING,0.000,0.593,-0.050,0.914
23:56:53.191,SEARCHING,28.863,-6.833,1.000,0.00,0.00,15.98,0.589,1.135,3.092,1.135,1.138,0,0,SEARCHING,0.000,0.344,-0.012,0.096
23:56:53.391,SEARCHING,28.926,-6.814,1.000,0.00,0.00,14.84,0.508,0.899,2.141,0.904,0.908,0,0,SEARCHING,0.000,0.273,-0.003,-0.714
23:56:53.591,SEARCHING,28.978,-6.804,1.000,0.00,0.00,5.94,0.569,1.155,3.398,1.157,1.172,0,0,SEARCHING,0.000,0.255,-0.001,-0.818
23:56:53.795,SEARCHING,29.029,-6.802,1.000,0.00,0.00,-2.00,0.766,1.648,6.406,1.638,1.641,0,0,SEARCHING,0.000,0.259,-0.000,-0.033
23:56:53.995,SEARCHING,29.083,-6.804,1.000,0.00,0.00,-0.15,0.844,1.844,7.266,1.843,1.847,0,0,SEARCHING,0.000,0.319,-0.000,0.759
23:56:54.195,SEARCHING,29.145,-6.800,1.000,0.00,0.00,8.87,0.676,1.349,4.866,1.350,1.349,0,0,SEARCHING,0.000,0.277,-0.000,0.588
23:56:54.396,SEARCHING,29.199,-6.789,1.000,0.00,0.00,13.49,0.532,0.995,2.692,1.016,1.004,0,0,SEARCHING,0.000,0.257,-0.000,-0.313
23:56:54.595,SEARCHING,29.249,-6.779,1.000,0.00,0.00,8.34,0.526,1.038,2.739,1.028,1.041,0,0,SEARCHING,0.000,0.252,-0.000,-0.807
23:56:54.797,SEARCHING,29.299,-6.775,1.000,0.00,0.00,-0.57,0.662,1.261,5.350,1.254,1.240,0,0,SEARCHING,0.000,0.250,-0.000,-0.412
23:56:54.998,SEARCHING,29.349,-6.777,1.000,0.00,0.00,-3.03,0.863,1.771,6.996,1.781,1.768,0,0,SEARCHING,0.000,0.274,-0.000,0.500
23:56:55.199,SEARCHING,29.405,-6.778,1.000,0.00,0.00,3.93,0.751,1.413,6.071,1.409,1.394,0,0,SEARCHING,0.000,0.280,-0.000,0.760
23:56:55.398,SEARCHING,29.459,-6.770,1.000,0.00,0.00,11.22,0.568,0.998,3.296,0.997,0.996,0,0,SEARCHING,0.000,0.257,-0.000,0.011
23:56:55.599,SEARCHING,29.509,-6.760,1.000,0.00,0.00,9.36,0.513,0.897,2.594,0.897,0.899,0,0,SEARCHING,0.000,0.252,-0.000,-0.696
23:56:55.799,SEARCHING,29.559,-6.755,1.000,0.00,0.00,0.94,0.609,1.009,4.134,1.011,1.007,0,0,SEARCHING,0.000,0.250,-0.000,-0.652
23:56:56.000,SEARCHING,29.609,-6.757,1.000,0.00,0.00,-4.65,0.703,1.604,6.632,1.623,1.617,0,0,SEARCHING,0.000,0.253,-0.000,0.165
23:56:56.201,SEARCHING,29.661,-6.761,1.000,0.00,0.00,-1.47,0.672,1.604,6.914,1.613,1.616,0,0,SEARCHING,0.000,0.271,-0.000,0.581
23:56:56.401,SEARCHING,29.714,-6.759,1.000,0.00,0.00,5.11,0.651,1.116,4.893,1.112,1.112,0,0,SEARCHING,0.000,0.256,-0.000,0.378
23:56:56.601,SEARCHING,29.765,-6.753,1.000,0.00,0.00,8.08,0.587,0.815,2.989,0.839,0.824,0,0,SEARCHING,0.000,0.251,-0.000,-0.226
23:56:56.801,INSPECTING,29.815,-6.747,1.000,0.00,0.00,4.83,0.565,0.812,3.195,0.813,0.817,0,0,INSPECT_RIGHT,0.000,0.290,-0.000,-0.483
23:56:57.002,INSPECTING,29.877,-6.745,1.000,0.00,0.00,-0.75,0.516,1.033,4.870,1.042,1.015,0,0,INSPECT_RIGHT,0.000,0.374,-0.000,-0.496
23:56:57.203,INSPECTING,29.953,-6.749,1.000,0.00,0.00,-6.44,0.574,1.526,6.618,1.591,1.574,0,0,INSPECT_RIGHT,0.000,0.394,-0.000,-0.499
23:56:57.404,SEARCHING,30.030,-6.761,1.000,0.00,0.00,-11.23,0.731,2.230,6.374,2.270,2.265,0,0,SEARCHING,0.000,0.409,-0.000,0.070
23:56:57.604,SEARCHING,30.116,-6.778,1.000,0.00,0.00,-9.01,0.782,2.338,6.313,2.447,2.381,0,0,SEARCHING,0.000,0.513,-0.022,0.538
23:56:57.805,SEARCHING,30.215,-6.789,1.000,0.00,0.00,-2.46,0.644,1.735,6.583,1.771,1.757,0,0,SEARCHING,0.000,0.411,-0.005,0.611
23:56:58.004,SEARCHING,30.291,-6.788,1.000,0.00,0.00,3.73,0.504,1.098,4.488,1.092,1.102,0,0,SEARCHING,0.000,0.293,-0.001,0.077
23:56:58.206,SEARCHING,30.348,-6.784,1.000,0.00,0.00,2.82,0.451,0.888,3.508,0.886,0.879,0,0,SEARCHING,0.000,0.260,-0.000,-0.555
23:56:58.406,SEARCHING,30.399,-6.784,1.000,0.00,0.00,-3.96,0.516,1.208,5.357,1.182,1.193,0,0,SEARCHING,0.000,0.252,-0.000,-0.529
23:56:58.606,SEARCHING,30.449,-6.790,1.000,0.00,0.00,-8.71,0.634,1.654,6.376,1.635,1.658,0,0,SEARCHING,0.000,0.256,-0.000,0.049
23:56:58.807,SEARCHING,30.502,-6.798,1.000,0.00,0.00,-7.03,0.667,1.746,6.464,1.715,1.774,0,0,SEARCHING,0.000,0.292,-0.000,0.426
23:56:59.008,SEARCHING,30.559,-6.803,1.000,0.00,0.00,-2.02,0.577,1.433,6.207,1.427,1.440,0,0,SEARCHING,0.000,0.265,-0.000,0.389
23:56:59.207,SEARCHING,30.611,-6.803,1.000,0.00,0.00,1.47,0.492,1.092,4.452,1.078,1.103,0,0,SEARCHING,0.000,0.254,-0.000,-0.117
23:56:59.411,SEARCHING,30.662,-6.802,1.000,0.00,0.00,-1.11,0.477,1.034,4.326,1.030,1.058,0,0,SEARCHING,0.000,0.251,-0.000,-0.508
23:56:59.609,SEARCHING,30.712,-6.805,1.000,0.00,0.00,-6.68,0.557,1.275,5.883,1.256,1.269,0,0,SEARCHING,0.000,0.250,-0.000,-0.260
23:56:59.810,SEARCHING,30.762,-6.812,1.000,0.00,0.00,-8.53,0.646,1.595,6.149,1.584,1.600,0,0,SEARCHING,0.000,0.251,-0.000,0.174
23:57:00.010,SEARCHING,30.812,-6.819,1.000,0.00,0.00,-5.93,0.631,1.534,6.131,1.487,1.507,0,0,SEARCHING,0.000,0.255,-0.000,0.352
23:57:00.211,SEARCHING,30.862,-6.822,1.000,0.00,0.00,-2.05,0.560,1.177,5.799,1.171,1.171,0,0,SEARCHING,0.000,0.251,-0.000,0.228
23:57:00.410,SEARCHING,30.912,-6.823,1.000,0.00,0.00,-0.33,0.496,1.058,4.507,1.045,1.057,0,0,SEARCHING,0.000,0.250,-0.000,-0.204
23:57:00.611,SEARCHING,30.962,-6.824,1.000,0.00,0.00,-3.52,0.504,1.024,5.038,1.018,1.024,0,0,SEARCHING,0.000,0.250,-0.000,-0.422
23:57:00.812,SEARCHING,31.012,-6.829,1.000,0.00,0.00,-7.77,0.594,1.301,5.770,1.258,1.243,0,0,SEARCHING,0.000,0.250,-0.000,-0.113
23:57:01.012,SEARCHING,31.062,-6.837,1.000,0.00,0.00,-8.26,0.643,1.463,5.973,1.453,1.498,0,0,SEARCHING,0.000,0.250,-0.000,0.186
23:57:01.213,SEARCHING,31.111,-6.843,1.000,0.00,0.00,-5.81,0.615,1.313,5.836,1.314,1.327,0,0,SEARCHING,0.000,0.250,-0.000,0.256
23:57:01.413,SEARCHING,31.161,-6.847,1.000,0.00,0.00,-3.09,0.547,1.029,5.596,1.072,1.049,0,0,SEARCHING,0.000,0.250,-0.000,0.117
23:57:01.614,SEARCHING,31.211,-6.849,1.000,0.00,0.00,-2.42,0.518,0.891,4.961,0.919,0.916,0,0,SEARCHING,0.000,0.250,-0.000,-0.166
23:57:01.814,SEARCHING,31.261,-6.852,1.000,0.00,0.00,-4.72,0.470,0.980,5.351,0.962,0.953,0,0,SEARCHING,0.000,0.250,-0.000,-0.279
23:57:02.015,SEARCHING,31.311,-6.857,1.000,0.00,0.00,-7.60,0.589,1.181,5.605,1.188,1.177,0,0,SEARCHING,0.000,0.250,-0.000,-0.092
23:57:02.213,SEARCHING,31.360,-6.864,1.000,0.00,0.00,-8.24,0.570,1.324,5.614,1.341,1.350,0,0,SEARCHING,0.000,0.250,-0.000,0.026
23:57:02.412,SEARCHING,31.410,-6.871,1.000,0.00,0.00,-8.03,0.529,1.330,5.585,1.335,1.335,0,0,SEARCHING,0.000,0.250,-0.000,-0.039
23:57:02.612,SEARCHING,31.459,-6.879,1.000,0.00,0.00,-8.70,0.521,1.350,5.572,1.319,1.337,0,0,SEARCHING,0.000,0.250,-0.000,-0.117
23:57:02.812,SEARCHING,31.508,-6.887,1.000,0.00,0.00,-10.09,0.532,1.469,5.545,1.460,1.466,0,0,SEARCHING,0.000,0.250,-0.000,-0.124
23:57:04.091,SEARCHING,31.558,-6.896,1.000,0.00,0.00,-11.47,0.541,1.495,5.516,1.495,1.535,0,0,SEARCHING,0.000,0.250,-0.000,-0.103
23:57:04.161,SEARCHING,31.607,-6.906,1.000,0.00,0.00,-12.65,0.605,1.797,5.471,1.799,1.796,0,0,SEARCHING,0.000,0.268,-0.000,-0.042
23:57:04.341,SEARCHING,31.662,-6.919,1.000,0.00,0.00,-12.74,0.627,1.938,5.457,1.938,1.932,0,0,SEARCHING,0.000,0.330,-0.000,0.091
23:57:04.539,SEARCHING,31.727,-6.933,1.000,0.00,0.00,-11.61,0.604,1.861,5.366,1.868,1.850,0,0,SEARCHING,0.000,0.341,-0.000,0.093
23:57:04.740,SEARCHING,31.793,-6.946,1.000,0.00,0.00,-10.75,0.582,1.743,5.269,1.749,1.740,0,0,SEARCHING,0.000,0.313,-0.000,0.008
23:57:04.938,SEARCHING,31.853,-6.958,1.000,0.00,0.00,-10.80,0.583,1.698,5.208,1.701,1.686,0,0,SEARCHING,0.000,0.291,-0.000,-0.040
23:57:05.139,SEARCHING,31.910,-6.969,1.000,0.00,0.00,-11.26,0.603,1.676,5.184,1.675,1.667,0,0,SEARCHING,0.000,0.279,-0.000,-0.030
23:57:05.339,SEARCHING,31.964,-6.979,1.000,0.00,0.00,-11.56,0.607,1.649,5.097,1.649,1.647,0,0,SEARCHING,0.000,0.271,-0.000,-0.021
23:57:05.540,SEARCHING,32.017,-6.990,1.000,0.00,0.00,-11.80,0.613,1.614,5.086,1.615,1.615,0,0,SEARCHING,0.000,0.262,-0.000,-0.018
23:57:05.740,SEARCHING,32.068,-7.001,1.000,0.00,0.00,-12.00,0.616,1.573,5.029,1.580,1.580,0,0,SEARCHING,0.000,0.254,-0.000,-0.018
23:57:05.940,SEARCHING,32.117,-7.012,1.000,0.00,0.00,-12.19,0.633,1.518,4.981,1.546,1.529,0,0,SEARCHING,0.000,0.251,-0.000,-0.008
23:57:06.141,SEARCHING,32.166,-7.022,1.000,0.00,0.00,-12.24,0.653,1.485,4.975,1.496,1.487,0,0,SEARCHING,0.000,0.250,-0.000,0.018
23:57:06.342,SEARCHING,32.215,-7.033,1.000,0.00,0.00,-11.95,0.657,1.457,4.935,1.479,1.449,0,0,SEARCHING,0.000,0.250,-0.000,0.044
23:57:06.542,SEARCHING,32.264,-7.043,1.000,0.00,0.00,-11.51,0.631,1.396,4.846,1.419,1.385,0,0,SEARCHING,0.000,0.250,-0.000,0.004
23:57:06.743,SEARCHING,32.313,-7.053,1.000,0.00,0.00,-11.62,0.626,1.348,4.789,1.361,1.343,0,0,SEARCHING,0.000,0.250,-0.000,-0.053
23:57:06.943,SEARCHING,32.362,-7.063,1.000,0.00,0.00,-12.22,0.647,1.357,4.770,1.354,1.331,0,0,SEARCHING,0.000,0.250,-0.000,-0.042
23:57:07.143,SEARCHING,32.411,-7.074,1.000,0.00,0.00,-12.63,0.675,1.440,4.767,1.446,1.409,0,0,SEARCHING,0.000,0.250,-0.000,-0.002
23:57:07.346,SEARCHING,32.460,-7.085,1.000,0.00,0.00,-12.54,0.683,1.477,4.696,1.408,1.461,0,0,SEARCHING,0.000,0.250,-0.000,0.031
23:57:07.547,SEARCHING,32.509,-7.096,1.000,0.00,0.00,-12.20,0.671,1.421,4.673,1.375,1.418,0,0,SEARCHING,0.000,0.250,-0.000,0.015
23:57:07.748,SEARCHING,32.558,-7.106,1.000,0.00,0.00,-12.08,0.666,1.357,4.627,1.345,1.362,0,0,SEARCHING,0.000,0.250,-0.000,-0.008
23:57:07.948,SEARCHING,32.606,-7.117,1.000,0.00,0.00,-12.24,0.667,1.348,4.582,1.341,1.333,0,0,SEARCHING,0.000,0.250,-0.000,-0.031
23:57:08.149,SEARCHING,32.655,-7.127,1.000,0.00,0.00,-12.59,0.685,1.320,4.550,1.336,1.311,0,0,SEARCHING,0.000,0.250,-0.000,-0.022
