timestamp,state,x,y,z,roll_deg,pitch_deg,yaw_deg,dist_left,dist_center,dist_right,dist_top,dist_bottom,dtof_alert,collision_event,best_dir,max_space,cmd_vx,cmd_vz,cmd_yaw
22:26:33.328,SEARCHING,0.024,0.000,1.000,0.00,0.00,0.00,10.000,10.000,10.000,10.000,10.000,0,0,SEARCHING,0.000,0.526,0.000,0.000
22:26:33.532,SEARCHING,0.144,0.000,1.000,0.00,0.00,0.01,3.923,3.178,3.146,3.176,3.185,0,0,SEARCHING,0.000,0.734,0.000,0.017
22:26:33.733,SEARCHING,0.283,0.000,1.000,0.00,0.00,0.62,2.183,1.179,1.118,1.174,1.181,0,0,SEARCHING,0.000,0.495,0.000,0.197
22:26:33.934,SEARCHING,0.370,0.003,1.000,0.00,0.00,3.68,1.863,0.848,0.740,0.849,0.847,0,0,SEARCHING,0.000,0.311,0.000,0.475
22:26:34.134,SEARCHING,0.428,0.009,1.000,0.00,0.00,9.77,1.683,0.821,0.656,0.823,0.823,0,0,SEARCHING,0.000,0.265,0.000,0.661
22:26:34.335,SEARCHING,0.469,0.018,1.007,0.00,0.00,16.00,1.517,1.818,0.649,1.920,1.814,0,0,SEARCHING,0.000,0.330,0.070,0.709
22:26:34.535,SEARCHING,0.518,0.034,1.017,0.00,0.00,20.81,1.411,1.899,0.654,1.919,1.904,0,0,SEARCHING,0.000,0.495,0.017,0.681
22:26:34.735,SEARCHING,0.593,0.066,1.018,0.00,0.00,26.91,1.303,1.717,1.593,1.726,1.726,0,0,SEARCHING,0.000,0.517,0.004,0.423
22:26:34.934,SEARCHING,0.682,0.116,1.018,0.00,0.00,29.93,1.194,1.530,2.029,1.525,1.527,0,0,SEARCHING,0.000,0.476,0.001,-0.079
22:26:35.135,SEARCHING,0.762,0.161,1.018,0.00,0.00,28.40,1.128,1.441,2.007,1.438,1.444,0,0,SEARCHING,0.000,0.415,0.000,-0.245
22:26:35.334,SEARCHING,0.834,0.198,1.018,0.00,0.00,25.36,1.088,1.418,2.083,1.418,1.421,0,0,SEARCHING,0.000,0.380,0.000,-0.314
22:26:35.536,SEARCHING,0.903,0.228,1.018,0.00,0.00,21.61,1.070,1.425,2.244,1.425,1.416,0,0,SEARCHING,0.000,0.369,0.000,-0.362
22:26:35.735,SEARCHING,0.972,0.253,1.018,0.00,0.00,17.33,1.067,1.462,2.555,1.460,1.463,0,0,SEARCHING,0.000,0.374,0.000,-0.406
22:26:35.937,SEARCHING,1.045,0.273,1.018,0.00,0.00,12.55,1.075,1.538,2.955,1.534,1.534,0,0,SEARCHING,0.000,0.396,0.000,-0.447
22:26:36.137,SEARCHING,1.125,0.287,1.018,0.00,0.00,7.32,1.109,1.713,3.617,1.707,1.700,0,0,SEARCHING,0.000,0.450,0.000,-0.480
22:26:36.338,SEARCHING,1.221,0.295,1.018,0.00,0.00,1.73,1.166,2.016,4.574,2.020,2.003,0,0,SEARCHING,0.000,0.575,0.000,-0.503
22:26:36.539,SEARCHING,1.345,0.293,1.018,0.00,0.00,-4.05,1.258,2.421,5.779,2.439,2.392,0,0,SEARCHING,0.000,0.734,0.000,-0.504
22:26:36.739,SEARCHING,1.494,0.275,1.018,0.00,0.00,-9.74,1.476,3.024,6.520,3.040,2.500,0,0,SEARCHING,0.000,0.784,0.026,-0.464
22:26:36.937,SEARCHING,1.587,0.257,1.028,0.00,0.00,-12.72,1.654,3.604,6.126,3.589,2.513,0,0,SEARCHING,0.000,0.796,0.100,-0.397
22:26:37.138,SEARCHING,1.680,0.234,1.052,0.00,0.00,-15.26,1.812,4.007,5.697,4.005,2.554,0,0,SEARCHING,0.000,0.799,0.147,-0.337
22:26:37.339,SEARCHING,1.772,0.208,1.083,0.00,0.00,-17.42,1.955,4.469,5.366,4.492,2.632,0,0,SEARCHING,0.000,0.800,0.174,-0.290
22:26:37.540,SEARCHING,1.863,0.178,1.119,0.00,0.00,-19.28,2.101,4.872,4.941,4.834,2.707,0,0,SEARCHING,0.000,0.800,0.189,-0.248
22:26:37.740,SEARCHING,1.954,0.145,1.157,0.00,0.00,-20.85,2.247,5.094,4.604,5.090,2.822,0,0,SEARCHING,0.000,0.800,0.192,-0.207
22:26:37.940,SEARCHING,2.043,0.110,1.195,0.00,0.00,-22.16,2.375,5.345,4.435,5.369,2.886,0,0,SEARCHING,0.000,0.800,0.193,-0.175
22:26:38.141,SEARCHING,2.132,0.073,1.234,0.00,0.00,-23.28,2.564,5.741,4.220,5.401,2.963,0,0,SEARCHING,0.000,0.800,0.188,-0.145
22:26:38.341,SEARCHING,2.220,0.034,1.271,0.00,0.00,-24.18,2.670,5.775,4.030,5.331,3.094,0,0,SEARCHING,0.000,0.800,0.174,-0.117
22:26:38.542,SEARCHING,2.307,-0.005,1.304,0.00,0.00,-24.91,2.755,5.963,3.862,5.243,3.193,0,0,SEARCHING,0.000,0.800,0.158,-0.096
22:26:38.742,SEARCHING,2.394,-0.046,1.335,0.00,0.00,-25.53,2.778,5.683,3.778,5.181,3.286,0,0,SEARCHING,0.000,0.800,0.143,-0.083
22:26:38.943,SEARCHING,2.480,-0.088,1.363,0.00,0.00,-26.07,2.844,5.590,3.701,5.113,3.321,0,0,SEARCHING,0.000,0.800,0.132,-0.072
22:26:39.144,SEARCHING,2.566,-0.130,1.389,0.00,0.00,-26.53,2.913,5.543,3.653,5.065,3.421,0,0,SEARCHING,0.000,0.800,0.122,-0.063
22:26:39.345,SEARCHING,2.652,-0.174,1.413,0.00,0.00,-26.94,2.954,5.360,3.609,4.985,3.443,0,0,SEARCHING,0.000,0.800,0.112,-0.054
22:26:39.545,SEARCHING,2.738,-0.217,1.434,0.00,0.00,-27.29,2.997,5.327,3.563,4.917,3.486,0,0,SEARCHING,0.000,0.800,0.104,-0.047
22:26:39.746,SEARCHING,2.823,-0.261,1.455,0.00,0.00,-27.59,3.057,5.277,3.532,4.874,3.559,0,0,SEARCHING,0.000,0.800,0.096,-0.040
22:26:39.946,SEARCHING,2.908,-0.306,1.473,0.00,0.00,-27.84,3.129,5.142,3.467,4.785,3.585,0,0,SEARCHING,0.000,0.800,0.088,-0.032
22:26:40.146,SEARCHING,2.993,-0.351,1.491,0.00,0.00,-28.03,3.200,5.102,3.440,4.769,3.648,0,0,SEARCHING,0.000,0.800,0.082,-0.022
22:26:40.348,SEARCHING,3.077,-0.396,1.507,0.00,0.00,-28.16,3.229,4.972,3.419,4.767,3.742,0,0,SEARCHING,0.000,0.800,0.073,-0.016
22:26:40.547,SEARCHING,3.162,-0.442,1.521,0.00,0.00,-28.26,3.212,4.965,3.401,4.757,3.791,0,0,SEARCHING,0.000,0.800,0.068,-0.015
22:26:40.749,SEARCHING,3.246,-0.487,1.534,0.00,0.00,-28.36,3.218,4.904,3.358,4.680,3.806,0,0,SEARCHING,0.000,0.800,0.062,-0.013
22:26:40.948,SEARCHING,3.331,-0.533,1.546,0.00,0.00,-28.44,3.208,4.810,3.364,4.676,3.810,0,0,SEARCHING,0.000,0.800,0.060,-0.012
22:26:41.150,SEARCHING,3.415,-0.578,1.558,0.00,0.00,-28.52,3.153,4.772,3.340,4.651,3.844,0,0,SEARCHING,0.000,0.800,0.056,-0.013
22:26:41.351,SEARCHING,3.500,-0.624,1.567,0.00,0.00,-28.62,3.129,4.682,3.337,4.590,3.917,0,0,SEARCHING,0.000,0.800,0.019,-0.015
22:26:41.551,SEARCHING,3.612,-0.686,1.569,0.00,0.00,-28.76,3.123,4.610,3.324,4.551,3.928,0,0,SEARCHING,0.000,0.800,0.005,-0.016
22:26:41.751,SEARCHING,3.752,-0.763,1.569,0.00,0.00,-28.93,3.146,4.506,3.303,4.483,3.890,0,0,SEARCHING,0.000,0.800,0.001,-0.013
22:26:41.952,SEARCHING,3.892,-0.841,1.569,0.00,0.00,-29.08,3.137,4.432,3.327,4.383,3.845,0,0,SEARCHING,0.000,0.800,0.000,-0.013
22:26:42.152,SEARCHING,4.032,-0.918,1.569,0.00,0.00,-29.24,3.141,4.341,3.418,4.300,3.933,0,0,SEARCHING,0.000,0.800,0.000,-0.017
22:26:42.353,SEARCHING,4.171,-0.997,1.569,0.00,0.00,-29.45,3.151,4.216,3.410,4.205,3.965,0,0,SEARCHING,0.000,0.800,0.000,-0.020
22:26:42.553,SEARCHING,4.310,-1.076,1.569,0.00,0.00,-29.67,3.205,4.211,3.278,4.222,3.952,0,0,SEARCHING,0.000,0.800,0.000,-0.014
22:26:42.754,SEARCHING,4.449,-1.155,1.569,0.00,0.00,-29.79,3.242,4.166,3.080,4.168,3.951,0,0,SEARCHING,0.000,0.800,0.000,0.001
22:26:42.954,SEARCHING,4.588,-1.235,1.569,0.00,0.00,-29.74,3.203,4.078,2.922,4.128,3.902,0,0,SEARCHING,0.000,0.800,0.000,0.014
22:26:43.155,SEARCHING,4.727,-1.314,1.569,0.00,0.00,-29.54,3.157,3.935,2.795,3.996,3.848,0,0,SEARCHING,0.000,0.800,0.000,0.026
22:26:43.355,SEARCHING,4.867,-1.392,1.569,0.00,0.00,-29.23,3.006,3.809,2.656,3.843,3.770,0,0,SEARCHING,0.000,0.800,0.000,0.031
22:26:43.556,SEARCHING,5.006,-1.470,1.569,0.00,0.00,-28.86,2.836,3.678,2.492,3.698,3.669,0,0,SEARCHING,0.000,0.800,0.000,0.035
22:26:43.757,SEARCHING,5.147,-1.547,1.569,0.00,0.00,-28.44,2.759,3.524,2.411,3.540,3.530,0,0,SEARCHING,0.000,0.800,0.000,0.040
22:26:43.957,SEARCHING,5.288,-1.623,1.569,0.00,0.00,-27.99,2.602,3.375,2.460,3.411,3.387,0,0,SEARCHING,0.000,0.800,0.000,0.031
22:26:44.157,SEARCHING,5.429,-1.697,1.569,0.00,0.00,-27.70,2.437,3.222,2.608,3.273,3.255,0,0,SEARCHING,0.000,0.800,0.000,0.003
22:26:44.358,SEARCHING,5.571,-1.772,1.569,0.00,0.00,-27.77,2.313,3.092,2.702,3.172,3.132,0,0,SEARCHING,0.000,0.800,0.000,-0.030
22:26:44.558,SEARCHING,5.712,-1.847,1.569,0.00,0.00,-28.19,2.148,3.059,2.733,3.083,3.072,0,0,SEARCHING,0.000,0.800,0.000,-0.057
22:26:44.759,SEARCHING,5.853,-1.923,1.569,0.00,0.00,-28.94,1.994,3.049,2.729,3.076,3.050,0,0,SEARCHING,0.000,0.800,0.000,-0.088
22:26:44.960,SEARCHING,5.992,-2.001,1.569,0.00,0.00,-30.04,1.810,3.128,2.633,3.138,3.132,0,0,SEARCHING,0.000,0.800,0.000,-0.118
22:26:45.161,SEARCHING,6.130,-2.083,1.569,0.00,0.00,-31.48,1.673,3.096,2.490,3.113,3.103,0,0,SEARCHING,0.000,0.800,0.000,-0.143
22:26:45.362,SEARCHING,6.265,-2.168,1.569,0.00,0.00,-33.15,1.666,2.936,2.378,2.957,2.934,0,0,SEARCHING,0.000,0.800,0.000,-0.148
22:26:45.562,SEARCHING,6.398,-2.258,1.569,0.00,0.00,-34.79,1.722,2.807,2.258,2.809,2.807,0,0,SEARCHING,0.000,0.800,0.000,-0.128
22:26:45.763,SEARCHING,6.528,-2.350,1.569,0.00,0.00,-36.18,1.766,2.659,2.133,2.662,2.668,0,0,SEARCHING,0.000,0.800,0.000,-0.099
22:26:45.963,SEARCHING,6.657,-2.446,1.569,0.00,0.00,-37.22,1.795,2.531,2.039,2.533,2.522,0,0,SEARCHING,0.000,0.800,0.000,-0.070
22:26:46.163,SEARCHING,6.784,-2.544,1.569,0.00,0.00,-37.96,1.855,2.457,1.926,2.457,2.463,0,0,SEARCHING,0.000,0.800,0.000,-0.042
22:26:46.364,SEARCHING,6.909,-2.642,1.569,0.00,0.00,-38.33,1.865,2.425,1.797,2.409,2.413,0,0,SEARCHING,0.000,0.800,0.000,-0.007
22:26:46.564,SEARCHING,7.035,-2.742,1.569,0.00,0.00,-38.31,1.868,2.366,1.653,2.313,2.341,0,0,SEARCHING,0.000,0.800,0.000,0.028
22:26:46.765,SEARCHING,7.161,-2.841,1.569,0.00,0.00,-37.88,1.813,2.249,1.617,2.183,2.213,0,0,SEARCHING,0.000,0.800,0.000,0.052
22:26:46.965,SEARCHING,7.287,-2.938,1.569,0.00,0.00,-37.33,1.671,2.114,1.708,2.049,2.096,0,0,SEARCHING,0.000,0.800,0.000,0.024
22:26:47.165,SEARCHING,7.414,-3.034,1.569,0.00,0.00,-37.24,1.519,1.979,1.915,1.957,1.965,0,0,SEARCHING,0.000,0.761,0.000,-0.049
22:26:47.366,SEARCHING,7.531,-3.125,1.569,0.00,0.00,-38.05,1.364,1.895,2.032,1.879,1.905,0,0,SEARCHING,0.000,0.685,0.000,-0.133
22:26:47.566,SEARCHING,7.636,-3.208,1.569,0.00,0.00,-39.80,1.215,1.913,1.968,1.932,1.920,0,0,SEARCHING,0.000,0.640,0.000,-0.207
22:26:47.767,SEARCHING,7.733,-3.292,1.569,0.00,0.00,-42.36,1.096,2.048,1.781,2.097,2.066,0,0,SEARCHING,0.000,0.657,0.000,-0.260
22:26:47.967,SEARCHING,7.831,-3.386,1.569,0.00,0.00,-45.33,1.117,2.243,1.631,2.245,2.249,0,0,SEARCHING,0.000,0.748,0.000,-0.247
22:26:48.168,SEARCHING,7.936,-3.497,1.569,0.00,0.00,-47.96,1.201,2.517,1.398,2.525,2.524,0,0,SEARCHING,0.000,0.787,0.000,-0.164
22:26:48.369,SEARCHING,8.040,-3.616,1.569,0.00,0.00,-49.57,1.240,2.415,1.303,2.414,3.053,0,0,SEARCHING,0.000,0.797,-0.031,-0.080
22:26:48.569,SEARCHING,8.102,-3.689,1.557,0.00,0.00,-49.92,1.275,2.315,1.285,2.316,3.037,0,0,SEARCHING,0.000,0.799,-0.100,-0.026
22:26:48.770,SEARCHING,8.163,-3.762,1.535,0.00,0.00,-50.02,1.275,2.233,1.260,2.232,3.008,0,0,SEARCHING,0.000,0.800,-0.128,-0.004
22:26:48.971,SEARCHING,8.225,-3.836,1.508,0.00,0.00,-50.02,1.252,2.135,1.255,2.129,3.027,0,0,SEARCHING,0.000,0.790,-0.151,0.000
22:26:49.171,SEARCHING,8.285,-3.907,1.477,0.00,0.00,-50.02,1.271,2.052,1.261,2.040,2.869,0,0,SEARCHING,0.000,0.749,-0.163,0.001
22:26:49.371,SEARCHING,8.341,-3.974,1.444,0.00,0.00,-50.00,1.268,1.967,1.265,1.968,2.842,0,0,SEARCHING,0.000,0.701,-0.175,0.003
22:26:49.572,SEARCHING,8.393,-4.036,1.408,0.00,0.00,-50.00,1.248,1.897,1.282,1.896,2.806,0,0,SEARCHING,0.000,0.653,-0.193,-0.007
22:26:49.772,SEARCHING,8.442,-4.095,1.368,0.00,0.00,-50.08,1.244,1.847,1.267,1.826,2.730,0,0,SEARCHING,0.000,0.617,-0.211,-0.012
22:26:49.973,SEARCHING,8.488,-4.150,1.325,0.00,0.00,-50.17,1.242,1.808,1.272,1.746,2.547,0,0,SEARCHING,0.000,0.590,-0.212,-0.014
22:26:50.174,SEARCHING,8.533,-4.204,1.282,0.00,0.00,-50.25,1.260,1.764,1.260,1.684,2.521,0,0,SEARCHING,0.000,0.567,-0.226,-0.007
22:26:50.376,SEARCHING,8.576,-4.255,1.236,0.00,0.00,-50.28,1.250,2.066,1.267,1.608,2.486,0,0,SEARCHING,0.000,0.605,-0.246,-0.006
22:26:50.576,SEARCHING,8.628,-4.318,1.186,0.00,0.00,-50.37,1.233,2.752,1.287,1.541,2.330,0,0,SEARCHING,0.000,0.745,-0.258,-0.021
22:26:50.777,SEARCHING,8.687,-4.389,1.134,0.00,0.00,-50.52,1.245,2.563,1.262,1.491,2.222,0,0,SEARCHING,0.000,0.787,-0.263,-0.017
22:26:50.977,SEARCHING,8.747,-4.463,1.081,0.00,0.00,-50.61,1.235,2.447,1.251,1.503,2.151,0,0,SEARCHING,0.000,0.797,-0.255,-0.011
22:26:51.177,SEARCHING,8.808,-4.537,1.031,0.00,0.00,-50.69,1.486,2.259,1.300,2.012,2.112,0,0,SEARCHING,0.000,0.799,-0.177,0.014
22:26:51.378,SEARCHING,8.869,-4.611,1.009,0.00,0.00,-50.23,1.990,2.139,1.351,2.620,2.041,0,0,SEARCHING,0.000,0.795,0.028,0.129
22:26:51.579,SEARCHING,8.930,-4.683,1.023,0.00,0.00,-49.13,1.990,2.063,1.353,3.343,1.996,0,0,SEARCHING,0.000,0.764,0.155,0.176
22:26:51.779,SEARCHING,8.989,-4.750,1.061,0.00,0.00,-47.89,1.979,2.044,1.375,4.198,1.949,0,0,SEARCHING,0.000,0.739,0.260,0.180
22:26:51.980,SEARCHING,9.049,-4.815,1.109,0.00,0.00,-46.69,1.935,2.060,1.429,1.437,1.831,0,0,SEARCHING,0.000,0.740,0.073,0.163
22:26:52.180,SEARCHING,9.111,-4.880,1.102,0.00,0.00,-45.64,1.873,2.010,1.468,1.059,1.761,0,0,SEARCHING,0.000,0.741,-0.263,0.138
22:26:52.382,SEARCHING,9.172,-4.942,1.062,0.00,0.00,-44.78,1.815,1.881,1.495,4.234,1.684,0,0,SEARCHING,0.000,0.691,0.125,0.111
22:26:52.584,SEARCHING,9.230,-4.998,1.109,0.00,0.00,-44.10,1.755,1.978,1.525,4.648,1.602,0,0,SEARCHING,0.000,0.679,0.390,0.086
22:26:52.784,SEARCHING,9.291,-5.058,1.188,0.00,0.00,-43.57,1.734,2.320,1.566,2.006,1.533,0,0,SEARCHING,0.000,0.758,0.316,0.066
22:26:52.984,SEARCHING,9.359,-5.122,1.230,0.00,0.00,-43.18,1.733,2.589,1.588,0.873,1.453,0,0,SEARCHING,0.000,0.790,-0.145,0.050
22:26:53.185,SEARCHING,9.429,-5.187,1.199,0.00,0.00,-42.88,1.692,2.538,1.623,3.469,1.368,0,0,SEARCHING,0.000,0.798,0.139,0.032
22:26:53.386,SEARCHING,9.499,-5.252,1.255,0.00,0.00,-42.72,1.659,3.401,1.620,4.212,1.288,0,0,SEARCHING,0.000,0.799,0.499,0.018
22:26:53.587,SEARCHING,9.570,-5.317,1.357,0.00,0.00,-42.61,1.655,4.091,1.578,3.340,1.331,0,0,SEARCHING,0.000,0.800,0.498,0.018
22:26:53.787,SEARCHING,9.641,-5.382,1.459,0.00,0.00,-42.46,1.384,4.155,2.483,4.128,1.576,0,0,SEARCHING,0.000,0.800,0.506,-0.060
22:26:53.988,SEARCHING,9.711,-5.447,1.556,0.00,0.00,-44.70,0.435,4.169,2.474,4.197,1.792,0,0,SEARCHING,0.000,0.800,0.432,-0.673
22:26:54.188,SEARCHING,9.776,-5.518,1.638,0.00,0.00,-50.41,1.382,4.827,1.455,4.451,2.087,0,0,SEARCHING,0.000,0.800,0.356,-0.630
22:26:54.389,SEARCHING,9.836,-5.593,1.705,0.00,0.00,-52.23,2.721,5.664,1.221,4.234,2.258,0,0,SEARCHING,0.000,0.800,0.291,0.053
22:26:54.590,SEARCHING,9.895,-5.668,1.759,0.00,0.00,-50.80,2.825,5.562,1.195,4.175,2.402,0,0,SEARCHING,0.000,0.800,0.239,0.305
22:26:54.791,SEARCHING,9.957,-5.741,1.805,0.00,0.00,-48.43,2.693,5.020,1.704,4.056,2.733,0,0,SEARCHING,0.000,0.800,0.190,0.303
22:26:54.991,SEARCHING,10.022,-5.812,1.837,0.00,0.00,-46.88,2.559,4.657,2.029,3.993,3.502,0,0,SEARCHING,0.000,0.800,0.087,0.154
22:26:55.192,SEARCHING,10.088,-5.882,1.849,0.00,0.00,-46.08,2.483,4.443,2.093,4.001,3.709,0,0,SEARCHING,0.000,0.800,0.021,0.089
22:26:55.393,SEARCHING,10.155,-5.951,1.852,0.00,0.00,-45.59,2.392,4.270,2.139,3.930,3.767,0,0,SEARCHING,0.000,0.800,0.005,0.056
22:26:55.593,SEARCHING,10.267,-6.065,1.852,0.00,0.00,-45.01,2.303,4.036,2.122,3.923,3.753,0,0,SEARCHING,0.000,0.800,0.001,0.037
22:26:55.794,SEARCHING,10.381,-6.178,1.852,0.00,0.00,-44.61,2.261,3.867,3.744,3.841,3.739,0,0,SEARCHING,0.000,0.800,0.000,-0.019
22:26:55.995,SEARCHING,10.494,-6.290,1.852,0.00,0.00,-45.25,2.196,3.769,4.606,3.755,3.736,0,0,SEARCHING,0.000,0.800,0.000,-0.140
22:26:56.195,SEARCHING,10.606,-6.405,1.852,0.00,0.00,-46.99,2.215,3.854,4.105,3.842,3.850,0,0,SEARCHING,0.000,0.800,0.000,-0.167
22:26:56.396,SEARCHING,10.713,-6.524,1.852,0.00,0.00,-48.89,2.227,4.024,3.662,3.841,3.966,0,0,SEARCHING,0.000,0.800,0.000,-0.155
22:26:56.596,SEARCHING,10.816,-6.646,1.852,0.00,0.00,-50.60,2.294,4.204,3.393,3.853,4.066,0,0,SEARCHING,0.000,0.800,0.000,-0.132
22:26:56.797,SEARCHING,10.917,-6.771,1.852,0.00,0.00,-52.02,2.343,4.089,3.145,3.765,4.203,0,0,SEARCHING,0.000,0.800,0.000,-0.104
22:26:56.997,SEARCHING,11.014,-6.898,1.852,0.00,0.00,-53.15,2.366,3.704,3.014,3.633,4.257,0,0,SEARCHING,0.000,0.800,0.000,-0.083
22:26:57.198,SEARCHING,11.090,-7.001,1.849,0.00,0.00,-53.88,2.387,3.899,2.936,3.539,4.310,0,0,SEARCHING,0.000,0.800,-0.041,-0.070
22:26:57.399,SEARCHING,11.146,-7.078,1.839,0.00,0.00,-54.32,2.416,3.661,2.854,3.379,4.333,0,0,SEARCHING,0.000,0.800,-0.069,-0.059
22:26:57.601,SEARCHING,11.202,-7.156,1.825,0.00,0.00,-54.71,2.398,3.295,2.835,3.372,4.302,0,0,SEARCHING,0.000,0.800,-0.075,-0.053
22:26:57.800,SEARCHING,11.257,-7.235,1.810,0.00,0.00,-55.06,2.400,3.035,2.790,3.690,4.257,0,0,SEARCHING,0.000,0.800,-0.050,-0.050
22:26:58.001,SEARCHING,11.312,-7.314,1.801,0.00,0.00,-55.39,2.417,2.843,2.739,3.137,4.244,0,0,SEARCHING,0.000,0.800,-0.067,-0.044
22:26:58.202,SEARCHING,11.367,-7.393,1.785,0.00,0.00,-55.67,2.403,2.775,2.694,2.908,4.238,0,0,SEARCHING,0.000,0.800,-0.107,-0.039
22:26:58.403,SEARCHING,11.421,-7.472,1.761,0.00,0.00,-55.92,2.388,2.706,2.637,2.758,4.179,0,0,SEARCHING,0.000,0.800,-0.133,-0.034
22:26:58.603,SEARCHING,11.474,-7.552,1.730,0.00,0.00,-56.14,2.391,2.672,2.579,2.452,4.101,0,0,SEARCHING,0.000,0.800,-0.197,-0.028
22:26:58.804,SEARCHING,11.528,-7.632,1.691,0.00,0.00,-56.31,2.408,2.591,2.538,2.484,3.989,0,0,SEARCHING,0.000,0.800,-0.188,-0.022
22:26:59.003,SEARCHING,11.581,-7.712,1.654,0.00,0.00,-56.45,2.383,2.606,2.517,2.439,3.905,0,0,SEARCHING,0.000,0.800,-0.184,-0.019
22:26:59.206,SEARCHING,11.634,-7.792,1.617,0.00,0.00,-56.62,2.384,5.276,2.944,2.368,3.815,0,0,SEARCHING,0.000,0.800,-0.188,-0.042
22:26:59.408,SEARCHING,11.686,-7.872,1.579,0.00,0.00,-57.02,2.378,6.824,3.356,2.260,3.682,0,0,SEARCHING,0.000,0.800,-0.196,-0.076
22:26:59.607,SEARCHING,11.738,-7.953,1.539,0.00,0.00,-57.61,2.396,7.276,3.346,2.147,3.599,0,0,SEARCHING,0.000,0.800,-0.211,-0.091
22:26:59.807,SEARCHING,11.789,-8.034,1.495,0.00,0.00,-58.25,2.405,7.369,3.320,2.043,3.459,0,0,SEARCHING,0.000,0.800,-0.229,-0.093
22:27:00.008,SEARCHING,11.839,-8.116,1.449,0.00,0.00,-58.88,2.485,7.204,3.267,1.971,3.350,0,0,SEARCHING,0.000,0.800,-0.243,-0.086
22:27:00.208,SEARCHING,11.889,-8.198,1.399,0.00,0.00,-59.43,2.540,7.060,3.204,1.876,3.261,0,0,SEARCHING,0.000,0.800,-0.259,-0.073
22:27:00.409,SEARCHING,11.937,-8.281,1.346,0.00,0.00,-59.87,2.858,6.934,3.127,1.821,3.153,0,0,SEARCHING,0.000,0.800,-0.274,-0.046
22:27:00.608,SEARCHING,11.985,-8.364,1.292,0.00,0.00,-60.10,2.970,6.734,3.075,1.868,3.016,0,0,SEARCHING,0.000,0.800,-0.262,-0.022
22:27:00.810,SEARCHING,12.033,-8.447,1.241,0.00,0.00,-60.21,2.991,6.409,3.053,1.941,2.878,0,0,SEARCHING,0.000,0.800,-0.231,-0.011
22:27:01.011,SEARCHING,12.081,-8.531,1.198,0.00,0.00,-60.27,2.977,5.757,3.058,2.078,2.758,0,0,SEARCHING,0.000,0.800,-0.178,-0.008
22:27:01.212,SEARCHING,12.128,-8.614,1.165,0.00,0.00,-60.32,2.957,5.245,3.018,2.169,2.685,0,0,SEARCHING,0.000,0.800,-0.133,-0.007
22:27:01.413,SEARCHING,12.176,-8.698,1.141,0.00,0.00,-60.36,2.953,4.947,3.043,2.232,2.618,0,0,SEARCHING,0.000,0.800,-0.099,-0.006
22:27:01.614,SEARCHING,12.223,-8.781,1.123,0.00,0.00,-60.41,2.939,5.747,3.026,2.280,2.560,0,0,SEARCHING,0.000,0.800,-0.073,-0.008
22:27:01.814,SEARCHING,12.271,-8.865,1.111,0.00,0.00,-60.47,2.976,6.165,3.033,2.304,2.513,0,0,SEARCHING,0.000,0.800,-0.023,-0.007
22:27:02.014,SEARCHING,12.318,-8.948,1.108,0.00,0.00,-60.51,2.947,6.052,3.026,2.288,2.506,0,0,SEARCHING,0.000,0.800,-0.006,-0.006
22:27:03.698,SEARCHING,12.397,-9.087,1.108,0.00,0.00,-60.58,2.943,5.997,3.022,2.295,2.500,0,0,SEARCHING,0.000,0.800,-0.001,-0.007
22:27:03.739,SEARCHING,12.475,-9.227,1.108,0.00,0.00,-60.66,2.943,5.997,3.022,2.295,2.500,0,0,SEARCHING,0.000,0.800,-0.000,-0.007
22:27:03.905,SEARCHING,12.553,-9.366,1.108,0.00,0.00,-60.74,3.028,5.726,3.037,2.327,2.545,0,0,SEARCHING,0.000,0.800,-0.000,-0.003
22:27:04.102,SEARCHING,12.616,-9.478,1.106,0.00,0.00,-60.76,3.048,5.644,3.014,2.311,2.568,0,0,SEARCHING,0.000,0.800,-0.034,0.001
22:27:04.301,SEARCHING,12.663,-9.562,1.098,0.00,0.00,-60.74,3.072,5.494,2.997,2.276,2.579,0,0,SEARCHING,0.000,0.800,-0.052,0.004
22:27:04.502,SEARCHING,12.710,-9.645,1.087,0.00,0.00,-60.70,3.105,5.235,2.997,2.594,2.570,0,0,SEARCHING,0.000,0.800,-0.044,0.008
22:27:04.702,SEARCHING,12.757,-9.729,1.083,0.00,0.00,-60.64,3.070,5.170,3.001,3.052,2.533,0,0,SEARCHING,0.000,0.800,0.036,0.007
22:27:04.903,SEARCHING,12.804,-9.813,1.093,0.00,0.00,-60.60,3.067,5.179,3.018,3.026,2.533,0,0,SEARCHING,0.000,0.800,0.068,0.005
22:27:05.104,SEARCHING,12.851,-9.896,1.107,0.00,0.00,-60.57,3.034,5.213,3.009,2.908,2.593,0,0,SEARCHING,0.000,0.800,0.063,0.004
22:27:05.304,SEARCHING,12.898,-9.980,1.117,0.00,0.00,-60.55,3.019,5.114,3.042,2.827,2.626,0,0,SEARCHING,0.000,0.800,0.020,0.000
22:27:05.504,SEARCHING,12.961,-10.092,1.119,0.00,0.00,-60.55,3.093,4.862,3.079,2.734,2.630,0,0,SEARCHING,0.000,0.800,0.005,0.000
22:27:05.704,SEARCHING,13.040,-10.231,1.119,0.00,0.00,-60.55,3.109,4.785,3.123,2.564,2.630,0,0,SEARCHING,0.000,0.800,0.001,-0.000
22:27:05.905,SEARCHING,13.119,-10.370,1.119,0.00,0.00,-60.56,3.143,4.622,3.297,2.400,2.607,0,0,SEARCHING,0.000,0.800,0.000,-0.006
22:27:06.106,SEARCHING,13.181,-10.482,1.117,0.00,0.00,-60.63,3.179,4.495,3.410,2.281,2.606,0,0,SEARCHING,0.000,0.800,-0.039,-0.013
22:27:06.307,SEARCHING,13.228,-10.565,1.107,0.00,0.00,-60.74,3.180,4.457,3.400,2.153,2.623,0,0,SEARCHING,0.000,0.800,-0.078,-0.016
22:27:06.508,SEARCHING,13.275,-10.649,1.089,0.00,0.00,-60.85,3.176,4.407,3.382,2.056,2.607,0,0,SEARCHING,0.000,0.800,-0.106,-0.016
22:27:06.708,SEARCHING,13.322,-10.733,1.067,0.00,0.00,-60.95,3.191,4.358,3.403,1.976,2.562,0,0,SEARCHING,0.000,0.800,-0.125,-0.015
22:27:06.908,SEARCHING,13.369,-10.817,1.040,0.00,0.00,-61.05,3.221,4.263,3.378,1.876,2.508,0,0,SEARCHING,0.000,0.800,-0.146,-0.013
22:27:07.109,SEARCHING,13.415,-10.901,1.010,0.00,0.00,-61.14,3.236,4.180,3.397,1.822,2.418,0,0,SEARCHING,0.000,0.800,-0.160,-0.012
22:27:07.309,SEARCHING,13.461,-10.985,0.978,0.00,0.00,-61.21,3.237,4.046,3.337,1.833,2.324,0,0,SEARCHING,0.000,0.800,-0.149,-0.010
22:27:07.510,SEARCHING,13.507,-11.069,0.950,0.00,0.00,-61.27,3.228,3.970,3.337,1.854,2.246,0,0,SEARCHING,0.000,0.800,-0.128,-0.008
22:27:07.714,SEARCHING,13.554,-11.154,0.926,0.00,0.00,-61.33,3.174,3.811,3.284,1.921,2.212,0,0,SEARCHING,0.000,0.800,-0.101,-0.008
22:27:07.914,SEARCHING,13.600,-11.238,0.907,0.00,0.00,-61.39,3.145,3.756,3.283,1.952,2.175,0,0,SEARCHING,0.000,0.800,-0.077,-0.010
22:27:08.112,SEARCHING,13.645,-11.322,0.895,0.00,0.00,-61.45,3.163,3.646,3.211,1.997,2.128,0,0,SEARCHING,0.000,0.800,-0.025,-0.007
22:27:08.313,SEARCHING,13.691,-11.406,0.892,0.00,0.00,-61.48,3.186,3.566,3.146,2.027,2.092,0,0,SEARCHING,0.000,0.800,-0.006,-0.002
22:27:08.513,SEARCHING,13.768,-11.547,0.892,0.00,0.00,-61.49,3.668,3.430,3.037,2.037,2.091,0,0,SEARCHING,0.000,0.800,-0.001,0.015
22:27:08.713,SEARCHING,13.844,-11.687,0.892,0.00,0.00,-61.20,3.986,3.326,2.910,2.043,2.123,0,0,SEARCHING,0.000,0.800,-0.000,0.053
22:27:08.915,SEARCHING,13.922,-11.827,0.892,0.00,0.00,-60.53,3.929,3.166,2.776,2.017,2.120,0,0,SEARCHING,0.000,0.800,-0.000,0.072
22:27:09.115,SEARCHING,14.002,-11.966,0.892,0.00,0.00,-59.63,4.627,2.947,2.787,1.991,2.109,0,0,SEARCHING,0.000,0.800,-0.000,0.098
22:27:09.315,SEARCHING,14.084,-12.103,0.892,0.00,0.00,-58.45,4.665,2.772,2.746,1.988,2.100,0,0,SEARCHING,0.000,0.800,-0.000,0.113
22:27:09.516,SEARCHING,14.169,-12.239,0.892,0.00,0.00,-57.15,4.528,2.676,2.796,1.969,2.103,0,0,SEARCHING,0.000,0.800,-0.000,0.113
22:27:09.716,SEARCHING,14.257,-12.372,0.892,0.00,0.00,-55.87,4.443,2.536,2.836,1.968,2.112,0,0,SEARCHING,0.000,0.800,-0.000,0.107
22:27:09.916,SEARCHING,14.348,-12.504,0.892,0.00,0.00,-54.66,4.286,2.290,2.851,2.127,2.135,0,0,SEARCHING,0.000,0.800,-0.000,0.100
22:27:10.118,SEARCHING,14.442,-12.634,0.892,0.00,0.00,-53.54,4.042,2.194,2.870,2.015,2.137,0,0,SEARCHING,0.000,0.800,-0.000,0.090
22:27:10.318,SEARCHING,14.538,-12.762,0.892,0.00,0.00,-52.54,3.911,2.036,2.310,1.953,2.069,0,0,SEARCHING,0.000,0.800,-0.000,0.100
22:27:10.517,SEARCHING,14.636,-12.888,0.892,0.00,0.00,-51.20,3.766,1.940,1.979,1.933,1.954,0,0,SEARCHING,0.000,0.788,-0.000,0.159
22:27:10.717,SEARCHING,14.734,-13.006,0.892,0.00,0.00,-49.20,3.558,1.802,1.680,1.809,1.794,0,0,SEARCHING,0.000,0.701,-0.000,0.219
22:27:10.916,SEARCHING,14.825,-13.107,0.892,0.00,0.00,-46.59,3.204,1.654,1.596,1.659,1.656,0,0,SEARCHING,0.000,0.605,-0.000,0.242
22:27:11.117,SEARCHING,14.907,-13.190,0.892,0.00,0.00,-43.78,2.870,1.558,1.468,1.624,1.554,0,0,SEARCHING,0.000,0.523,-0.000,0.255
22:27:11.317,SEARCHING,14.966,-13.244,0.894,0.00,0.00,-41.40,2.584,1.625,1.354,1.648,1.822,0,0,SEARCHING,0.000,0.480,0.001,0.271
22:27:11.518,SEARCHING,15.017,-13.289,0.896,0.00,0.00,-39.50,2.374,3.937,1.304,3.639,2.084,0,0,SEARCHING,0.000,0.692,0.106,0.279
22:27:11.718,SEARCHING,15.087,-13.344,0.926,0.00,0.00,-37.58,2.228,3.939,1.226,3.863,2.178,0,0,SEARCHING,0.000,0.774,0.215,0.284
22:27:11.920,SEARCHING,15.163,-13.401,0.970,0.00,0.00,-35.58,2.073,3.713,1.133,3.715,2.288,0,0,SEARCHING,0.000,0.794,0.216,0.302
22:27:12.119,SEARCHING,15.241,-13.455,1.012,0.00,0.00,-33.42,1.943,3.550,1.048,3.537,2.440,0,0,SEARCHING,0.000,0.799,0.180,0.330
22:27:12.320,SEARCHING,15.322,-13.507,1.046,0.00,0.00,-31.06,1.800,3.454,1.072,3.447,2.540,0,0,SEARCHING,0.000,0.800,0.145,0.335
22:27:12.520,SEARCHING,15.405,-13.555,1.073,0.00,0.00,-29.01,1.688,3.297,4.283,3.283,2.574,0,0,SEARCHING,0.000,0.800,0.120,0.103
22:27:12.720,SEARCHING,15.489,-13.602,1.095,0.00,0.00,-29.65,1.622,3.102,5.274,3.100,2.651,0,0,SEARCHING,0.000,0.800,0.087,-0.223
22:27:12.922,SEARCHING,15.572,-13.650,1.111,0.00,0.00,-31.59,1.645,3.126,6.338,3.128,2.681,0,0,SEARCHING,0.000,0.800,0.069,-0.322
22:27:13.123,SEARCHING,15.653,-13.702,1.124,0.00,0.00,-33.92,1.718,3.096,6.598,3.079,2.726,0,0,SEARCHING,0.000,0.800,0.060,-0.345
22:27:13.325,SEARCHING,15.731,-13.757,1.134,0.00,0.00,-36.26,1.828,3.026,6.208,3.022,2.770,0,0,SEARCHING,0.000,0.800,0.020,-0.328
22:27:13.524,SEARCHING,15.833,-13.835,1.136,0.00,0.00,-39.16,1.948,3.117,5.362,3.136,2.786,0,0,SEARCHING,0.000,0.800,0.005,-0.293
22:27:13.725,SEARCHING,15.930,-13.918,1.138,0.00,0.00,-41.71,2.167,3.355,4.739,3.365,2.808,0,0,SEARCHING,0.000,0.800,0.045,-0.238
22:27:13.926,SEARCHING,16.001,-13.982,1.149,0.00,0.00,-43.19,2.281,3.517,4.408,3.512,2.825,0,0,SEARCHING,0.000,0.800,0.070,-0.195
22:27:14.126,SEARCHING,16.071,-14.049,1.164,0.00,0.00,-44.42,2.371,3.659,4.174,3.656,2.864,0,0,SEARCHING,0.000,0.800,0.084,-0.163
22:27:14.327,SEARCHING,16.139,-14.116,1.181,0.00,0.00,-45.49,2.301,3.781,3.933,3.781,2.883,0,0,SEARCHING,0.000,0.800,0.093,-0.149
22:27:14.527,SEARCHING,16.206,-14.185,1.200,0.00,0.00,-46.50,2.188,3.876,3.756,3.948,2.954,0,0,SEARCHING,0.000,0.800,0.097,-0.149
22:27:14.728,SEARCHING,16.271,-14.255,1.220,0.00,0.00,-47.54,2.117,3.986,3.639,4.206,2.998,0,0,SEARCHING,0.000,0.800,0.107,-0.155
22:27:14.928,SEARCHING,16.335,-14.327,1.242,0.00,0.00,-48.61,2.109,5.210,3.525,4.657,3.058,0,0,SEARCHING,0.000,0.800,0.121,-0.155
22:27:15.130,SEARCHING,16.398,-14.399,1.268,0.00,0.00,-49.66,2.148,6.518,3.411,5.043,3.108,0,0,SEARCHING,0.000,0.800,0.140,-0.146
22:27:15.329,SEARCHING,16.460,-14.473,1.296,0.00,0.00,-50.62,2.193,6.569,3.287,5.080,3.168,0,0,SEARCHING,0.000,0.800,0.143,-0.132
22:27:15.529,SEARCHING,16.520,-14.547,1.324,0.00,0.00,-51.48,2.236,6.403,3.207,4.987,3.238,0,0,SEARCHING,0.000,0.800,0.137,-0.118
22:27:15.730,SEARCHING,16.580,-14.623,1.351,0.00,0.00,-52.24,2.274,6.310,3.071,4.974,3.329,0,0,SEARCHING,0.000,0.800,0.126,-0.103
22:27:15.931,SEARCHING,16.638,-14.699,1.376,0.00,0.00,-52.90,2.273,6.146,2.992,4.920,3.386,0,0,SEARCHING,0.000,0.800,0.117,-0.090
22:27:16.132,SEARCHING,16.696,-14.776,1.399,0.00,0.00,-53.50,2.317,5.990,2.949,4.880,3.446,0,0,SEARCHING,0.000,0.800,0.109,-0.081
22:27:16.332,SEARCHING,16.753,-14.853,1.420,0.00,0.00,-54.02,2.353,5.708,2.862,4.859,3.501,0,0,SEARCHING,0.000,0.800,0.100,-0.069
22:27:16.533,SEARCHING,16.809,-14.931,1.439,0.00,0.00,-54.47,2.347,5.593,2.834,4.800,3.546,0,0,SEARCHING,0.000,0.800,0.093,-0.062
22:27:16.733,SEARCHING,16.864,-15.009,1.458,0.00,0.00,-54.87,2.384,5.452,2.797,4.771,3.605,0,0,SEARCHING,0.000,0.800,0.086,-0.055
22:27:16.933,SEARCHING,16.919,-15.088,1.474,0.00,0.00,-55.23,2.412,5.324,2.752,4.723,3.663,0,0,SEARCHING,0.000,0.800,0.079,-0.047
22:27:17.134,SEARCHING,16.974,-15.167,1.490,0.00,0.00,-55.52,2.434,5.203,2.691,4.676,3.705,0,0,SEARCHING,0.000,0.800,0.072,-0.038
22:27:17.334,SEARCHING,17.028,-15.246,1.504,0.00,0.00,-55.76,2.450,5.063,2.652,4.644,3.743,0,0,SEARCHING,0.000,0.800,0.066,-0.030
22:27:17.535,SEARCHING,17.082,-15.326,1.516,0.00,0.00,-55.93,2.525,4.985,2.575,4.589,3.782,0,0,SEARCHING,0.000,0.800,0.060,-0.017
22:27:17.735,SEARCHING,17.136,-15.405,1.528,0.00,0.00,-56.00,2.568,4.882,2.554,4.571,3.810,0,0,SEARCHING,0.000,0.800,0.055,-0.005
22:27:17.936,SEARCHING,17.189,-15.485,1.537,0.00,0.00,-56.00,2.740,4.870,2.550,4.508,3.833,0,0,SEARCHING,0.000,0.800,0.019,0.009
22:27:18.136,SEARCHING,17.261,-15.591,1.539,0.00,0.00,-55.85,2.838,4.806,2.513,4.507,3.863,0,0,SEARCHING,0.000,0.800,0.004,0.027
22:27:18.336,SEARCHING,17.351,-15.723,1.539,0.00,0.00,-55.50,2.856,4.772,2.492,4.546,3.862,0,0,SEARCHING,0.000,0.800,0.001,0.037
22:27:18.537,SEARCHING,17.442,-15.855,1.539,0.00,0.00,-55.07,2.853,4.682,2.510,4.554,3.847,0,0,SEARCHING,0.000,0.800,0.000,0.039
22:27:18.737,SEARCHING,17.516,-15.959,1.540,0.00,0.00,-54.71,2.821,4.610,2.501,4.574,3.818,0,0,SEARCHING,0.000,0.800,0.034,0.037
22:27:18.937,SEARCHING,17.571,-16.038,1.546,0.00,0.00,-54.45,2.907,4.558,2.478,4.529,3.850,0,0,SEARCHING,0.000,0.800,0.013,0.043
22:27:19.138,SEARCHING,17.646,-16.142,1.548,0.00,0.00,-54.02,3.109,4.495,2.490,4.492,3.856,0,0,SEARCHING,0.000,0.800,0.003,0.054
22:27:19.339,SEARCHING,17.741,-16.271,1.548,0.00,0.00,-53.36,3.258,4.411,2.508,4.390,3.862,0,0,SEARCHING,0.000,0.800,0.001,0.067
22:27:19.540,SEARCHING,17.837,-16.398,1.548,0.00,0.00,-52.57,3.313,4.363,2.540,4.358,3.876,0,0,SEARCHING,0.000,0.800,0.000,0.071
22:27:19.740,SEARCHING,17.935,-16.525,1.548,0.00,0.00,-51.76,3.256,4.340,2.565,4.362,3.878,0,0,SEARCHING,0.000,0.800,0.000,0.069
22:27:19.941,SEARCHING,18.035,-16.650,1.548,0.00,0.00,-50.98,3.152,4.312,2.613,4.335,3.878,0,0,SEARCHING,0.000,0.800,0.000,0.061
22:27:20.142,SEARCHING,18.136,-16.774,1.548,0.00,0.00,-50.32,3.059,4.325,2.631,4.319,3.878,0,0,SEARCHING,0.000,0.800,0.000,0.050
22:27:20.341,SEARCHING,18.239,-16.896,1.548,0.00,0.00,-49.78,2.962,4.274,2.649,4.247,3.878,0,0,SEARCHING,0.000,0.800,0.000,0.039
22:27:20.546,SEARCHING,18.343,-17.018,1.548,0.00,0.00,-49.35,2.925,4.218,2.633,4.204,3.878,0,0,SEARCHING,0.000,0.800,0.000,0.033
22:27:20.746,SEARCHING,18.447,-17.139,1.548,0.00,0.00,-48.98,4.592,4.235,2.628,4.183,3.878,0,0,SEARCHING,0.000,0.800,0.000,0.062
22:27:20.947,SEARCHING,18.553,-17.259,1.548,0.00,0.00,-48.02,5.853,4.195,2.633,4.181,3.872,0,0,SEARCHING,0.000,0.800,0.000,0.136
22:27:21.147,SEARCHING,18.662,-17.377,1.548,0.00,0.00,-46.46,4.255,4.209,2.692,4.215,3.858,0,0,SEARCHING,0.000,0.800,0.000,0.124
22:27:21.347,SEARCHING,18.773,-17.492,1.548,0.00,0.00,-45.05,3.567,4.218,2.560,4.218,3.868,0,0,SEARCHING,0.000,0.800,0.000,0.112
22:27:21.548,SEARCHING,18.887,-17.604,1.548,0.00,0.00,-43.86,2.948,4.178,2.533,4.199,3.877,0,0,SEARCHING,0.000,0.800,0.000,0.077
22:27:21.748,SEARCHING,19.003,-17.714,1.548,0.00,0.00,-43.06,3.079,4.197,2.510,4.194,3.878,0,0,SEARCHING,0.000,0.800,0.000,0.060
22:27:21.947,SEARCHING,19.121,-17.822,1.548,0.00,0.00,-42.38,3.005,4.131,2.490,4.153,3.878,0,0,SEARCHING,0.000,0.800,0.000,0.058
22:27:22.149,SEARCHING,19.240,-17.930,1.548,0.00,0.00,-41.73,2.894,4.061,2.477,4.109,3.878,0,0,SEARCHING,0.000,0.800,0.000,0.052
22:27:22.349,SEARCHING,19.360,-18.036,1.548,0.00,0.00,-41.16,3.259,4.051,2.476,4.038,3.852,0,0,SEARCHING,0.000,0.800,0.000,0.055
22:27:22.549,SEARCHING,19.481,-18.140,1.548,0.00,0.00,-40.36,4.627,4.008,2.486,3.986,3.854,0,0,SEARCHING,0.000,0.800,0.000,0.115
22:27:22.750,SEARCHING,19.604,-18.243,1.548,0.00,0.00,-38.94,4.645,4.048,2.509,4.066,3.849,0,0,SEARCHING,0.000,0.800,0.000,0.140
22:27:22.952,SEARCHING,19.729,-18.342,1.548,0.00,0.00,-37.32,4.696,4.132,2.572,4.176,3.875,0,0,SEARCHING,0.000,0.800,0.000,0.142
22:27:23.151,SEARCHING,19.858,-18.437,1.548,0.00,0.00,-35.69,3.146,4.299,2.570,4.296,3.878,0,0,SEARCHING,0.000,0.800,0.000,0.116
22:27:23.351,SEARCHING,19.989,-18.529,1.548,0.00,0.00,-34.61,2.482,4.304,2.514,4.291,3.878,0,0,SEARCHING,0.000,0.800,0.000,0.036
22:27:23.552,SEARCHING,20.121,-18.619,1.548,0.00,0.00,-34.27,3.119,4.163,2.500,4.122,3.878,0,0,SEARCHING,0.000,0.800,0.000,0.036
22:27:23.752,SEARCHING,20.253,-18.709,1.548,0.00,0.00,-33.73,3.531,4.020,2.452,3.958,3.878,0,0,SEARCHING,0.000,0.800,0.000,0.076
22:27:23.953,SEARCHING,20.387,-18.797,1.548,0.00,0.00,-32.79,3.537,3.870,2.440,3.784,3.865,0,0,SEARCHING,0.000,0.800,0.000,0.095
22:27:24.154,SEARCHING,20.522,-18.882,1.548,0.00,0.00,-31.68,3.402,3.711,2.425,3.602,3.877,0,0,SEARCHING,0.000,0.800,0.000,0.099
22:27:24.354,SEARCHING,20.659,-18.965,1.548,0.00,0.00,-30.57,3.344,3.582,2.464,3.465,3.878,0,0,SEARCHING,0.000,0.800,0.000,0.091
22:27:24.554,SEARCHING,20.797,-19.046,1.548,0.00,0.00,-29.56,3.248,3.434,2.475,3.336,3.869,0,0,SEARCHING,0.000,0.800,0.000,0.082
22:27:24.756,SEARCHING,20.909,-19.108,1.546,0.00,0.00,-28.83,3.185,3.291,2.501,3.225,3.864,0,0,SEARCHING,0.000,0.800,-0.039,0.073
22:27:24.956,SEARCHING,20.993,-19.154,1.536,0.00,0.00,-28.33,3.218,3.157,2.502,3.104,3.836,0,0,SEARCHING,0.000,0.800,-0.062,0.071
22:27:25.159,SEARCHING,21.078,-19.199,1.523,0.00,0.00,-27.85,3.206,3.049,2.505,3.007,3.816,0,0,SEARCHING,0.000,0.800,-0.076,0.070
22:27:25.359,SEARCHING,21.163,-19.244,1.507,0.00,0.00,-27.37,3.148,2.959,2.505,2.904,3.773,0,0,SEARCHING,0.000,0.800,-0.088,0.068
22:27:25.559,SEARCHING,21.248,-19.288,1.488,0.00,0.00,-26.92,3.126,2.816,2.540,2.814,3.736,0,0,SEARCHING,0.000,0.800,-0.098,0.062
22:27:25.760,SEARCHING,21.334,-19.331,1.468,0.00,0.00,-26.50,3.116,2.698,2.529,2.700,3.666,0,0,SEARCHING,0.000,0.800,-0.109,0.060
22:27:25.959,SEARCHING,21.420,-19.373,1.446,0.00,0.00,-26.09,3.062,2.572,2.525,2.587,3.607,0,0,SEARCHING,0.000,0.800,-0.122,0.058
22:27:26.160,SEARCHING,21.507,-19.415,1.420,0.00,0.00,-25.71,3.034,2.486,2.545,2.490,3.528,0,0,SEARCHING,0.000,0.800,-0.135,0.054
22:27:26.362,SEARCHING,21.593,-19.457,1.393,0.00,0.00,-25.34,3.016,2.426,2.506,2.411,3.450,0,0,SEARCHING,0.000,0.800,-0.143,0.053
22:27:26.562,SEARCHING,21.680,-19.498,1.364,0.00,0.00,-24.98,2.989,2.333,2.528,2.365,3.394,0,0,SEARCHING,0.000,0.800,-0.150,0.050
22:27:26.763,SEARCHING,21.767,-19.538,1.334,0.00,0.00,-24.65,2.983,2.272,2.556,2.311,3.335,0,0,SEARCHING,0.000,0.800,-0.155,0.047
22:27:26.964,SEARCHING,21.854,-19.578,1.302,0.00,0.00,-24.33,3.008,2.219,2.551,2.221,3.269,0,0,SEARCHING,0.000,0.800,-0.165,0.047
22:27:27.165,SEARCHING,21.942,-19.617,1.268,0.00,0.00,-24.00,3.035,2.112,2.412,2.118,3.186,0,0,SEARCHING,0.000,0.800,-0.180,0.054
22:27:27.365,SEARCHING,22.030,-19.656,1.231,0.00,0.00,-23.51,3.059,2.000,2.028,1.996,3.091,0,0,SEARCHING,0.000,0.800,-0.200,0.098
22:27:27.565,SEARCHING,22.117,-19.693,1.190,0.00,0.00,-22.70,3.095,1.923,1.961,1.941,2.981,0,0,SEARCHING,0.000,0.775,-0.210,0.135
22:27:27.766,SEARCHING,22.201,-19.728,1.147,0.00,0.00,-21.72,2.974,1.824,1.888,1.832,2.862,0,0,SEARCHING,0.000,0.719,-0.225,0.149
22:27:27.967,SEARCHING,22.279,-19.758,1.101,0.00,0.00,-20.67,2.780,3.859,2.275,1.743,2.734,0,0,SEARCHING,0.000,0.723,-0.239,0.126
22:27:28.167,SEARCHING,22.364,-19.790,1.053,0.00,0.00,-20.10,2.629,5.565,2.700,1.663,2.615,0,0,SEARCHING,0.000,0.781,-0.253,0.039
22:27:28.368,SEARCHING,22.454,-19.822,1.001,0.00,0.00,-20.01,2.617,5.832,2.809,1.573,2.502,0,0,SEARCHING,0.000,0.796,-0.270,-0.004
22:27:28.571,SEARCHING,22.543,-19.855,0.946,0.00,0.00,-20.09,2.634,5.734,2.825,1.478,2.350,0,0,SEARCHING,0.000,0.799,-0.288,-0.017
22:27:28.770,SEARCHING,22.634,-19.888,0.887,0.00,0.00,-20.20,2.897,5.651,2.871,1.389,2.196,0,0,SEARCHING,0.000,0.800,-0.305,-0.009
22:27:28.970,SEARCHING,22.724,-19.921,0.825,0.00,0.00,-20.21,2.966,5.536,2.889,1.403,2.046,0,0,SEARCHING,0.000,0.800,-0.302,0.003
22:27:29.170,SEARCHING,22.814,-19.955,0.768,0.00,0.00,-20.18,2.990,5.375,2.887,4.065,1.901,0,0,SEARCHING,0.000,0.800,-0.084,0.007
22:27:29.371,SEARCHING,22.904,-19.988,0.780,0.00,0.00,-20.12,2.974,5.284,2.853,5.240,1.860,0,0,SEARCHING,0.000,0.800,0.283,0.010
22:27:29.571,SEARCHING,22.994,-20.021,0.845,0.00,0.00,-20.05,2.966,5.201,2.857,5.278,1.975,0,0,SEARCHING,0.000,0.800,0.369,0.011
22:27:29.773,SEARCHING,23.084,-20.053,0.918,0.00,0.00,-19.97,2.943,5.174,2.821,4.379,2.169,0,0,SEARCHING,0.000,0.800,0.335,0.011
22:27:29.973,SEARCHING,23.174,-20.086,0.976,0.00,0.00,-19.89,2.929,5.110,2.774,2.233,2.311,0,0,SEARCHING,0.000,0.800,0.148,0.013
22:27:30.173,SEARCHING,23.265,-20.119,0.985,0.00,0.00,-19.79,2.925,5.096,2.777,3.843,2.401,0,0,SEARCHING,0.000,0.800,-0.031,0.014
22:27:30.374,SEARCHING,23.355,-20.151,0.993,0.00,0.00,-19.70,2.924,4.989,2.783,4.915,2.436,0,0,SEARCHING,0.000,0.800,0.173,0.013
22:27:30.575,SEARCHING,23.445,-20.184,1.033,0.00,0.00,-19.61,2.944,4.976,2.753,5.025,2.518,0,0,SEARCHING,0.000,0.800,0.226,0.016
22:27:30.775,SEARCHING,23.536,-20.216,1.078,0.00,0.00,-19.49,2.943,4.974,2.715,4.949,2.578,0,0,SEARCHING,0.000,0.800,0.227,0.019
22:27:30.976,SEARCHING,23.626,-20.248,1.123,0.00,0.00,-19.33,2.937,4.903,2.682,4.904,2.703,0,0,SEARCHING,0.000,0.800,0.212,0.024
22:27:31.176,SEARCHING,23.717,-20.279,1.164,0.00,0.00,-19.16,2.915,4.873,2.665,4.842,2.860,0,0,SEARCHING,0.000,0.800,0.190,0.025
22:27:31.376,SEARCHING,23.808,-20.311,1.201,0.00,0.00,-18.99,2.907,4.833,2.664,4.761,2.948,0,0,SEARCHING,0.000,0.800,0.168,0.025
22:27:31.577,SEARCHING,23.899,-20.342,1.233,0.00,0.00,-18.82,2.886,4.775,2.682,4.759,3.015,0,0,SEARCHING,0.000,0.800,0.153,0.023
22:27:31.777,SEARCHING,23.990,-20.373,1.263,0.00,0.00,-18.66,2.895,4.768,2.657,4.757,3.101,0,0,SEARCHING,0.000,0.800,0.142,0.023
22:27:31.979,SEARCHING,24.081,-20.403,1.291,0.00,0.00,-18.49,2.878,4.718,2.669,4.745,3.186,0,0,SEARCHING,0.000,0.800,0.132,0.024
22:27:32.179,SEARCHING,24.172,-20.434,1.316,0.00,0.00,-18.33,2.900,4.696,2.649,4.679,3.228,0,0,SEARCHING,0.000,0.800,0.121,0.025
22:27:32.379,SEARCHING,24.263,-20.464,1.340,0.00,0.00,-18.16,2.887,4.623,2.660,4.588,3.288,0,0,SEARCHING,0.000,0.800,0.111,0.025
22:27:32.579,SEARCHING,24.354,-20.493,1.362,0.00,0.00,-18.00,2.920,4.589,2.703,4.589,3.345,0,0,SEARCHING,0.000,0.800,0.103,0.022
22:27:32.781,SEARCHING,24.446,-20.523,1.381,0.58,-0.63,-17.85,2.890,4.505,2.698,4.510,3.399,0,0,SEARCHING,0.000,0.800,0.094,0.020
22:27:32.981,SEARCHING,24.537,-20.552,1.400,0.58,-0.63,-17.71,2.889,4.502,2.686,4.489,3.493,0,0,SEARCHING,0.000,0.800,0.084,0.020
22:27:33.181,SEARCHING,24.629,-20.581,1.416,0.58,-0.63,-17.57,2.868,4.520,2.668,4.487,3.551,0,0,SEARCHING,0.000,0.800,0.075,0.021
22:27:33.382,SEARCHING,24.720,-20.610,1.431,0.58,-0.63,-17.43,2.852,4.454,2.671,4.461,3.586,0,0,SEARCHING,0.000,0.800,0.069,0.020
22:27:33.583,SEARCHING,24.812,-20.639,1.444,0.58,-0.63,-17.30,2.820,4.425,2.683,4.383,3.624,0,0,SEARCHING,0.000,0.800,0.062,0.017
22:27:33.783,SEARCHING,24.904,-20.667,1.456,0.58,-0.63,-17.18,2.863,4.382,2.668,4.331,3.661,0,0,SEARCHING,0.000,0.800,0.056,0.018
22:27:33.984,SEARCHING,24.995,-20.696,1.466,0.58,-0.63,-17.05,2.879,4.313,2.690,4.266,3.687,0,0,SEARCHING,0.000,0.800,0.019,0.019
22:27:34.184,SEARCHING,25.118,-20.733,1.467,0.58,-0.63,-16.87,2.983,4.255,2.694,4.227,3.673,0,0,SEARCHING,0.000,0.800,0.004,0.023
22:27:34.384,SEARCHING,25.271,-20.779,1.467,0.58,-0.63,-16.54,3.724,4.160,2.667,4.168,3.662,0,0,SEARCHING,0.000,0.800,0.001,0.055
22:27:34.588,SEARCHING,25.425,-20.824,1.467,0.58,-0.63,-15.79,3.933,4.117,2.575,4.112,3.623,0,0,SEARCHING,0.000,0.800,0.000,0.089
22:27:34.788,SEARCHING,25.579,-20.866,1.467,0.58,-0.63,-14.71,3.836,4.138,2.484,4.138,3.656,0,0,SEARCHING,0.000,0.800,0.000,0.106
22:27:34.990,SEARCHING,25.734,-20.905,1.467,0.58,-0.63,-13.48,3.704,4.175,2.480,4.158,3.687,0,0,SEARCHING,0.000,0.800,0.000,0.108
22:27:35.190,SEARCHING,25.890,-20.941,1.467,0.58,-0.63,-12.25,3.603,4.069,2.473,4.067,3.694,0,0,SEARCHING,0.000,0.800,0.000,0.105
22:27:35.391,SEARCHING,26.047,-20.973,1.467,0.58,-0.63,-11.07,3.495,3.883,2.460,3.919,3.691,0,0,SEARCHING,0.000,0.800,0.000,0.099
22:27:35.591,SEARCHING,26.204,-21.003,1.467,0.58,-0.63,-9.94,3.377,3.739,2.473,3.748,3.613,0,0,SEARCHING,0.000,0.800,0.000,0.093
22:27:35.792,SEARCHING,26.362,-21.029,1.467,0.58,-0.63,-8.91,3.244,3.594,2.489,3.586,3.541,0,0,SEARCHING,0.000,0.800,0.000,0.082
22:27:37.704,SEARCHING,26.520,-21.053,1.467,0.58,-0.63,-7.99,3.148,3.482,2.482,3.481,3.457,0,0,SEARCHING,0.000,0.800,0.000,0.073
22:27:37.715,SEARCHING,26.679,-21.074,1.467,0.58,-0.63,-7.16,3.148,3.482,2.482,3.481,3.457,0,0,SEARCHING,0.000,0.800,0.000,0.069
22:27:37.813,SEARCHING,26.837,-21.093,1.467,0.58,-0.63,-6.36,2.925,3.220,2.508,3.232,3.205,0,0,SEARCHING,0.000,0.800,0.000,0.062
22:27:38.000,SEARCHING,26.997,-21.110,1.467,0.58,-0.63,-5.73,2.731,2.992,2.509,2.994,2.970,0,0,SEARCHING,0.000,0.800,0.000,0.039
22:27:38.199,SEARCHING,27.156,-21.125,1.467,0.58,-0.63,-5.33,2.603,2.827,2.501,2.847,2.821,0,0,SEARCHING,0.000,0.800,0.000,0.022
22:27:38.399,SEARCHING,27.315,-21.140,1.467,0.58,-0.63,-5.12,2.457,2.688,2.471,2.702,2.677,0,0,SEARCHING,0.000,0.800,0.000,0.008
22:27:38.599,SEARCHING,27.475,-21.154,1.467,0.58,-0.63,-5.07,2.308,2.497,2.436,2.518,2.492,0,0,SEARCHING,0.000,0.800,0.000,-0.007
22:27:38.800,SEARCHING,27.634,-21.168,1.467,0.58,-0.63,-5.20,2.190,2.381,2.353,2.390,2.368,0,0,SEARCHING,0.000,0.800,0.000,-0.019
22:27:39.003,SEARCHING,27.793,-21.183,1.467,0.58,-0.63,-5.45,2.053,2.233,2.315,2.241,2.220,0,0,SEARCHING,0.000,0.800,0.000,-0.032
22:27:39.202,SEARCHING,27.952,-21.199,1.467,0.58,-0.63,-5.87,1.907,2.077,2.242,2.083,2.074,0,0,SEARCHING,0.000,0.800,0.000,-0.049
22:27:39.403,SEARCHING,28.111,-21.216,1.467,0.58,-0.63,-6.48,1.769,1.937,2.117,1.939,1.924,0,0,SEARCHING,0.000,0.770,0.000,-0.065
22:27:39.603,SEARCHING,28.260,-21.233,1.467,0.58,-0.63,-7.27,1.631,1.790,1.980,1.796,1.782,0,0,SEARCHING,0.000,0.683,0.000,-0.078
22:27:39.804,SEARCHING,28.390,-21.251,1.467,0.58,-0.63,-8.19,1.508,1.657,1.842,1.662,1.649,0,0,SEARCHING,0.000,0.591,0.000,-0.088
22:27:40.004,SEARCHING,28.503,-21.268,1.467,0.58,-0.63,-9.24,1.401,1.548,1.729,1.557,1.546,0,0,SEARCHING,0.000,0.511,0.000,-0.101
22:27:40.205,SEARCHING,28.600,-21.285,1.467,0.58,-0.63,-10.43,1.306,1.451,1.632,1.459,1.449,0,0,SEARCHING,0.000,0.445,0.000,-0.113
22:27:40.405,SEARCHING,28.685,-21.301,1.467,0.58,-0.63,-11.77,1.223,1.374,1.561,1.379,1.370,0,0,SEARCHING,0.000,0.393,0.000,-0.129
22:27:40.606,SEARCHING,28.759,-21.318,1.467,0.58,-0.63,-13.30,1.146,1.295,1.485,1.301,1.292,0,0,SEARCHING,0.000,0.350,0.000,-0.147
22:27:40.806,SEARCHING,28.825,-21.334,1.467,0.58,-0.63,-15.03,1.097,1.248,1.446,1.252,1.244,0,0,SEARCHING,0.000,0.317,0.000,-0.164
22:27:41.006,SEARCHING,28.885,-21.351,1.467,0.58,-0.63,-16.97,1.035,1.189,1.408,1.196,1.189,0,0,SEARCHING,0.000,0.288,0.000,-0.186
22:27:41.207,SEARCHING,28.939,-21.368,1.467,0.58,-0.63,-19.18,0.996,1.159,1.388,1.163,1.156,0,0,SEARCHING,0.000,0.267,0.000,-0.210
22:27:41.408,SEARCHING,28.988,-21.387,1.467,0.58,-0.63,-21.65,0.956,1.124,1.369,1.128,1.120,0,0,SEARCHING,0.000,0.254,0.000,-0.235
22:27:41.609,SEARCHING,29.035,-21.406,1.467,0.58,-0.63,-24.42,0.922,1.101,1.319,1.106,1.095,0,0,SEARCHING,0.000,0.251,0.000,-0.254
22:27:41.809,SEARCHING,29.080,-21.428,1.467,0.58,-0.63,-27.35,0.892,1.082,1.259,1.086,1.081,0,0,SEARCHING,0.000,0.250,0.000,-0.260
22:27:42.009,SEARCHING,29.124,-21.452,1.467,0.58,-0.63,-30.33,0.865,1.070,1.190,1.075,1.068,0,0,SEARCHING,0.000,0.250,0.000,-0.257
22:27:42.210,SEARCHING,29.166,-21.478,1.467,0.58,-0.63,-33.25,0.844,1.059,1.133,1.066,1.054,0,0,SEARCHING,0.000,0.250,0.000,-0.248
22:27:42.408,SEARCHING,29.207,-21.507,1.467,0.58,-0.63,-36.06,0.824,1.058,1.077,1.061,1.050,0,0,SEARCHING,0.000,0.250,0.000,-0.236
22:27:42.610,SEARCHING,29.247,-21.537,1.467,0.58,-0.63,-38.73,0.807,1.053,1.024,1.057,1.050,0,0,SEARCHING,0.000,0.250,0.000,-0.223
22:27:42.810,SEARCHING,29.286,-21.569,1.467,0.58,-0.63,-41.23,0.792,1.054,0.973,1.060,1.046,0,0,SEARCHING,0.000,0.250,0.000,-0.204
22:27:43.011,SEARCHING,29.323,-21.603,1.467,0.58,-0.63,-43.49,0.777,1.050,0.926,1.062,1.046,0,0,SEARCHING,0.000,0.250,0.000,-0.180
22:27:43.212,SEARCHING,29.358,-21.638,1.467,0.58,-0.63,-45.48,0.766,1.046,0.881,1.052,1.045,0,0,SEARCHING,0.000,0.250,0.000,-0.156
22:27:43.413,SEARCHING,29.393,-21.674,1.467,0.58,-0.63,-47.19,0.749,0.992,0.830,0.994,0.990,0,0,SEARCHING,0.000,0.250,0.000,-0.126
22:27:43.613,SEARCHING,29.426,-21.711,1.467,0.58,-0.63,-48.55,0.733,0.939,0.789,0.937,0.936,0,0,SEARCHING,0.000,0.250,0.000,-0.098
22:27:43.814,SEARCHING,29.459,-21.748,1.467,0.58,-0.63,-49.59,0.719,0.885,0.748,0.883,0.885,0,0,SEARCHING,0.000,0.250,0.000,-0.067
22:27:44.015,SEARCHING,29.491,-21.787,1.467,0.58,-0.63,-50.28,0.701,0.841,0.715,0.840,0.842,0,0,SEARCHING,0.000,0.250,0.000,-0.040
22:27:44.266,INSPECTING,29.523,-21.825,1.467,0.58,-0.63,-50.63,0.677,0.794,0.675,0.792,0.791,0,0,SEARCHING,0.000,0.175,0.000,-0.012
22:27:44.413,INSPECTING,29.528,-21.831,1.490,0.58,-0.63,-50.65,0.662,0.764,0.652,0.764,0.763,0,0,INSPECT_TOP,0.000,0.118,0.304,-0.003
22:27:44.615,INSPECTING,29.536,-21.841,1.557,0.58,-0.63,-50.66,0.658,0.752,0.643,0.752,0.753,0,0,INSPECT_TOP,0.000,0.104,0.377,-0.001
22:27:44.814,INSPECTING,29.544,-21.851,1.634,0.58,-0.63,-50.66,0.653,0.744,0.634,0.744,0.744,0,0,INSPECT_TOP,0.000,0.101,0.394,-0.000
22:27:45.014,INSPECTING,29.552,-21.860,1.714,0.58,-0.63,-50.66,0.639,0.731,0.623,0.730,0.731,0,0,INSPECT_TOP,0.000,0.100,0.399,-0.000
22:27:45.214,INSPECTING,29.559,-21.869,1.793,0.58,-0.63,-50.66,0.635,0.721,0.617,0.721,0.721,0,0,INSPECT_TOP,0.000,0.100,0.400,-0.000
22:27:45.415,INSPECTING,29.567,-21.879,1.873,0.58,-0.63,-50.66,0.635,0.710,0.607,0.712,0.710,0,0,INSPECT_TOP,0.000,0.100,0.400,-0.000
22:27:45.616,INSPECTING,29.575,-21.888,1.953,0.58,-0.63,-50.66,0.631,0.700,0.597,0.702,0.700,0,0,INSPECT_TOP,0.000,0.100,0.400,-0.000
22:27:45.816,INSPECTING,29.582,-21.897,2.033,0.58,-0.63,-50.66,0.624,0.688,0.588,0.691,0.689,0,0,INSPECT_TOP,0.000,0.100,0.400,-0.000
22:27:46.018,INSPECTING,29.590,-21.907,2.113,0.58,-0.63,-50.66,0.613,0.678,0.580,0.680,0.679,0,0,INSPECT_TOP,0.000,0.100,0.400,-0.000
22:27:46.218,INSPECTING,29.597,-21.916,2.193,0.58,-0.63,-50.66,0.605,0.667,0.570,0.667,0.665,0,0,INSPECT_TOP,0.000,0.100,0.400,-0.000
22:27:46.418,INSPECTING,29.605,-21.925,2.273,0.58,-0.63,-50.66,0.605,0.658,0.562,0.657,0.656,0,0,INSPECT_TOP,0.000,0.100,0.400,-0.000
22:27:46.619,INSPECTING,29.613,-21.934,2.353,0.58,-0.63,-50.66,0.598,0.646,0.552,0.646,0.646,0,0,INSPECT_TOP,0.000,0.100,0.400,-0.000
22:27:46.866,TURNING,29.620,-21.944,2.433,0.58,-0.63,-50.66,0.591,0.634,0.542,0.634,0.635,0,0,TURNING,0.000,0.085,0.280,-0.420
22:27:47.020,TURNING,29.624,-21.948,2.479,0.58,-0.63,-54.31,0.595,0.621,0.533,0.622,0.622,0,0,TURNING,0.000,0.062,0.096,-1.064
22:27:47.220,TURNING,29.627,-21.954,2.491,0.58,-0.63,-62.73,0.642,0.591,0.523,0.592,0.590,0,0,TURNING,0.000,0.053,0.023,-1.319
22:27:47.420,TURNING,29.630,-21.960,2.494,0.58,-0.63,-72.06,0.599,0.560,0.522,0.561,0.558,0,0,TURNING,0.000,0.051,0.006,-1.381
22:27:47.620,TURNING,29.632,-21.969,2.494,0.57,-0.62,-87.94,0.546,0.546,0.524,0.547,0.544,0,0,TURNING,0.000,0.050,0.001,-1.395
22:27:47.821,TURNING,29.631,-21.979,2.494,0.57,-0.62,-103.95,0.491,0.532,0.551,0.533,0.531,0,0,TURNING,0.000,0.050,0.000,-1.399
22:27:48.022,TURNING,29.627,-21.989,2.494,0.57,-0.62,-119.98,0.476,0.537,0.630,0.538,0.535,0,0,TURNING,0.000,0.050,0.000,-1.400
22:27:48.223,TURNING,29.621,-21.997,2.494,0.57,-0.62,-136.02,0.489,0.629,0.883,0.630,0.624,0,0,TURNING,0.000,0.050,0.000,-1.400
22:27:48.424,TURNING,29.613,-22.003,2.494,0.56,-0.61,-152.06,0.552,0.791,1.400,0.792,0.784,0,0,TURNING,0.000,0.050,0.000,-1.400
22:27:48.623,TURNING,29.604,-22.006,2.494,0.56,-0.61,-168.10,0.726,1.284,3.032,1.296,1.276,0,0,TURNING,0.000,0.050,0.000,-1.400
22:27:48.823,TURNING,29.594,-22.007,2.494,0.56,-0.61,175.85,1.172,2.697,4.599,2.086,2.672,0,0,TURNING,0.000,0.050,0.000,-1.400
22:27:49.024,TURNING,29.584,-22.005,2.494,0.56,-0.61,159.81,2.374,4.723,3.280,2.201,4.780,0,0,TURNING,0.000,0.050,0.000,-1.400
22:27:49.225,TURNING,29.575,-22.000,2.494,0.56,-0.60,143.77,4.308,3.664,2.175,2.229,3.685,0,0,TURNING,0.000,0.050,0.000,-1.400
22:27:49.471,RETURNING,29.568,-21.994,2.494,0.55,-0.60,127.72,3.843,2.393,2.083,2.162,2.391,0,0,TURNING,0.000,0.035,0.000,-0.980
22:27:49.666,RETURNING,29.561,-21.982,2.493,0.55,-0.60,119.72,2.705,2.140,2.062,2.116,2.128,0,0,RETURNING,0.000,0.616,-0.005,-0.145
22:27:49.865,RETURNING,29.504,-21.877,2.493,0.55,-0.60,117.78,2.226,2.045,2.014,2.044,2.039,0,0,RETURNING,0.000,0.756,-0.001,0.006
22:27:50.060,RETURNING,29.434,-21.744,2.493,0.55,-0.60,117.81,2.002,1.913,1.891,1.902,1.898,0,0,RETURNING,0.000,0.762,-0.000,0.022
22:27:50.277,RETURNING,29.363,-21.610,2.493,0.55,-0.60,118.06,1.802,1.763,1.767,1.757,1.754,0,0,RETURNING,0.000,0.685,-0.000,0.016
22:27:50.462,RETURNING,29.298,-21.489,2.493,0.55,-0.60,118.24,1.647,1.616,1.654,1.618,1.609,0,0,RETURNING,0.000,0.590,-0.000,0.005
22:27:50.670,RETURNING,29.242,-21.385,2.493,0.55,-0.60,118.30,1.506,1.496,1.554,1.492,1.485,0,0,RETURNING,0.000,0.504,-0.000,-0.006
22:27:50.868,RETURNING,29.194,-21.296,2.493,0.55,-0.60,118.23,1.391,1.383,1.465,1.385,1.376,0,0,RETURNING,0.000,0.430,-0.000,-0.020
22:27:51.065,RETURNING,29.154,-21.220,2.493,0.55,-0.60,118.00,1.290,1.289,1.395,1.294,1.285,0,0,RETURNING,0.000,0.370,-0.000,-0.035
22:27:51.266,RETURNING,29.119,-21.154,2.493,0.55,-0.60,117.61,1.209,1.213,1.323,1.214,1.205,0,0,RETURNING,0.000,0.322,-0.000,-0.048
22:27:51.475,RETURNING,29.089,-21.096,2.493,0.55,-0.60,117.06,1.145,1.161,1.279,1.159,1.152,0,0,RETURNING,0.000,0.288,-0.000,-0.063
22:27:51.666,RETURNING,29.063,-21.045,2.493,0.55,-0.60,116.35,1.067,1.105,1.215,1.105,1.095,0,0,RETURNING,0.000,0.261,-0.000,-0.079
22:27:51.874,RETURNING,29.040,-20.998,2.493,0.55,-0.60,115.44,1.010,1.070,1.176,1.078,1.057,0,0,RETURNING,0.000,0.253,-0.000,-0.098
22:27:52.070,RETURNING,29.019,-20.952,2.493,0.55,-0.60,114.32,0.955,1.049,1.130,1.052,1.040,0,0,RETURNING,0.000,0.251,-0.000,-0.117
22:27:52.273,RETURNING,28.999,-20.906,2.493,0.55,-0.60,112.99,0.897,1.027,1.093,1.034,1.021,0,0,RETURNING,0.000,0.250,-0.000,-0.141
22:27:52.474,RETURNING,28.980,-20.860,2.493,0.55,-0.60,111.38,0.838,1.008,1.051,1.014,1.009,0,0,RETURNING,0.000,0.250,-0.000,-0.171
22:27:52.675,RETURNING,28.962,-20.813,2.493,0.55,-0.60,109.42,0.777,1.003,1.012,1.005,0.992,0,0,RETURNING,0.000,0.250,-0.000,-0.209
22:27:52.882,RETURNING,28.947,-20.765,2.493,0.55,-0.60,107.03,0.724,1.011,0.972,1.017,1.007,0,0,RETURNING,0.000,0.250,-0.000,-0.254
22:27:53.077,RETURNING,28.933,-20.717,2.493,0.55,-0.60,104.15,0.713,0.997,0.937,0.998,0.993,0,0,RETURNING,0.000,0.250,-0.000,-0.270
22:27:53.268,RETURNING,28.922,-20.669,2.493,0.55,-0.60,101.07,0.715,0.951,0.904,0.952,0.948,0,0,RETURNING,0.000,0.250,-0.000,-0.251
22:27:53.473,RETURNING,28.913,-20.619,2.493,0.55,-0.60,98.21,0.727,0.901,0.871,0.904,0.899,0,0,RETURNING,0.000,0.250,-0.000,-0.214
22:27:53.680,RETURNING,28.907,-20.570,2.493,0.55,-0.60,95.75,0.730,0.853,0.838,0.855,0.852,0,0,RETURNING,0.000,0.250,-0.000,-0.170
22:27:53.870,RETURNING,28.903,-20.520,2.493,0.55,-0.60,93.81,0.788,0.805,0.801,0.808,0.803,0,0,RETURNING,0.000,0.250,-0.000,-0.080
22:27:54.040,INSPECTING,28.900,-20.470,2.493,0.55,-0.60,92.89,0.753,0.757,0.758,0.759,0.754,0,0,INSPECT_TOP,0.000,0.137,0.204,-0.022
22:27:54.240,INSPECTING,28.899,-20.456,2.547,0.55,-0.60,92.81,0.722,0.727,0.729,0.728,0.723,0,0,INSPECT_TOP,0.000,0.109,0.353,-0.005
22:27:54.441,INSPECTING,28.899,-20.443,2.621,0.55,-0.60,92.79,0.708,0.712,0.715,0.713,0.710,0,0,INSPECT_TOP,0.000,0.102,0.389,-0.001
22:27:54.642,INSPECTING,28.898,-20.431,2.700,0.55,-0.60,92.79,0.695,0.699,0.703,0.701,0.697,0,0,INSPECT_TOP,0.000,0.101,0.397,-0.000
22:27:54.841,INSPECTING,28.898,-20.419,2.779,0.55,-0.60,92.78,0.683,0.686,0.690,0.688,0.684,0,0,INSPECT_TOP,0.000,0.100,0.399,-0.000
22:27:55.042,INSPECTING,28.897,-20.407,2.859,0.55,-0.60,92.78,0.672,0.675,0.679,0.677,0.674,0,0,INSPECT_TOP,0.000,0.100,0.400,-0.000
22:27:55.242,INSPECTING,28.897,-20.395,2.939,0.55,-0.60,92.78,0.659,0.662,0.667,0.665,0.661,0,0,INSPECT_TOP,0.000,0.100,0.400,-0.000
22:27:55.443,INSPECTING,28.896,-20.383,3.019,0.55,-0.60,92.78,0.648,0.651,0.655,0.653,0.649,0,0,INSPECT_TOP,0.000,0.100,0.400,-0.000
22:27:55.643,INSPECTING,28.895,-20.371,3.099,0.55,-0.60,92.78,0.636,0.639,0.643,0.642,0.638,0,0,INSPECT_TOP,0.000,0.100,0.400,-0.000
22:27:55.845,INSPECTING,28.895,-20.359,3.179,0.55,-0.60,92.78,0.621,0.625,0.628,0.551,0.623,0,0,INSPECT_TOP,0.000,0.100,0.400,-0.000
22:27:56.044,INSPECTING,28.894,-20.347,3.259,0.55,-0.60,92.78,0.610,0.613,0.617,0.589,0.611,0,0,INSPECT_TOP,0.000,0.100,0.400,-0.000
22:27:56.246,INSPECTING,28.894,-20.335,3.339,0.55,-0.60,92.78,0.597,0.599,0.605,7.037,0.601,0,0,INSPECT_TOP,0.000,0.100,0.400,-0.000
22:27:56.446,INSPECTING,28.893,-20.323,3.364,-0.02,0.02,92.79,0.586,0.589,0.593,1.451,0.590,0,0,INSPECT_TOP,0.000,0.100,0.400,-0.000
22:27:56.686,TURNING,28.893,-20.311,3.364,-0.03,0.04,92.79,0.574,0.577,0.581,0.679,0.577,0,0,TURNING,0.000,0.085,0.280,-0.420
22:27:56.848,TURNING,28.893,-20.306,3.364,-0.02,0.03,89.14,0.564,0.570,0.575,0.587,0.570,0,0,TURNING,0.000,0.062,0.096,-1.064
22:27:57.048,TURNING,28.893,-20.299,3.364,-0.01,0.05,80.72,0.532,0.556,0.584,0.558,0.556,0,0,TURNING,0.000,0.053,0.023,-1.319
22:27:57.248,TURNING,28.895,-20.293,3.364,-0.02,0.05,71.39,0.502,0.555,0.622,0.555,0.556,0,0,TURNING,0.000,0.051,0.006,-1.381
22:27:57.449,TURNING,28.899,-20.284,3.364,-0.02,0.05,55.51,0.496,0.586,0.825,0.585,0.586,0,0,TURNING,0.000,0.050,0.001,-1.395
22:27:57.648,TURNING,28.906,-20.276,3.364,-0.02,0.05,39.50,0.528,0.796,1.296,0.793,0.777,0,0,TURNING,0.000,0.050,0.000,-1.399
22:27:57.850,TURNING,28.914,-20.271,3.364,-0.02,0.05,23.47,0.792,1.326,8.085,1.417,0.977,0,0,TURNING,0.000,0.050,0.000,-1.400
22:27:58.051,TURNING,28.924,-20.268,3.364,-0.02,0.05,7.43,1.306,4.742,6.711,8.578,1.014,0,0,TURNING,0.000,0.050,0.000,-1.400
22:27:58.252,TURNING,28.934,-20.268,3.364,-0.01,0.05,-8.61,1.229,5.463,6.157,9.883,0.931,0,0,TURNING,0.000,0.050,0.000,-1.400
22:27:58.452,TURNING,28.943,-20.271,3.364,-0.01,0.05,-24.66,1.437,6.644,3.768,9.986,1.010,0,0,TURNING,0.000,0.050,0.000,-1.400
22:27:58.652,TURNING,28.952,-20.276,3.364,-0.01,0.05,-40.70,1.382,3.068,2.366,4.357,1.123,0,0,TURNING,0.000,0.050,0.000,-1.400
22:27:58.853,TURNING,28.958,-20.284,3.364,-0.01,0.05,-56.74,1.864,2.528,2.118,2.634,1.400,0,0,TURNING,0.000,0.050,0.000,-1.400
22:27:59.054,TURNING,28.963,-20.293,3.364,-0.01,0.05,-72.78,2.098,2.294,2.038,2.198,2.064,0,0,TURNING,0.000,0.050,0.000,-1.400
22:27:59.295,RETURNING,28.964,-20.302,3.364,-0.01,0.05,-88.83,2.198,2.201,2.138,2.123,2.190,0,0,TURNING,0.000,0.035,0.000,-0.980
22:27:59.504,RETURNING,28.960,-20.332,3.364,-0.01,0.04,-100.39,2.065,2.183,1.922,2.150,2.170,0,0,RETURNING,0.000,0.616,0.000,-0.230
22:27:59.695,RETURNING,28.935,-20.447,3.364,-0.01,0.04,-103.42,1.940,2.108,1.553,2.041,2.112,0,0,RETURNING,0.000,0.755,0.000,0.011
22:27:59.888,RETURNING,28.900,-20.593,3.364,-0.01,0.04,-103.38,1.801,1.997,1.451,1.959,2.004,0,0,RETURNING,0.000,0.740,0.000,0.086
22:28:00.096,RETURNING,28.867,-20.737,3.364,-0.01,0.04,-102.42,1.684,1.855,1.495,1.793,1.856,0,0,RETURNING,0.000,0.683,0.000,0.080
22:28:00.296,RETURNING,28.839,-20.871,3.364,-0.01,0.04,-101.51,1.543,1.724,1.536,1.712,1.721,0,0,RETURNING,0.000,0.616,0.000,0.034
22:28:00.503,RETURNING,28.814,-20.992,3.364,-0.01,0.04,-101.12,1.423,1.597,1.660,1.596,1.600,0,0,RETURNING,0.000,0.540,0.000,-0.032
22:28:00.698,RETURNING,28.793,-21.098,3.364,-0.01,0.04,-101.46,1.357,1.483,1.616,1.483,1.484,0,0,RETURNING,0.000,0.468,0.000,-0.077
22:28:00.905,RETURNING,28.774,-21.190,3.364,-0.01,0.04,-102.33,1.263,1.376,1.513,1.378,1.378,0,0,RETURNING,0.000,0.409,0.000,-0.095
22:28:01.105,RETURNING,28.756,-21.270,3.364,-0.01,0.04,-103.41,1.199,1.309,1.449,1.309,1.312,0,0,RETURNING,0.000,0.361,0.000,-0.107
22:28:01.296,RETURNING,28.738,-21.341,3.364,-0.01,0.04,-104.63,1.116,1.229,1.371,1.231,1.229,0,0,RETURNING,0.000,0.320,0.000,-0.121
22:28:01.501,RETURNING,28.721,-21.403,3.364,-0.01,0.04,-106.01,1.066,1.181,1.324,1.183,1.183,0,0,RETURNING,0.000,0.288,0.000,-0.135
22:28:01.705,RETURNING,28.705,-21.458,3.364,-0.01,0.04,-107.56,1.004,1.120,1.273,1.120,1.121,0,0,RETURNING,0.000,0.263,0.000,-0.154
22:28:01.903,RETURNING,28.688,-21.508,3.364,-0.01,0.04,-109.32,0.963,1.088,1.240,1.087,1.086,0,0,RETURNING,0.000,0.253,0.000,-0.174
22:28:02.099,RETURNING,28.671,-21.556,3.364,-0.01,0.04,-111.31,0.919,1.047,1.187,1.045,1.046,0,0,RETURNING,0.000,0.251,0.000,-0.189
22:28:02.308,RETURNING,28.652,-21.602,3.364,-0.01,0.04,-113.46,0.879,1.012,1.122,1.011,1.013,0,0,RETURNING,0.000,0.250,0.000,-0.196
22:28:02.508,RETURNING,28.631,-21.648,3.364,-0.01,0.04,-115.70,0.839,0.978,1.045,0.978,0.977,0,0,RETURNING,0.000,0.250,0.000,-0.193
22:28:02.713,RETURNING,28.609,-21.692,3.364,-0.01,0.04,-117.91,0.803,0.945,0.964,0.947,0.947,0,0,RETURNING,0.000,0.250,0.000,-0.178
22:28:02.911,RETURNING,28.584,-21.736,3.364,-0.01,0.04,-119.96,0.774,0.921,0.910,0.921,0.922,0,0,RETURNING,0.000,0.250,0.000,-0.164
22:28:03.108,RETURNING,28.559,-21.779,3.364,-0.01,0.04,-121.84,0.735,0.889,0.840,0.888,0.886,0,0,RETURNING,0.000,0.250,0.000,-0.147
22:28:03.302,RETURNING,28.532,-21.821,3.364,-0.01,0.04,-123.54,0.704,0.857,0.789,0.855,0.858,0,0,RETURNING,0.000,0.250,0.000,-0.134
22:28:03.503,RETURNING,28.504,-21.862,3.364,-0.01,0.04,-125.07,0.671,0.825,0.746,0.826,0.826,0,0,RETURNING,0.000,0.250,0.000,-0.124
22:28:03.743,INSPECTING,28.475,-21.903,3.364,-0.01,0.04,-126.50,0.640,0.793,0.704,0.792,0.795,0,0,RETURNING,0.000,0.175,0.000,-0.118
22:28:03.867,INSPECTING,28.455,-21.929,3.364,0.00,0.00,-127.33,0.613,0.770,0.652,0.767,0.769,0,0,INSPECT_TOP,0.000,0.118,0.304,-0.028
22:28:04.068,INSPECTING,28.447,-21.939,3.364,0.00,-0.00,-127.43,0.601,0.758,0.638,0.755,0.756,0,0,INSPECT_TOP,0.000,0.104,0.377,-0.007
22:28:04.268,INSPECTING,28.440,-21.949,3.364,0.00,-0.00,-127.45,0.592,0.745,0.638,0.743,0.745,0,0,INSPECT_TOP,0.000,0.101,0.394,-0.002
22:28:04.470,INSPECTING,28.432,-21.959,3.364,0.00,-0.00,-127.46,0.582,0.734,0.637,0.732,0.734,0,0,INSPECT_TOP,0.000,0.100,0.399,-0.000
22:28:04.669,INSPECTING,28.425,-21.968,3.364,0.00,-0.00,-127.46,0.573,0.723,0.630,0.722,0.722,0,0,INSPECT_TOP,0.000,0.100,0.400,-0.000
22:28:04.869,INSPECTING,28.418,-21.978,3.364,0.00,-0.00,-127.46,0.567,0.714,0.626,0.713,0.713,0,0,INSPECT_TOP,0.000,0.100,0.400,-0.000
22:28:05.070,INSPECTING,28.410,-21.987,3.364,0.00,-0.00,-127.46,0.557,0.702,0.618,0.701,0.699,0,0,INSPECT_TOP,0.000,0.100,0.400,-0.000
22:28:05.270,INSPECTING,28.403,-21.997,3.364,0.00,-0.00,-127.46,0.550,0.694,0.615,0.693,0.691,0,0,INSPECT_TOP,0.000,0.100,0.400,-0.000
22:28:05.470,INSPECTING,28.396,-22.006,3.364,0.00,-0.00,-127.46,0.540,0.681,0.612,0.680,0.678,0,0,INSPECT_TOP,0.000,0.100,0.400,-0.000
22:28:05.672,INSPECTING,28.388,-22.016,3.364,0.00,-0.00,-127.46,0.534,0.672,0.606,0.671,0.669,0,0,INSPECT_TOP,0.000,0.100,0.400,-0.000
22:28:05.872,INSPECTING,28.381,-22.025,3.364,0.00,-0.00,-127.46,0.524,0.662,0.597,0.661,0.659,0,0,INSPECT_TOP,0.000,0.100,0.400,-0.000
22:28:06.073,INSPECTING,28.374,-22.035,3.364,0.00,-0.00,-127.46,0.517,0.651,0.596,0.651,0.649,0,0,INSPECT_TOP,0.000,0.100,0.400,-0.000
22:28:06.311,TURNING,28.367,-22.045,3.364,0.00,-0.00,-127.46,0.506,0.638,0.595,0.637,0.635,0,0,TURNING,0.000,0.085,0.280,-0.420
22:28:06.475,TURNING,28.363,-22.049,3.364,0.00,-0.00,-131.11,0.505,0.639,0.582,0.638,0.639,0,0,TURNING,0.000,0.062,0.096,-1.064
22:28:06.674,TURNING,28.358,-22.054,3.364,0.00,-0.00,-139.53,0.525,0.684,0.527,0.687,0.692,0,0,TURNING,0.000,0.053,0.023,-1.319
22:28:06.875,TURNING,28.353,-22.057,3.364,0.00,-0.00,-148.86,0.572,0.618,0.463,0.615,0.807,0,0,TURNING,0.000,0.051,0.006,-1.381
22:28:07.076,TURNING,28.344,-22.062,3.364,0.00,-0.00,-164.74,0.604,0.503,0.405,0.503,1.192,0,0,TURNING,0.000,0.050,0.001,-1.395
22:28:07.277,TURNING,28.334,-22.063,3.364,0.00,-0.00,179.26,0.482,0.419,0.374,0.423,1.753,0,0,TURNING,0.000,0.050,0.000,-1.399
22:28:07.476,TURNING,28.324,-22.062,3.364,0.00,-0.00,163.22,0.394,0.382,0.373,0.385,3.410,0,0,TURNING,0.000,0.050,0.000,-1.400
22:28:07.678,TURNING,28.315,-22.058,3.364,0.00,-0.00,147.18,0.352,0.369,0.382,0.368,3.918,0,0,TURNING,0.000,0.050,0.000,-1.400
22:28:07.878,TURNING,28.308,-22.051,3.364,0.00,-0.00,131.14,0.329,0.374,0.444,0.377,3.070,0,0,TURNING,0.000,0.050,0.000,-1.400
22:28:08.078,TURNING,28.302,-22.043,3.364,0.00,-0.00,115.10,0.340,0.428,0.585,0.432,2.288,0,0,TURNING,0.000,0.050,0.000,-1.400
22:28:08.279,TURNING,28.299,-22.033,3.364,0.00,-0.00,99.05,0.396,0.564,1.024,0.556,1.890,0,0,TURNING,0.000,0.050,0.000,-1.400
22:28:08.481,TURNING,28.299,-22.023,3.364,0.00,-0.00,83.01,0.529,0.959,1.226,0.938,1.770,0,0,TURNING,0.000,0.050,0.000,-1.400
