timestamp,state,x,y,z,roll_deg,pitch_deg,yaw_deg,dist_left,dist_center,dist_right,dist_top,dist_bottom,dtof_alert,collision_type,best_dir,max_space,cmd_vx,cmd_vz,cmd_yaw,lap,total_hits
22:54:28.605,SEARCHING,0.000,0.000,0.000,0.00,0.00,0.00,10.000,10.000,10.000,10.000,10.000,0,NONE,SEARCHING,0.000,0.526,0.000,0.000,0,0
22:54:28.806,SEARCHING,0.126,0.000,1.000,0.00,0.00,0.00,10.000,10.000,10.000,10.000,10.000,0,NONE,SEARCHING,0.000,0.734,0.000,0.000,0,0
22:54:29.005,SEARCHING,0.279,0.000,1.000,0.00,0.00,0.00,10.000,10.000,10.000,10.000,10.000,0,NONE,SEARCHING,0.000,0.784,0.000,0.000,0,0
22:54:29.205,SEARCHING,0.437,0.000,1.000,0.00,0.00,0.00,10.000,10.000,10.000,10.000,10.000,0,NONE,SEARCHING,0.000,0.796,0.000,0.000,0,0
22:54:29.406,SEARCHING,0.597,0.000,1.000,0.00,0.00,0.00,10.000,10.000,10.000,10.000,10.000,0,NONE,SEARCHING,0.000,0.799,0.000,0.000,0,0
22:54:29.606,SEARCHING,0.757,0.000,1.000,0.00,0.00,0.00,10.000,10.000,10.000,10.000,10.000,0,NONE,SEARCHING,0.000,0.800,0.000,0.000,0,0
22:54:29.816,SEARCHING,0.917,0.000,1.000,0.00,0.00,0.00,10.000,10.000,10.000,10.000,10.000,0,NONE,SEARCHING,0.000,0.800,0.000,0.000,0,0
22:54:30.048,SEARCHING,1.077,0.000,1.000,0.00,0.00,0.00,3.948,4.387,3.948,5.026,3.486,0,NONE,SEARCHING,0.000,0.800,0.032,0.000,0,0
22:54:30.256,SEARCHING,1.225,0.000,1.014,0.00,0.00,0.00,2.501,2.945,2.501,3.863,1.951,0,NONE,SEARCHING,0.000,0.800,0.184,0.000,0,0
22:54:30.446,SEARCHING,1.373,0.000,1.059,0.00,0.00,0.00,2.202,2.686,2.202,3.631,1.624,0,NONE,SEARCHING,0.000,0.800,0.335,0.000,0,0
22:54:30.658,SEARCHING,1.525,0.000,1.131,0.00,0.00,0.00,2.096,2.642,2.096,3.475,1.761,0,NONE,SEARCHING,0.000,0.800,0.374,0.000,0,0
22:54:30.857,SEARCHING,1.677,0.000,1.206,0.00,0.00,0.00,2.044,2.641,2.044,3.304,1.623,0,NONE,SEARCHING,0.000,0.800,0.391,0.000,0,0
22:54:31.056,SEARCHING,1.829,0.000,1.282,0.00,0.00,0.00,2.024,3.286,2.024,3.151,1.777,0,NONE,SEARCHING,0.000,0.800,0.339,0.000,0,0
22:54:31.262,SEARCHING,1.977,0.000,1.347,0.00,0.00,0.00,2.006,3.003,2.006,3.037,1.851,0,NONE,SEARCHING,0.000,0.800,0.281,0.000,0,0
22:54:31.481,SEARCHING,2.129,0.000,1.400,0.00,0.00,0.00,2.004,3.489,2.004,2.926,1.975,0,NONE,SEARCHING,0.000,0.800,0.230,0.000,0,0
22:54:31.667,SEARCHING,2.281,0.000,1.444,0.00,0.00,0.00,1.989,3.711,1.989,2.877,2.042,0,NONE,SEARCHING,0.000,0.800,0.188,0.000,0,0
22:54:31.873,SEARCHING,2.433,0.000,1.480,0.00,0.00,0.00,1.982,3.809,1.982,2.779,2.159,0,NONE,SEARCHING,0.000,0.800,0.151,0.000,0,0
22:54:32.077,SEARCHING,2.585,0.000,1.508,0.00,0.00,0.00,1.959,3.923,1.959,2.715,2.289,0,NONE,SEARCHING,0.000,0.800,0.110,0.000,0,0
22:54:32.273,SEARCHING,2.737,0.000,1.528,0.00,0.00,0.00,2.095,3.987,2.095,2.713,2.301,0,NONE,SEARCHING,0.000,0.800,0.090,0.000,0,0
22:54:32.477,SEARCHING,2.885,0.000,1.546,0.00,0.00,0.00,2.231,4.080,2.231,2.729,2.315,0,NONE,SEARCHING,0.000,0.800,0.082,0.000,0,0
22:54:32.674,SEARCHING,3.037,0.000,1.562,0.00,0.00,0.00,2.293,3.910,2.293,2.714,2.520,0,NONE,SEARCHING,0.000,0.800,0.057,0.000,0,0
22:54:32.888,SEARCHING,3.189,0.000,1.571,0.00,0.00,0.00,2.319,4.070,2.319,2.682,1.914,0,NONE,SEARCHING,0.000,0.800,0.068,0.000,0,0
22:54:33.091,SEARCHING,3.341,0.000,1.588,0.00,0.00,0.00,2.358,3.840,2.358,2.665,1.686,0,NONE,SEARCHING,0.000,0.800,0.152,0.000,0,0
22:54:33.296,SEARCHING,3.493,0.000,1.619,0.00,0.00,0.00,2.375,4.025,2.375,2.632,2.304,0,NONE,SEARCHING,0.000,0.800,0.123,0.000,0,0
22:54:33.494,SEARCHING,3.645,0.000,1.639,0.00,0.00,0.00,2.436,4.287,2.436,2.597,2.412,0,NONE,SEARCHING,0.000,0.800,0.036,0.000,0,0
22:54:33.701,SEARCHING,3.793,0.000,1.644,0.00,0.00,0.00,2.442,4.224,2.442,2.579,2.535,0,NONE,SEARCHING,0.000,0.800,0.009,0.000,0,0
22:54:33.899,SEARCHING,3.953,0.000,1.644,0.00,0.00,0.00,2.494,4.217,2.494,2.558,2.524,0,NONE,SEARCHING,0.000,0.800,0.002,0.000,0,0
22:54:34.104,SEARCHING,4.113,0.000,1.644,0.00,0.00,0.00,2.568,4.336,2.568,2.582,2.245,0,NONE,SEARCHING,0.000,0.800,0.021,0.000,0,0
22:54:34.300,SEARCHING,4.261,0.000,1.649,0.00,0.00,0.00,2.587,4.145,2.587,2.607,2.386,0,NONE,SEARCHING,0.000,0.800,0.012,0.000,0,0
22:54:34.514,SEARCHING,4.417,0.000,1.650,0.00,0.00,0.00,2.566,4.307,2.566,2.620,2.446,0,NONE,SEARCHING,0.000,0.800,0.003,0.000,0,0
22:54:34.717,SEARCHING,4.577,0.000,1.650,0.00,0.00,0.00,2.929,4.538,2.929,2.623,2.610,0,NONE,SEARCHING,0.000,0.800,0.001,0.000,0,0
22:54:34.906,SEARCHING,4.733,0.000,1.652,0.00,0.00,0.00,3.113,4.475,3.113,2.620,2.403,0,NONE,SEARCHING,0.000,0.800,0.025,0.000,0,0
22:54:35.130,SEARCHING,4.885,0.000,1.659,0.00,0.00,0.00,3.162,4.454,3.162,2.628,2.289,0,NONE,SEARCHING,0.000,0.800,0.066,0.000,0,0
22:54:35.334,SEARCHING,5.037,0.000,1.671,0.00,0.00,0.00,3.233,2.628,3.233,1.696,1.592,0,NONE,SEARCHING,0.000,0.800,0.023,0.000,0,0
22:54:35.545,SEARCHING,5.185,0.000,1.674,0.00,0.00,0.00,3.280,4.022,3.280,2.390,1.875,0,NONE,SEARCHING,0.000,0.800,0.047,0.000,0,0
22:54:35.740,SEARCHING,5.333,0.000,1.684,0.00,0.00,0.00,3.348,4.518,3.348,2.530,2.404,0,NONE,SEARCHING,0.000,0.800,0.025,0.000,0,0
22:54:35.940,SEARCHING,5.481,0.000,1.688,0.00,0.00,0.00,3.406,4.420,3.406,2.556,2.567,0,NONE,SEARCHING,0.000,0.800,0.006,0.000,0,0
22:54:36.141,SEARCHING,5.641,0.000,1.688,0.00,0.00,0.00,3.466,4.457,3.466,2.581,2.725,0,NONE,SEARCHING,0.000,0.800,0.001,0.000,0,0
22:54:36.345,SEARCHING,5.801,0.000,1.688,0.00,0.00,0.00,3.504,4.447,3.504,2.602,2.593,0,NONE,SEARCHING,0.000,0.800,0.000,0.000,0,0
22:54:36.543,SEARCHING,5.961,0.000,1.688,0.00,0.00,0.00,3.629,4.335,3.629,2.603,2.541,0,NONE,SEARCHING,0.000,0.800,0.000,0.000,0,0
22:54:36.754,SEARCHING,6.121,0.000,1.688,0.00,0.00,0.00,3.691,4.290,3.691,2.616,2.545,0,NONE,SEARCHING,0.000,0.800,0.000,0.000,0,0
22:54:36.952,SEARCHING,6.281,0.000,1.688,0.00,0.00,0.00,3.824,4.249,3.824,2.611,2.621,0,NONE,SEARCHING,0.000,0.800,0.000,0.000,0,0
22:54:37.156,SEARCHING,6.441,0.000,1.688,0.00,0.00,0.00,4.012,4.156,4.012,2.613,2.779,0,NONE,SEARCHING,0.000,0.800,0.000,0.000,0,0
22:54:37.371,SEARCHING,6.601,0.000,1.688,0.00,0.00,0.00,4.078,4.064,4.078,2.629,2.560,0,NONE,SEARCHING,0.000,0.800,0.000,0.000,0,0
22:54:37.568,SEARCHING,6.761,0.000,1.688,0.00,0.00,0.00,4.043,4.004,4.043,2.624,2.538,0,NONE,SEARCHING,0.000,0.800,0.000,0.000,0,0
22:54:37.771,SEARCHING,6.921,0.000,1.688,0.00,0.00,0.00,4.075,3.892,4.075,2.626,2.536,0,NONE,SEARCHING,0.000,0.800,0.000,0.000,0,0
22:54:37.975,SEARCHING,7.081,0.000,1.688,0.00,0.00,0.00,4.231,3.743,4.231,2.632,2.565,0,NONE,SEARCHING,0.000,0.800,0.000,0.000,0,0
22:54:38.177,SEARCHING,7.241,0.000,1.688,0.00,0.00,0.00,4.371,3.612,4.354,2.633,2.153,0,NONE,SEARCHING,0.000,0.800,0.030,0.000,0,0
22:54:38.388,SEARCHING,7.393,0.000,1.697,0.00,0.00,0.00,4.418,3.499,4.385,2.634,2.656,0,NONE,SEARCHING,0.000,0.800,0.046,0.001,0,0
22:54:38.584,SEARCHING,7.541,0.000,1.704,0.00,0.00,0.01,4.621,3.411,4.695,2.626,2.593,0,NONE,SEARCHING,0.000,0.800,0.011,-0.001,0,0
22:54:38.788,SEARCHING,7.697,0.000,1.705,0.00,0.00,-0.00,4.667,3.295,4.720,2.614,2.897,0,NONE,SEARCHING,0.000,0.800,0.003,-0.002,0,0
22:54:38.988,SEARCHING,7.857,0.000,1.705,0.00,0.00,-0.02,4.560,3.159,4.546,2.615,2.768,0,NONE,SEARCHING,0.000,0.800,0.001,-0.000,0,0
22:54:39.192,SEARCHING,8.017,-0.000,1.705,0.00,0.00,-0.02,4.624,3.068,4.610,2.615,2.681,0,NONE,SEARCHING,0.000,0.800,0.000,0.000,0,0
22:54:39.403,SEARCHING,8.177,-0.000,1.705,0.00,0.00,-0.02,4.469,2.964,4.455,2.609,2.611,0,NONE,SEARCHING,0.000,0.800,0.000,0.000,0,0
22:54:39.601,SEARCHING,8.337,-0.000,1.705,0.00,0.00,-0.01,4.630,2.837,4.655,2.597,2.625,0,NONE,SEARCHING,0.000,0.800,0.000,-0.000,0,0
22:54:39.807,SEARCHING,8.497,-0.000,1.705,0.00,0.00,-0.02,4.660,2.736,4.670,2.625,2.567,0,NONE,SEARCHING,0.000,0.800,0.000,-0.001,0,0
22:54:40.008,SEARCHING,8.657,-0.000,1.705,0.00,0.00,-0.02,4.559,2.602,4.514,2.571,2.524,0,NONE,SEARCHING,0.000,0.800,0.000,0.001,0,0
22:54:40.214,SEARCHING,8.817,-0.000,1.705,0.00,0.00,-0.01,4.417,2.497,4.414,2.484,2.463,0,NONE,SEARCHING,0.000,0.800,0.000,0.000,0,0
22:54:40.414,SEARCHING,8.977,-0.000,1.705,0.00,0.00,-0.01,4.663,2.327,4.571,2.325,2.318,0,NONE,SEARCHING,0.000,0.800,0.000,0.001,0,0
22:54:40.613,SEARCHING,9.137,-0.000,1.705,0.00,0.00,0.01,4.635,2.188,4.587,2.190,2.185,0,NONE,SEARCHING,0.000,0.800,0.000,0.002,0,0
22:54:40.821,SEARCHING,9.297,-0.000,1.705,0.00,0.00,0.04,4.487,2.042,4.476,2.051,2.042,0,NONE,SEARCHING,0.000,0.800,0.000,0.001,0,0
22:54:41.017,SEARCHING,9.457,-0.000,1.705,0.00,0.00,0.05,4.243,1.898,4.241,1.911,1.898,0,NONE,SEARCHING,0.000,0.800,0.000,0.000,0,0
22:54:41.224,SEARCHING,9.617,0.000,1.705,0.00,0.00,0.05,3.994,1.766,3.994,1.774,1.774,0,NONE,SEARCHING,0.000,0.800,0.000,0.000,0,0
22:54:41.441,SEARCHING,9.777,0.000,1.705,0.00,0.00,0.05,3.781,1.643,3.781,1.647,1.651,0,NONE,SEARCHING,0.000,0.800,0.000,0.000,0,0
22:54:41.645,SEARCHING,9.937,0.000,1.705,0.00,0.00,0.05,3.531,1.514,3.531,1.515,1.515,0,NONE,SEARCHING,0.000,0.780,0.000,0.000,0,0
22:54:41.851,SEARCHING,10.086,0.000,1.705,0.00,0.00,0.05,3.280,1.377,3.280,1.377,1.379,0,NONE,SEARCHING,0.000,0.689,0.000,0.000,0,0
22:54:42.057,SEARCHING,10.215,0.001,1.705,0.00,0.00,0.05,3.053,1.252,3.053,1.252,1.254,0,NONE,SEARCHING,0.000,0.587,0.000,0.000,0,0
22:54:42.267,SEARCHING,10.324,0.001,1.705,0.00,0.00,0.05,2.856,1.149,2.856,1.150,1.139,0,NONE,SEARCHING,0.000,0.500,0.000,0.000,0,0
22:54:42.478,SEARCHING,10.418,0.001,1.705,0.00,0.00,0.05,2.686,1.058,2.686,1.058,1.057,0,NONE,SEARCHING,0.000,0.427,0.000,0.000,0,0
22:54:42.683,SEARCHING,10.498,0.001,1.705,0.00,0.00,0.05,2.540,0.991,2.540,0.991,0.988,0,NONE,SEARCHING,0.000,0.371,0.000,0.000,0,0
22:54:42.887,SEARCHING,10.568,0.001,1.705,0.00,0.00,0.05,2.430,0.928,2.430,0.928,0.926,0,NONE,SEARCHING,0.000,0.329,0.000,0.000,0,0
22:54:43.085,SEARCHING,10.631,0.001,1.705,0.00,0.00,0.05,2.344,0.870,2.344,0.870,0.883,0,NONE,SEARCHING,0.000,0.293,0.000,0.000,0,0
22:54:43.299,SEARCHING,10.687,0.001,1.705,0.00,0.00,0.05,2.272,0.816,2.272,0.816,0.831,0,NONE,SEARCHING,0.000,0.266,0.000,0.000,0,0
22:54:43.575,INSPECTING,10.739,0.001,1.705,0.00,0.00,0.05,2.207,0.767,2.207,0.767,0.777,0,NONE,SEARCHING,0.000,0.000,0.000,0.000,0,0
22:54:43.708,INSPECTING,10.739,0.001,1.720,0.00,0.00,0.05,2.157,0.735,2.157,0.736,0.740,0,NONE,INSPECT_UP,0.000,0.000,0.329,0.000,0,0
22:54:43.909,INSPECTING,10.739,0.001,1.795,0.00,0.00,0.05,2.154,0.733,2.154,0.730,0.736,0,NONE,INSPECT_UP,0.000,0.000,0.459,0.000,0,0
22:54:44.118,INSPECTING,10.739,0.001,1.888,0.00,0.00,0.05,2.154,0.734,2.154,0.727,0.735,0,NONE,INSPECT_UP,0.000,0.000,0.490,0.000,0,0
22:54:44.322,INSPECTING,10.739,0.001,1.987,0.00,0.00,0.05,2.154,0.730,2.154,0.727,0.734,0,NONE,INSPECT_UP,0.000,0.000,0.498,0.000,0,0
22:54:44.544,INSPECTING,10.739,0.001,2.086,0.00,0.00,0.05,2.154,0.727,2.154,0.726,0.734,0,NONE,INSPECT_UP,0.000,0.000,0.499,0.000,0,0
22:54:44.747,INSPECTING,10.739,0.001,2.187,0.00,0.00,0.05,2.154,0.727,2.154,0.726,0.730,0,NONE,INSPECT_UP,0.000,0.000,0.500,0.000,0,0
22:54:44.957,INSPECTING,10.739,0.001,2.271,0.00,0.00,-1.58,2.165,0.730,2.165,0.733,0.731,0,NONE,INSPECT_SW_L_HI,0.000,0.000,0.000,-0.510,0,0
22:54:45.173,INSPECTING,10.739,0.001,2.271,0.00,0.00,-9.92,2.463,0.820,2.469,0.819,0.818,0,NONE,INSPECT_SW_L_HI,0.000,0.000,0.000,-0.882,0,0
22:54:45.371,INSPECTING,10.739,0.001,2.271,0.00,0.00,-20.63,2.807,1.000,2.847,1.032,0.999,0,NONE,INSPECT_SW_L_HI,0.000,0.000,0.000,-0.972,0,0
22:54:45.595,INSPECTING,10.739,0.001,2.271,0.00,0.00,-31.91,2.925,1.768,2.948,1.484,1.760,0,NONE,INSPECT_SW_L_HI,0.000,0.000,0.000,-0.993,0,0
22:54:45.811,INSPECTING,10.739,0.001,2.271,0.00,0.00,-43.32,2.936,2.410,2.978,1.599,2.522,0,NONE,INSPECT_SW_L_HI,0.000,0.000,0.000,-0.998,0,0
22:54:46.018,INSPECTING,10.739,0.001,2.271,0.00,0.00,-54.77,2.837,2.770,2.854,1.637,2.960,0,NONE,INSPECT_SW_L_HI,0.000,0.000,0.000,-1.000,0,0
22:54:46.221,INSPECTING,10.739,0.001,2.271,0.00,0.00,-66.23,2.589,2.906,2.595,1.651,3.298,0,NONE,INSPECT_SW_L_HI,0.000,0.000,0.000,-1.000,0,0
22:54:46.430,INSPECTING,10.739,0.001,2.271,0.00,0.00,-77.69,2.387,2.872,2.388,1.666,2.701,0,NONE,INSPECT_SW_L_HI,0.000,0.000,0.000,-1.000,0,0
22:54:46.637,INSPECTING,10.739,0.001,2.271,0.00,0.00,-89.15,2.392,2.779,2.392,1.667,2.726,0,NONE,INSPECT_SW_L_HI,0.000,0.000,0.000,-0.700,0,0
22:54:46.848,INSPECTING,10.739,0.001,2.271,0.00,0.00,-84.43,2.463,2.709,2.463,1.670,2.691,0,NONE,INSPECT_RY_HI_1,0.000,0.000,0.000,0.760,0,0
22:54:47.066,INSPECTING,10.739,0.001,2.271,0.00,0.00,-74.48,2.398,2.745,2.398,1.671,2.749,0,NONE,INSPECT_RY_HI_1,0.000,0.000,0.000,0.942,0,0
22:54:47.281,INSPECTING,10.739,0.001,2.271,0.00,0.00,-63.38,2.351,2.809,2.351,1.670,2.824,0,NONE,INSPECT_RY_HI_1,0.000,0.000,0.000,0.986,0,0
22:54:47.486,INSPECTING,10.739,0.001,2.271,0.00,0.00,-52.01,2.409,2.923,2.409,1.664,3.110,0,NONE,INSPECT_RY_HI_1,0.000,0.000,0.000,0.997,0,0
22:54:47.714,INSPECTING,10.739,0.001,2.271,0.00,0.00,-40.57,2.535,2.956,2.538,1.660,3.372,0,NONE,INSPECT_RY_HI_1,0.000,0.000,0.000,0.999,0,0
22:54:47.916,INSPECTING,10.739,0.001,2.271,0.00,0.00,-29.11,2.796,2.955,2.817,1.660,3.285,0,NONE,INSPECT_RY_HI_1,0.000,0.000,0.000,1.000,0,0
22:54:48.123,INSPECTING,10.739,0.001,2.271,0.00,0.00,-17.66,2.904,2.229,2.930,1.649,2.310,0,NONE,INSPECT_RY_HI_1,0.000,0.000,0.000,1.000,0,0
22:54:48.326,INSPECTING,10.739,0.001,2.271,0.00,0.00,-6.20,2.954,1.551,2.996,1.347,1.576,0,NONE,INSPECT_RY_HI_1,0.000,0.000,0.000,1.000,0,0
22:54:48.528,INSPECTING,10.739,0.001,2.271,0.00,0.00,1.45,2.424,0.908,2.431,0.881,0.909,0,NONE,INSPECT_SW_R_HI,0.000,0.000,0.000,0.510,0,0
22:54:48.741,INSPECTING,10.739,0.001,2.271,0.00,0.00,9.83,1.779,0.696,1.780,0.693,0.696,0,NONE,INSPECT_SW_R_HI,0.000,0.000,0.000,0.882,0,0
22:54:48.934,INSPECTING,10.739,0.001,2.271,0.00,0.00,20.55,1.194,0.591,1.193,0.592,0.591,0,NONE,INSPECT_SW_R_HI,0.000,0.000,0.000,0.972,0,0
22:54:49.135,INSPECTING,10.739,0.001,2.271,0.00,0.00,31.81,0.836,0.537,0.836,0.539,0.538,0,NONE,INSPECT_SW_R_HI,0.000,0.000,0.000,0.993,0,0
22:54:49.337,INSPECTING,10.739,0.001,2.271,0.00,0.00,43.22,0.641,0.482,0.641,0.482,0.482,0,NONE,INSPECT_SW_R_HI,0.000,0.000,0.000,0.998,0,0
22:54:49.537,INSPECTING,10.739,0.001,2.271,0.00,0.00,54.67,0.540,0.442,0.540,0.442,0.443,0,NONE,INSPECT_SW_R_HI,0.000,0.000,0.000,1.000,0,0
22:54:49.744,INSPECTING,10.739,0.001,2.271,0.00,0.00,66.13,0.482,0.425,0.482,0.425,0.425,0,NONE,INSPECT_SW_R_HI,0.000,0.000,0.000,1.000,0,0
22:54:49.948,INSPECTING,10.739,0.001,2.271,0.00,0.00,77.59,0.442,0.426,0.442,0.426,0.426,0,NONE,INSPECT_SW_R_HI,0.000,0.000,0.000,1.000,0,0
22:54:50.153,INSPECTING,10.739,0.001,2.271,0.00,0.00,89.05,0.405,0.420,0.405,0.420,0.420,0,NONE,INSPECT_SW_R_HI,0.000,0.000,0.000,0.700,0,0
22:54:50.355,INSPECTING,10.739,0.001,2.271,0.00,0.00,84.04,0.390,0.419,0.390,0.419,0.419,0,NONE,INSPECT_RY_HI_2,0.000,0.000,0.000,-0.760,0,0
22:54:50.565,INSPECTING,10.739,0.001,2.271,0.00,0.00,74.09,0.403,0.421,0.403,0.421,0.421,0,NONE,INSPECT_RY_HI_2,0.000,0.000,0.000,-0.942,0,0
22:54:50.768,INSPECTING,10.739,0.001,2.271,0.00,0.00,62.99,0.433,0.423,0.433,0.423,0.423,0,NONE,INSPECT_RY_HI_2,0.000,0.000,0.000,-0.986,0,0
22:54:50.972,INSPECTING,10.739,0.001,2.271,0.00,0.00,51.62,0.468,0.421,0.468,0.421,0.421,0,NONE,INSPECT_RY_HI_2,0.000,0.000,0.000,-0.997,0,0
22:54:51.171,INSPECTING,10.739,0.001,2.271,0.00,0.00,40.18,0.512,0.433,0.512,0.433,0.434,0,NONE,INSPECT_RY_HI_2,0.000,0.000,0.000,-0.999,0,0
22:54:51.372,INSPECTING,10.739,0.001,2.271,0.00,0.00,28.73,0.594,0.471,0.594,0.472,0.470,0,NONE,INSPECT_RY_HI_2,0.000,0.000,0.000,-1.000,0,0
22:54:51.577,INSPECTING,10.739,0.001,2.271,0.00,0.00,17.27,0.746,0.515,0.746,0.515,0.516,0,NONE,INSPECT_RY_HI_2,0.000,0.000,0.000,-1.000,0,0
22:54:51.791,INSPECTING,10.739,0.001,2.271,0.00,0.00,5.81,1.121,0.576,1.121,0.579,0.576,0,NONE,INSPECT_RY_HI_2,0.000,0.000,0.000,-1.000,0,0
22:54:51.999,INSPECTING,10.739,0.001,2.271,0.00,0.00,0.08,1.711,0.657,1.711,0.658,0.663,0,NONE,INSPECT_GO_MID,0.000,0.000,-0.255,0.000,0,0
22:54:52.212,INSPECTING,10.739,0.001,2.207,0.00,0.00,0.08,2.057,0.709,2.057,0.710,0.711,0,NONE,INSPECT_GO_MID,0.000,0.000,-0.441,0.000,0,0
22:54:52.417,INSPECTING,10.739,0.001,2.116,0.00,0.00,0.08,2.140,0.722,2.140,0.722,0.724,0,NONE,INSPECT_GO_MID,0.000,0.000,-0.486,0.000,0,0
22:54:52.616,INSPECTING,10.739,0.001,2.018,0.00,0.00,0.08,2.160,0.724,2.160,0.724,0.735,0,NONE,INSPECT_GO_MID,0.000,0.000,-0.497,0.000,0,0
22:54:52.830,INSPECTING,10.739,0.001,1.919,0.00,0.00,0.08,2.165,0.727,2.165,0.725,0.733,0,NONE,INSPECT_GO_MID,0.000,0.000,-0.499,0.000,0,0
22:54:53.031,INSPECTING,10.739,0.001,1.819,0.00,0.00,0.08,2.166,0.730,2.166,0.725,0.733,0,NONE,INSPECT_GO_MID,0.000,0.000,-0.500,0.000,0,0
22:54:53.233,INSPECTING,10.739,0.001,1.719,0.00,0.00,0.08,2.166,0.728,2.166,0.725,0.733,0,NONE,INSPECT_GO_MID,0.000,0.000,-0.350,0.000,0,0
22:54:53.442,INSPECTING,10.739,0.001,1.684,0.00,0.00,-5.04,2.183,0.744,2.183,0.739,0.747,0,NONE,INSPECT_SW_L_MID,0.000,0.000,0.000,-0.760,0,0
22:54:53.658,INSPECTING,10.739,0.001,1.684,0.00,0.00,-14.97,2.801,0.888,2.801,0.878,0.889,0,NONE,INSPECT_SW_L_MID,0.000,0.000,0.000,-0.942,0,0
22:54:53.863,INSPECTING,10.739,0.001,1.684,0.00,0.00,-26.06,3.823,1.173,3.791,1.164,1.173,0,NONE,INSPECT_SW_L_MID,0.000,0.000,0.000,-0.986,0,0
22:54:54.082,INSPECTING,10.739,0.001,1.684,0.00,0.00,-37.44,4.424,2.077,4.385,2.089,2.058,0,NONE,INSPECT_SW_L_MID,0.000,0.000,0.000,-0.997,0,0
22:54:54.279,INSPECTING,10.739,0.001,1.684,0.00,0.00,-48.86,3.854,2.879,3.835,2.367,2.342,0,NONE,INSPECT_SW_L_MID,0.000,0.000,0.000,-0.999,0,0
22:54:54.467,INSPECTING,10.739,0.001,1.684,0.00,0.00,-60.32,3.053,3.766,3.046,2.545,2.463,0,NONE,INSPECT_SW_L_MID,0.000,0.000,0.000,-1.000,0,0
22:54:54.696,INSPECTING,10.739,0.001,1.684,0.00,0.00,-71.78,2.635,3.344,2.633,2.629,2.526,0,NONE,INSPECT_SW_L_MID,0.000,0.000,0.000,-1.000,0,0
22:54:54.893,INSPECTING,10.739,0.001,1.684,0.00,0.00,-83.24,2.428,3.004,2.428,2.667,2.559,0,NONE,INSPECT_SW_L_MID,0.000,0.000,0.000,-1.000,0,0
22:54:55.108,INSPECTING,10.739,0.001,1.684,0.00,0.00,-87.99,2.441,2.812,2.441,2.668,2.521,0,NONE,INSPECT_RY_MID_1,0.000,0.000,0.000,0.510,0,0
22:54:55.307,INSPECTING,10.739,0.001,1.684,0.00,0.00,-79.61,2.453,2.729,2.453,2.660,2.302,0,NONE,INSPECT_RY_MID_1,0.000,0.000,0.000,0.882,0,0
22:54:55.524,INSPECTING,10.739,0.001,1.684,0.00,0.00,-68.92,2.379,2.775,2.379,2.681,2.453,0,NONE,INSPECT_RY_MID_1,0.000,0.000,0.000,0.972,0,0
22:54:57.704,INSPECTING,10.739,0.001,1.684,0.00,0.00,-57.65,2.381,2.892,2.381,2.675,2.716,0,NONE,INSPECT_RY_MID_1,0.000,0.000,0.000,0.993,0,0
22:54:57.920,INSPECTING,10.739,0.001,1.684,0.00,0.00,-46.23,2.460,3.586,2.458,2.661,2.715,0,NONE,INSPECT_RY_MID_1,0.000,0.000,0.000,0.998,0,0
22:54:58.133,INSPECTING,10.739,0.001,1.684,0.00,0.00,-34.78,2.722,4.026,2.721,2.647,2.952,0,NONE,INSPECT_RY_MID_1,0.000,0.000,0.000,1.000,0,0
22:54:58.351,INSPECTING,10.739,0.001,1.684,0.00,0.00,-23.33,4.045,2.897,4.024,2.492,2.526,0,NONE,INSPECT_RY_MID_1,0.000,0.000,0.000,1.000,0,0
22:54:58.560,INSPECTING,10.739,0.001,1.684,0.00,0.00,-11.87,4.467,1.987,4.457,1.847,1.889,0,NONE,INSPECT_RY_MID_1,0.000,0.000,0.000,1.000,0,0
22:54:58.751,INSPECTING,10.739,0.001,1.684,0.00,0.00,-0.41,3.396,1.189,3.393,1.145,1.165,0,NONE,INSPECT_RY_MID_1,0.000,0.000,0.000,0.700,0,0
22:54:58.962,INSPECTING,10.739,0.001,1.684,0.00,0.00,5.17,2.407,0.832,2.406,0.818,0.825,0,NONE,INSPECT_SW_R_MID,0.000,0.000,0.000,0.760,0,0
22:54:59.169,INSPECTING,10.739,0.001,1.684,0.00,0.00,15.12,1.525,0.651,1.525,0.649,0.650,0,NONE,INSPECT_SW_R_MID,0.000,0.000,0.000,0.942,0,0
22:54:59.368,INSPECTING,10.739,0.001,1.684,0.00,0.00,26.22,1.021,0.564,1.021,0.564,0.565,0,NONE,INSPECT_SW_R_MID,0.000,0.000,0.000,0.986,0,0
22:54:59.571,INSPECTING,10.739,0.001,1.684,0.00,0.00,37.59,0.740,0.514,0.740,0.514,0.515,0,NONE,INSPECT_SW_R_MID,0.000,0.000,0.000,0.997,0,0
22:54:59.773,INSPECTING,10.739,0.001,1.684,0.00,0.00,49.03,0.590,0.462,0.590,0.463,0.462,0,NONE,INSPECT_SW_R_MID,0.000,0.000,0.000,0.999,0,0
22:54:59.980,INSPECTING,10.739,0.001,1.684,0.00,0.00,60.48,0.512,0.432,0.512,0.432,0.432,0,NONE,INSPECT_SW_R_MID,0.000,0.000,0.000,1.000,0,0
22:55:00.184,INSPECTING,10.739,0.001,1.684,0.00,0.00,71.94,0.465,0.424,0.465,0.424,0.424,0,NONE,INSPECT_SW_R_MID,0.000,0.000,0.000,1.000,0,0
22:55:00.389,INSPECTING,10.739,0.001,1.684,0.00,0.00,83.40,0.425,0.424,0.425,0.424,0.424,0,NONE,INSPECT_SW_R_MID,0.000,0.000,0.000,1.000,0,0
22:55:00.599,INSPECTING,10.739,0.001,1.684,0.00,0.00,87.78,0.395,0.420,0.395,0.420,0.420,0,NONE,INSPECT_RY_MID_2,0.000,0.000,0.000,-0.510,0,0
22:55:00.804,INSPECTING,10.739,0.001,1.684,0.00,0.00,79.40,0.392,0.418,0.392,0.418,0.419,0,NONE,INSPECT_RY_MID_2,0.000,0.000,0.000,-0.882,0,0
22:55:01.002,INSPECTING,10.739,0.001,1.684,0.00,0.00,68.68,0.414,0.424,0.414,0.424,0.424,0,NONE,INSPECT_RY_MID_2,0.000,0.000,0.000,-0.972,0,0
22:55:01.209,INSPECTING,10.739,0.001,1.684,0.00,0.00,57.40,0.445,0.421,0.445,0.421,0.421,0,NONE,INSPECT_RY_MID_2,0.000,0.000,0.000,-0.993,0,0
22:55:01.411,INSPECTING,10.739,0.001,1.684,0.00,0.00,45.99,0.483,0.424,0.483,0.424,0.424,0,NONE,INSPECT_RY_MID_2,0.000,0.000,0.000,-0.998,0,0
22:55:01.614,INSPECTING,10.739,0.001,1.684,0.00,0.00,34.55,0.538,0.445,0.538,0.447,0.445,0,NONE,INSPECT_RY_MID_2,0.000,0.000,0.000,-1.000,0,0
22:55:01.818,INSPECTING,10.739,0.001,1.684,0.00,0.00,23.09,0.645,0.497,0.645,0.497,0.497,0,NONE,INSPECT_RY_MID_2,0.000,0.000,0.000,-1.000,0,0
22:55:02.019,INSPECTING,10.739,0.001,1.684,0.00,0.00,11.63,0.857,0.532,0.857,0.533,0.534,0,NONE,INSPECT_RY_MID_2,0.000,0.000,0.000,-1.000,0,0
22:55:02.233,INSPECTING,10.739,0.001,1.684,0.00,0.00,0.17,1.430,0.625,1.430,0.619,0.617,0,NONE,INSPECT_RY_MID_2,0.000,0.000,0.000,-0.700,0,0
22:55:02.448,INSPECTING,10.739,0.001,1.659,0.00,0.00,0.17,1.979,0.701,1.979,0.699,0.705,0,NONE,INSPECT_DOWN,0.000,0.000,-0.380,0.000,0,0
22:55:02.652,INSPECTING,10.739,0.001,1.576,0.00,0.00,0.17,2.112,0.721,2.112,0.717,0.725,0,NONE,INSPECT_DOWN,0.000,0.000,-0.471,0.000,0,0
22:55:02.865,INSPECTING,10.739,0.001,1.481,0.00,0.00,0.17,2.143,0.729,2.143,0.720,0.731,0,NONE,INSPECT_DOWN,0.000,0.000,-0.493,0.000,0,0
22:55:03.063,INSPECTING,10.739,0.001,1.382,0.00,0.00,0.17,2.151,0.731,2.151,0.724,0.745,0,NONE,INSPECT_DOWN,0.000,0.000,-0.498,0.000,0,0
22:55:03.270,INSPECTING,10.739,0.001,1.282,0.00,0.00,0.17,2.153,0.733,2.153,0.730,0.752,0,NONE,INSPECT_DOWN,0.000,0.000,-0.500,0.000,0,0
22:55:03.478,INSPECTING,10.739,0.001,1.181,0.00,0.00,0.17,2.153,0.740,2.153,0.733,0.750,0,NONE,INSPECT_DOWN,0.000,0.000,-0.350,0.000,0,0
22:55:03.690,INSPECTING,10.739,0.001,1.147,0.00,0.00,-5.12,2.169,0.752,2.169,0.749,0.755,0,NONE,INSPECT_SW_L_LO,0.000,0.000,0.000,-0.760,0,0
22:55:03.895,INSPECTING,10.739,0.001,1.147,0.00,0.00,-15.07,2.676,0.861,2.660,0.862,0.861,0,NONE,INSPECT_SW_L_LO,0.000,0.000,0.000,-0.942,0,0
22:55:04.108,INSPECTING,10.739,0.001,1.147,0.00,0.00,-26.16,3.551,1.203,3.536,1.174,1.179,0,NONE,INSPECT_SW_L_LO,0.000,0.000,0.000,-0.986,0,0
22:55:04.320,INSPECTING,10.739,0.001,1.147,0.00,0.00,-37.54,3.209,1.879,3.194,1.869,1.483,0,NONE,INSPECT_SW_L_LO,0.000,0.000,0.000,-0.997,0,0
22:55:04.518,INSPECTING,10.739,0.001,1.147,0.00,0.00,-48.97,3.116,2.433,3.105,2.850,1.850,0,NONE,INSPECT_SW_L_LO,0.000,0.000,0.000,-0.999,0,0
22:55:04.728,INSPECTING,10.739,0.001,1.147,0.00,0.00,-60.43,2.734,2.845,2.731,3.336,1.754,0,NONE,INSPECT_SW_L_LO,0.000,0.000,0.000,-1.000,0,0
22:55:04.921,INSPECTING,10.739,0.001,1.147,0.00,0.00,-71.89,2.576,2.865,2.575,3.274,2.077,0,NONE,INSPECT_SW_L_LO,0.000,0.000,0.000,-1.000,0,0
22:55:05.142,INSPECTING,10.739,0.001,1.147,0.00,0.00,-83.34,2.410,2.851,2.409,2.991,1.386,0,NONE,INSPECT_SW_L_LO,0.000,0.000,0.000,-1.000,0,0
22:55:05.346,INSPECTING,10.739,0.001,1.147,0.00,0.00,-88.10,2.435,2.754,2.435,2.814,1.578,0,NONE,INSPECT_RY_LO_1,0.000,0.000,0.000,0.510,0,0
22:55:05.552,INSPECTING,10.739,0.001,1.147,0.00,0.00,-79.72,2.459,2.706,2.459,2.727,1.629,0,NONE,INSPECT_RY_LO_1,0.000,0.000,0.000,0.882,0,0
22:55:05.751,INSPECTING,10.739,0.001,1.147,0.00,0.00,-69.00,2.384,2.753,2.384,2.776,1.448,0,NONE,INSPECT_RY_LO_1,0.000,0.000,0.000,0.972,0,0
22:55:05.969,INSPECTING,10.739,0.001,1.147,0.00,0.00,-57.72,2.379,2.867,2.379,2.895,1.585,0,NONE,INSPECT_RY_LO_1,0.000,0.000,0.000,0.993,0,0
22:55:06.186,INSPECTING,10.739,0.001,1.147,0.00,0.00,-46.30,2.460,2.915,2.460,3.336,1.624,0,NONE,INSPECT_RY_LO_1,0.000,0.000,0.000,0.998,0,0
22:55:06.403,INSPECTING,10.739,0.001,1.147,0.00,0.00,-34.86,2.614,2.907,2.614,3.465,1.648,0,NONE,INSPECT_RY_LO_1,0.000,0.000,0.000,1.000,0,0
22:55:06.607,INSPECTING,10.739,0.001,1.147,0.00,0.00,-23.40,2.833,2.712,2.784,2.996,1.784,0,NONE,INSPECT_RY_LO_1,0.000,0.000,0.000,1.000,0,0
22:55:06.809,INSPECTING,10.739,0.001,1.147,0.00,0.00,-11.94,3.147,1.823,3.107,1.884,1.486,0,NONE,INSPECT_RY_LO_1,0.000,0.000,0.000,1.000,0,0
22:55:07.009,INSPECTING,10.739,0.001,1.147,0.00,0.00,-0.48,3.000,1.229,2.981,1.246,1.117,0,NONE,INSPECT_RY_LO_1,0.000,0.000,0.000,0.700,0,0
22:55:07.221,INSPECTING,10.739,0.001,1.147,0.00,0.00,5.30,2.214,0.794,2.210,0.796,0.776,0,NONE,INSPECT_SW_R_LO,0.000,0.000,0.000,0.760,0,0
22:55:07.431,INSPECTING,10.739,0.001,1.147,0.00,0.00,15.20,1.543,0.653,1.542,0.656,0.650,0,NONE,INSPECT_SW_R_LO,0.000,0.000,0.000,0.942,0,0
22:55:07.621,INSPECTING,10.739,0.001,1.147,0.00,0.00,26.29,1.027,0.564,1.027,0.565,0.564,0,NONE,INSPECT_SW_R_LO,0.000,0.000,0.000,0.986,0,0
22:55:07.828,INSPECTING,10.739,0.001,1.147,0.00,0.00,37.66,0.741,0.513,0.741,0.514,0.514,0,NONE,INSPECT_SW_R_LO,0.000,0.000,0.000,0.997,0,0
22:55:08.032,INSPECTING,10.739,0.001,1.147,0.00,0.00,49.10,0.590,0.463,0.590,0.462,0.463,0,NONE,INSPECT_SW_R_LO,0.000,0.000,0.000,0.999,0,0
22:55:08.231,INSPECTING,10.739,0.001,1.147,0.00,0.00,60.55,0.515,0.432,0.515,0.432,0.432,0,NONE,INSPECT_SW_R_LO,0.000,0.000,0.000,1.000,0,0
22:55:08.444,INSPECTING,10.739,0.001,1.147,0.00,0.00,72.01,0.466,0.424,0.466,0.424,0.424,0,NONE,INSPECT_SW_R_LO,0.000,0.000,0.000,1.000,0,0
22:55:08.650,INSPECTING,10.739,0.001,1.147,0.00,0.00,83.47,0.426,0.424,0.426,0.424,0.423,0,NONE,INSPECT_SW_R_LO,0.000,0.000,0.000,1.000,0,0
22:55:08.861,INSPECTING,10.739,0.001,1.147,0.00,0.00,87.85,0.395,0.420,0.395,0.420,0.420,0,NONE,INSPECT_RY_LO_2,0.000,0.000,0.000,-0.510,0,0
22:55:09.059,INSPECTING,10.739,0.001,1.147,0.00,0.00,79.52,0.392,0.419,0.392,0.418,0.419,0,NONE,INSPECT_RY_LO_2,0.000,0.000,0.000,-0.882,0,0
22:55:09.260,INSPECTING,10.739,0.001,1.147,0.00,0.00,68.80,0.414,0.425,0.414,0.424,0.424,0,NONE,INSPECT_RY_LO_2,0.000,0.000,0.000,-0.972,0,0
22:55:09.478,INSPECTING,10.739,0.001,1.147,0.00,0.00,57.52,0.445,0.421,0.445,0.421,0.422,0,NONE,INSPECT_RY_LO_2,0.000,0.000,0.000,-0.993,0,0
22:55:09.680,INSPECTING,10.739,0.001,1.147,0.00,0.00,46.10,0.485,0.423,0.485,0.423,0.423,0,NONE,INSPECT_RY_LO_2,0.000,0.000,0.000,-0.998,0,0
22:55:09.884,INSPECTING,10.739,0.001,1.147,0.00,0.00,34.65,0.537,0.445,0.537,0.445,0.445,0,NONE,INSPECT_RY_LO_2,0.000,0.000,0.000,-1.000,0,0
22:55:10.085,INSPECTING,10.739,0.001,1.147,0.00,0.00,23.19,0.644,0.492,0.644,0.492,0.495,0,NONE,INSPECT_RY_LO_2,0.000,0.000,0.000,-1.000,0,0
22:55:10.292,INSPECTING,10.739,0.001,1.147,0.00,0.00,11.73,0.848,0.531,0.848,0.532,0.533,0,NONE,INSPECT_RY_LO_2,0.000,0.000,0.000,-1.000,0,0
22:55:10.495,INSPECTING,10.739,0.001,1.147,0.00,0.00,0.28,1.433,0.616,1.433,0.617,0.620,0,NONE,INSPECT_RY_LO_2,0.000,0.000,0.000,-0.700,0,0
22:55:10.699,INSPECTING,10.739,0.001,1.173,0.00,0.00,0.28,1.968,0.716,1.968,0.708,0.720,0,NONE,INSPECT_RET_Z,0.000,0.000,0.380,0.000,0,0
22:55:10.904,INSPECTING,10.739,0.001,1.256,0.00,0.00,0.28,2.100,0.733,2.100,0.730,0.745,0,NONE,INSPECT_RET_Z,0.000,0.000,0.471,0.000,0,0
22:55:11.108,INSPECTING,10.739,0.001,1.351,0.00,0.00,0.28,2.131,0.735,2.131,0.734,0.749,0,NONE,INSPECT_RET_Z,0.000,0.000,0.493,0.000,0,0
22:55:11.309,INSPECTING,10.739,0.001,1.451,0.00,0.00,0.28,2.139,0.734,2.139,0.730,0.750,0,NONE,INSPECT_RET_Z,0.000,0.000,0.498,0.000,0,0
22:55:11.537,INSPECTING,10.739,0.001,1.549,0.00,0.00,0.28,2.140,0.733,2.140,0.726,0.742,0,NONE,INSPECT_RET_Z,0.000,0.000,0.500,0.000,0,0
22:55:11.748,INSPECTING,10.739,0.001,1.651,0.00,0.00,0.28,2.141,0.733,2.141,0.726,0.735,0,NONE,INSPECT_RET_Z,0.000,0.000,0.500,0.000,0,0
22:55:11.948,INSPECTING,10.733,0.001,1.735,0.00,0.00,0.28,2.141,0.729,2.141,0.726,0.735,0,NONE,INSPECT_BACKUP,0.000,-0.102,0.000,0.000,0,0
22:55:12.149,INSPECTING,10.705,0.001,1.735,0.00,0.00,0.28,2.149,0.737,2.149,0.735,0.743,0,NONE,INSPECT_BACKUP,0.000,-0.176,0.000,0.000,0,0
22:55:12.370,INSPECTING,10.667,0.001,1.735,0.00,0.00,0.28,2.196,0.765,2.196,0.763,0.777,0,NONE,INSPECT_BACKUP,0.000,-0.194,0.000,0.000,0,0
22:55:12.581,INSPECTING,10.628,0.000,1.735,0.00,0.00,0.28,2.229,0.787,2.229,0.786,0.797,0,NONE,INSPECT_BACKUP,0.000,-0.199,0.000,0.000,0,0
22:55:12.786,INSPECTING,10.588,0.000,1.735,0.00,0.00,0.28,2.278,0.819,2.278,0.819,0.835,0,NONE,INSPECT_BACKUP,0.000,-0.200,0.000,0.000,0,0
22:55:12.993,INSPECTING,10.548,0.000,1.735,0.00,0.00,0.28,2.322,0.857,2.322,0.857,0.860,0,NONE,INSPECT_BACKUP,0.000,-0.200,0.000,0.000,0,0
22:55:13.195,INSPECTING,10.508,-0.000,1.735,0.00,0.00,0.28,2.371,0.890,2.371,0.890,0.888,0,NONE,INSPECT_BACKUP,0.000,-0.200,0.000,0.000,0,0
22:55:13.390,INSPECTING,10.468,-0.000,1.735,0.00,0.00,0.28,2.417,0.923,2.417,0.923,0.916,0,NONE,INSPECT_BACKUP,0.000,-0.200,0.000,0.000,0,0
22:55:13.617,INSPECTING,10.448,-0.000,1.735,0.00,0.00,0.28,2.462,0.955,2.462,0.955,0.953,0,NONE,INSPECT_UP,0.000,0.000,0.255,0.000,0,0
22:55:13.814,INSPECTING,10.448,-0.000,1.799,0.00,0.00,0.28,2.482,0.966,2.482,0.966,0.965,0,NONE,INSPECT_UP,0.000,0.000,0.441,0.000,0,0
22:55:14.027,INSPECTING,10.448,-0.000,1.891,0.00,0.00,0.28,2.488,0.968,2.488,0.968,0.967,0,NONE,INSPECT_UP,0.000,0.000,0.486,0.000,0,0
22:55:14.231,INSPECTING,10.448,-0.000,1.989,0.00,0.00,0.28,2.490,0.969,2.490,0.969,0.970,0,NONE,INSPECT_UP,0.000,0.000,0.497,0.000,0,0
22:55:14.428,INSPECTING,10.448,-0.000,2.088,0.00,0.00,0.28,2.490,0.971,2.490,0.969,0.971,0,NONE,INSPECT_UP,0.000,0.000,0.499,0.000,0,0
22:55:14.645,INSPECTING,10.448,-0.000,2.187,0.00,0.00,0.28,2.499,0.971,2.499,0.969,0.971,0,NONE,INSPECT_UP,0.000,0.000,0.500,0.000,0,0
22:55:14.851,INSPECTING,10.448,-0.000,2.287,0.00,0.00,0.28,2.506,0.970,2.506,0.969,0.972,0,NONE,INSPECT_UP,0.000,0.000,0.500,0.000,0,0
22:55:15.143,INSPECTING,10.448,-0.000,2.387,0.00,0.00,0.28,2.501,0.970,2.507,0.970,0.972,0,NONE,INSPECT_UP,0.000,0.000,0.350,0.000,0,0
22:55:15.348,INSPECTING,10.448,-0.000,2.422,0.00,0.00,-4.93,2.492,0.981,2.511,0.981,0.986,0,NONE,INSPECT_SW_L_HI,0.000,0.000,0.000,-0.760,0,0
22:55:15.556,INSPECTING,10.448,-0.000,2.422,0.00,0.00,-14.86,2.496,1.087,2.541,1.087,1.098,0,NONE,INSPECT_SW_L_HI,0.000,0.000,0.000,-0.942,0,0
22:55:15.783,INSPECTING,10.448,-0.000,2.422,0.00,0.00,-25.95,2.438,1.439,2.472,1.285,1.443,0,NONE,INSPECT_SW_L_HI,0.000,0.000,0.000,-0.986,0,0
22:55:15.996,INSPECTING,10.448,-0.000,2.422,0.00,0.00,-37.32,2.413,2.111,2.446,1.352,2.206,0,NONE,INSPECT_SW_L_HI,0.000,0.000,0.000,-0.997,0,0
22:55:16.209,INSPECTING,10.448,-0.000,2.422,0.00,0.00,-48.76,2.442,2.383,2.483,1.376,3.118,0,NONE,INSPECT_SW_L_HI,0.000,0.000,0.000,-0.999,0,0
22:55:16.408,INSPECTING,10.448,-0.000,2.422,0.00,0.00,-60.21,2.434,2.445,2.465,1.381,3.538,0,NONE,INSPECT_SW_L_HI,0.000,0.000,0.000,-1.000,0,0
22:55:16.617,INSPECTING,10.448,-0.000,2.422,0.00,0.00,-71.67,2.347,2.500,2.359,1.384,3.128,0,NONE,INSPECT_SW_L_HI,0.000,0.000,0.000,-1.000,0,0
22:55:16.823,INSPECTING,10.448,-0.000,2.422,0.00,0.00,-83.13,2.302,2.544,2.309,1.383,2.939,0,NONE,INSPECT_SW_L_HI,0.000,0.000,0.000,-1.000,0,0
22:55:17.053,INSPECTING,10.448,-0.000,2.422,0.00,0.00,-94.59,2.344,2.519,2.349,1.384,2.727,0,NONE,INSPECT_SW_L_HI,0.000,0.000,0.000,-1.000,0,0
22:55:17.249,INSPECTING,10.448,-0.000,2.422,0.00,0.00,-106.05,2.397,2.491,2.418,1.382,2.716,0,NONE,INSPECT_SW_L_HI,0.000,0.000,0.000,-1.000,0,0
22:55:17.462,INSPECTING,10.448,-0.000,2.422,0.00,0.00,-117.51,2.396,2.501,2.431,1.379,2.765,0,NONE,INSPECT_SW_L_HI,0.000,0.000,0.000,-1.000,0,0
22:55:17.662,INSPECTING,10.448,-0.000,2.422,0.00,0.00,-128.96,2.352,2.491,2.375,1.368,2.822,0,NONE,INSPECT_SW_L_HI,0.000,0.000,0.000,-0.700,0,0
22:55:17.870,INSPECTING,10.448,-0.000,2.422,0.00,0.00,-124.61,2.344,2.489,2.364,1.367,2.895,0,NONE,INSPECT_RY_HI_1,0.000,0.000,0.000,0.760,0,0
22:55:18.108,INSPECTING,10.448,-0.000,2.422,0.00,0.00,-114.69,2.351,2.485,2.375,1.363,2.853,0,NONE,INSPECT_RY_HI_1,0.000,0.000,0.000,0.942,0,0
22:55:18.319,INSPECTING,10.448,-0.000,2.422,0.00,0.00,-103.60,2.370,2.505,2.388,1.369,2.801,0,NONE,INSPECT_RY_HI_1,0.000,0.000,0.000,0.986,0,0
22:55:18.536,INSPECTING,10.448,-0.000,2.422,0.00,0.00,-92.23,2.413,2.495,2.442,1.379,2.774,0,NONE,INSPECT_RY_HI_1,0.000,0.000,0.000,0.997,0,0
22:55:18.750,INSPECTING,10.448,-0.000,2.422,0.00,0.00,-80.79,2.416,2.484,2.439,1.381,2.690,0,NONE,INSPECT_RY_HI_1,0.000,0.000,0.000,0.999,0,0
22:55:18.948,INSPECTING,10.448,-0.000,2.422,0.00,0.00,-69.34,2.337,2.545,2.347,1.381,2.687,0,NONE,INSPECT_RY_HI_1,0.000,0.000,0.000,1.000,0,0
22:55:19.146,INSPECTING,10.448,-0.000,2.422,0.00,0.00,-57.88,2.294,2.547,2.299,1.381,2.755,0,NONE,INSPECT_RY_HI_1,0.000,0.000,0.000,1.000,0,0
22:55:19.355,INSPECTING,10.448,-0.000,2.422,0.00,0.00,-46.42,2.364,2.500,2.366,1.384,3.157,0,NONE,INSPECT_RY_HI_1,0.000,0.000,0.000,1.000,0,0
22:55:19.576,INSPECTING,10.448,-0.000,2.422,0.00,0.00,-34.96,2.429,2.506,2.453,1.388,3.627,0,NONE,INSPECT_RY_HI_1,0.000,0.000,0.000,1.000,0,0
22:55:19.795,INSPECTING,10.448,-0.000,2.422,0.00,0.00,-23.50,2.422,2.509,2.449,1.389,3.374,0,NONE,INSPECT_RY_HI_1,0.000,0.000,0.000,1.000,0,0
22:55:20.003,INSPECTING,10.448,-0.000,2.422,0.00,0.00,-12.04,2.408,2.230,2.447,1.395,2.561,0,NONE,INSPECT_RY_HI_1,0.000,0.000,0.000,1.000,0,0
22:55:20.197,INSPECTING,10.448,-0.000,2.422,0.00,0.00,-0.59,2.432,1.601,2.466,1.303,1.714,0,NONE,INSPECT_RY_HI_1,0.000,0.000,0.000,0.700,0,0
22:55:20.401,INSPECTING,10.448,-0.000,2.422,0.00,0.00,5.00,2.438,1.115,2.451,1.042,1.143,0,NONE,INSPECT_SW_R_HI,0.000,0.000,0.000,0.760,0,0
22:55:20.606,INSPECTING,10.448,-0.000,2.422,0.00,0.00,14.92,2.023,0.903,2.026,0.885,0.908,0,NONE,INSPECT_SW_R_HI,0.000,0.000,0.000,0.942,0,0
22:55:20.811,INSPECTING,10.448,-0.000,2.422,0.00,0.00,26.02,1.290,0.742,1.290,0.738,0.743,0,NONE,INSPECT_SW_R_HI,0.000,0.000,0.000,0.986,0,0
22:55:21.009,INSPECTING,10.448,-0.000,2.422,0.00,0.00,37.39,0.956,0.630,0.956,0.630,0.629,0,NONE,INSPECT_SW_R_HI,0.000,0.000,0.000,0.997,0,0
22:55:21.218,INSPECTING,10.448,-0.000,2.422,0.00,0.00,48.83,0.819,0.574,0.819,0.573,0.574,0,NONE,INSPECT_SW_R_HI,0.000,0.000,0.000,0.999,0,0
22:55:21.433,INSPECTING,10.448,-0.000,2.422,0.00,0.00,60.29,0.651,0.522,0.651,0.522,0.522,0,NONE,INSPECT_SW_R_HI,0.000,0.000,0.000,1.000,0,0
22:55:21.630,INSPECTING,10.448,-0.000,2.422,0.00,0.00,71.74,0.567,0.513,0.567,0.513,0.513,0,NONE,INSPECT_SW_R_HI,0.000,0.000,0.000,1.000,0,0
22:55:21.835,INSPECTING,10.448,-0.000,2.422,0.00,0.00,83.20,0.522,0.512,0.522,0.512,0.512,0,NONE,INSPECT_SW_R_HI,0.000,0.000,0.000,1.000,0,0
22:55:22.045,INSPECTING,10.448,-0.000,2.422,0.00,0.00,94.66,0.469,0.503,0.469,0.503,0.503,0,NONE,INSPECT_SW_R_HI,0.000,0.000,0.000,1.000,0,0
22:55:22.243,INSPECTING,10.448,-0.000,2.422,0.00,0.00,106.12,0.451,0.515,0.451,0.515,0.515,0,NONE,INSPECT_SW_R_HI,0.000,0.000,0.000,1.000,0,0
22:55:22.458,INSPECTING,10.448,-0.000,2.422,0.00,0.00,117.58,0.452,0.538,0.452,0.538,0.538,0,NONE,INSPECT_SW_R_HI,0.000,0.000,0.000,1.000,0,0
22:55:22.657,INSPECTING,10.448,-0.000,2.422,0.00,0.00,129.04,0.470,0.591,0.470,0.591,0.591,0,NONE,INSPECT_SW_R_HI,0.000,0.000,0.000,0.700,0,0
22:55:22.868,INSPECTING,10.448,-0.000,2.422,0.00,0.00,124.03,0.491,0.650,0.491,0.638,0.643,0,NONE,INSPECT_RY_HI_2,0.000,0.000,0.000,-0.760,0,0
22:55:23.079,INSPECTING,10.448,-0.000,2.422,0.00,0.00,114.08,0.479,0.615,0.479,0.613,0.613,0,NONE,INSPECT_RY_HI_2,0.000,0.000,0.000,-0.942,0,0
22:55:23.281,INSPECTING,10.448,-0.000,2.422,0.00,0.00,102.98,0.458,0.565,0.458,0.565,0.565,0,NONE,INSPECT_RY_HI_2,0.000,0.000,0.000,-0.986,0,0
22:55:23.488,INSPECTING,10.448,-0.000,2.422,0.00,0.00,91.61,0.449,0.519,0.449,0.519,0.519,0,NONE,INSPECT_RY_HI_2,0.000,0.000,0.000,-0.997,0,0
22:55:23.682,INSPECTING,10.448,-0.000,2.422,0.00,0.00,80.17,0.463,0.505,0.463,0.505,0.505,0,NONE,INSPECT_RY_HI_2,0.000,0.000,0.000,-0.999,0,0
22:55:23.885,INSPECTING,10.448,-0.000,2.422,0.00,0.00,68.72,0.489,0.510,0.489,0.510,0.510,0,NONE,INSPECT_RY_HI_2,0.000,0.000,0.000,-1.000,0,0
22:55:24.089,INSPECTING,10.448,-0.000,2.422,0.00,0.00,57.26,0.548,0.508,0.548,0.509,0.508,0,NONE,INSPECT_RY_HI_2,0.000,0.000,0.000,-1.000,0,0
22:55:24.300,INSPECTING,10.448,-0.000,2.422,0.00,0.00,45.80,0.631,0.516,0.631,0.516,0.516,0,NONE,INSPECT_RY_HI_2,0.000,0.000,0.000,-1.000,0,0
22:55:24.501,INSPECTING,10.448,-0.000,2.422,0.00,0.00,34.34,0.736,0.548,0.736,0.547,0.548,0,NONE,INSPECT_RY_HI_2,0.000,0.000,0.000,-1.000,0,0
22:55:24.703,INSPECTING,10.448,-0.000,2.422,0.00,0.00,22.88,0.891,0.612,0.891,0.611,0.611,0,NONE,INSPECT_RY_HI_2,0.000,0.000,0.000,-1.000,0,0
22:55:24.909,INSPECTING,10.448,-0.000,2.422,0.00,0.00,11.43,1.107,0.697,1.107,0.699,0.700,0,NONE,INSPECT_RY_HI_2,0.000,0.000,0.000,-1.000,0,0
22:55:25.117,INSPECTING,10.448,-0.000,2.422,0.00,0.00,-0.03,1.763,0.814,1.763,0.814,0.814,0,NONE,INSPECT_RY_HI_2,0.000,0.000,0.000,-0.700,0,0
22:55:25.328,INSPECTING,10.448,-0.000,2.396,0.00,0.00,-0.03,2.314,0.933,2.314,0.933,0.938,0,NONE,INSPECT_GO_MID,0.000,0.000,-0.380,0.000,0,0
22:55:25.541,INSPECTING,10.448,-0.000,2.314,0.00,0.00,-0.03,2.466,0.965,2.466,0.965,0.973,0,NONE,INSPECT_GO_MID,0.000,0.000,-0.471,0.000,0,0
22:55:25.743,INSPECTING,10.448,-0.000,2.218,0.00,0.00,-0.03,2.511,0.972,2.511,0.972,0.978,0,NONE,INSPECT_GO_MID,0.000,0.000,-0.493,0.000,0,0
22:55:25.954,INSPECTING,10.448,-0.000,2.120,0.00,0.00,-0.03,2.528,0.975,2.528,0.974,0.980,0,NONE,INSPECT_GO_MID,0.000,0.000,-0.498,0.000,0,0
22:55:26.156,INSPECTING,10.448,-0.000,2.020,0.00,0.00,-0.03,2.526,0.977,2.526,0.975,0.978,0,NONE,INSPECT_GO_MID,0.000,0.000,-0.500,0.000,0,0
22:55:26.361,INSPECTING,10.448,-0.000,1.920,0.00,0.00,-0.03,2.525,0.979,2.525,0.974,0.980,0,NONE,INSPECT_GO_MID,0.000,0.000,-0.500,0.000,0,0
22:55:26.569,INSPECTING,10.448,-0.000,1.820,0.00,0.00,-0.03,2.525,0.980,2.525,0.977,0.977,0,NONE,INSPECT_GO_MID,0.000,0.000,-0.500,0.000,0,0
22:55:26.773,INSPECTING,10.448,-0.000,1.735,0.00,0.00,-1.58,2.530,0.981,2.530,0.980,0.974,0,NONE,INSPECT_SW_L_MID,0.000,0.000,0.000,-0.510,0,0
22:55:26.975,INSPECTING,10.448,-0.000,1.735,0.00,0.00,-9.91,2.912,1.046,2.912,1.054,1.048,0,NONE,INSPECT_SW_L_MID,0.000,0.000,0.000,-0.882,0,0
22:55:27.196,INSPECTING,10.448,-0.000,1.735,0.00,0.00,-20.63,3.906,1.303,3.943,1.335,1.292,0,NONE,INSPECT_SW_L_MID,0.000,0.000,0.000,-0.972,0,0
22:55:27.409,INSPECTING,10.448,-0.000,1.735,0.00,0.00,-31.84,4.293,1.946,4.276,1.946,1.919,0,NONE,INSPECT_SW_L_MID,0.000,0.000,0.000,-0.993,0,0
22:55:27.617,INSPECTING,10.448,-0.000,1.735,0.00,0.00,-43.26,3.999,2.749,4.003,2.377,2.314,0,NONE,INSPECT_SW_L_MID,0.000,0.000,0.000,-0.998,0,0
22:55:27.819,INSPECTING,10.448,-0.000,1.735,0.00,0.00,-54.71,3.147,3.827,3.149,2.531,2.468,0,NONE,INSPECT_SW_L_MID,0.000,0.000,0.000,-1.000,0,0
22:55:28.026,INSPECTING,10.448,-0.000,1.735,0.00,0.00,-66.16,2.640,3.474,2.641,2.586,2.614,0,NONE,INSPECT_SW_L_MID,0.000,0.000,0.000,-1.000,0,0
22:55:28.224,INSPECTING,10.448,-0.000,1.735,0.00,0.00,-77.62,2.382,3.042,2.382,2.600,2.604,0,NONE,INSPECT_SW_L_MID,0.000,0.000,0.000,-1.000,0,0
22:55:28.431,INSPECTING,10.448,-0.000,1.735,0.00,0.00,-89.08,2.352,2.770,2.352,2.576,2.610,0,NONE,INSPECT_SW_L_MID,0.000,0.000,0.000,-1.000,0,0
22:55:28.649,INSPECTING,10.448,-0.000,1.735,0.00,0.00,-100.54,2.456,2.699,2.456,2.572,2.605,0,NONE,INSPECT_SW_L_MID,0.000,0.000,0.000,-1.000,0,0
22:55:28.847,INSPECTING,10.448,-0.000,1.735,0.00,0.00,-112.00,2.677,2.756,2.677,2.571,2.645,0,NONE,INSPECT_SW_L_MID,0.000,0.000,0.000,-1.000,0,0
22:55:29.055,INSPECTING,10.448,-0.000,1.735,0.00,0.00,-123.46,3.058,2.796,3.058,2.576,2.670,0,NONE,INSPECT_SW_L_MID,0.000,0.000,0.000,-1.000,0,0
22:55:29.250,INSPECTING,10.448,-0.000,1.735,0.00,0.00,-127.84,3.444,2.878,3.444,2.572,2.650,0,NONE,INSPECT_RY_MID_1,0.000,0.000,0.000,0.510,0,0
22:55:29.465,INSPECTING,10.448,-0.000,1.735,0.00,0.00,-119.46,3.444,2.878,3.444,2.577,2.348,0,NONE,INSPECT_RY_MID_1,0.000,0.000,0.000,0.882,0,0
22:55:29.685,INSPECTING,10.448,-0.000,1.735,0.00,0.00,-108.76,3.215,2.813,3.215,2.578,1.773,0,NONE,INSPECT_RY_MID_1,0.000,0.000,0.000,0.972,0,0
22:55:31.873,INSPECTING,10.448,-0.000,1.735,0.00,0.00,-97.48,2.965,2.798,2.965,2.578,2.378,0,NONE,INSPECT_RY_MID_1,0.000,0.000,0.000,0.993,0,0
22:55:32.090,INSPECTING,10.448,-0.000,1.735,0.00,0.00,-86.07,2.695,2.736,2.695,2.582,2.554,0,NONE,INSPECT_RY_MID_1,0.000,0.000,0.000,0.998,0,0
22:55:32.298,INSPECTING,10.448,-0.000,1.735,0.00,0.00,-74.62,2.489,2.654,2.489,2.575,2.565,0,NONE,INSPECT_RY_MID_1,0.000,0.000,0.000,1.000,0,0
22:55:32.508,INSPECTING,10.448,-0.000,1.735,0.00,0.00,-63.16,2.345,2.717,2.345,2.587,2.626,0,NONE,INSPECT_RY_MID_1,0.000,0.000,0.000,1.000,0,0
22:55:32.716,INSPECTING,10.448,-0.000,1.735,0.00,0.00,-51.70,2.333,2.887,2.333,2.605,2.726,0,NONE,INSPECT_RY_MID_1,0.000,0.000,0.000,1.000,0,0
22:55:32.917,INSPECTING,10.448,-0.000,1.735,0.00,0.00,-40.24,2.444,3.701,2.444,2.616,2.712,0,NONE,INSPECT_RY_MID_1,0.000,0.000,0.000,1.000,0,0
22:55:33.112,INSPECTING,10.448,-0.000,1.735,0.00,0.00,-28.78,2.973,3.754,2.973,2.606,2.679,0,NONE,INSPECT_RY_MID_1,0.000,0.000,0.000,1.000,0,0
22:55:33.332,INSPECTING,10.448,-0.000,1.735,0.00,0.00,-17.33,3.975,2.970,4.034,2.531,2.299,0,NONE,INSPECT_RY_MID_1,0.000,0.000,0.000,1.000,0,0
22:55:33.543,INSPECTING,10.448,-0.000,1.735,0.00,0.00,-5.87,4.152,1.826,4.140,1.717,1.658,0,NONE,INSPECT_RY_MID_1,0.000,0.000,0.000,1.000,0,0
22:55:33.743,INSPECTING,10.448,-0.000,1.735,0.00,0.00,1.78,3.244,1.292,3.240,1.260,1.241,0,NONE,INSPECT_SW_R_MID,0.000,0.000,0.000,0.510,0,0
22:55:33.945,INSPECTING,10.448,-0.000,1.735,0.00,0.00,10.12,2.364,0.949,2.364,0.950,0.942,0,NONE,INSPECT_SW_R_MID,0.000,0.000,0.000,0.882,0,0
22:55:34.143,INSPECTING,10.448,-0.000,1.735,0.00,0.00,20.83,1.627,0.821,1.627,0.819,0.815,0,NONE,INSPECT_SW_R_MID,0.000,0.000,0.000,0.972,0,0
22:55:34.346,INSPECTING,10.448,-0.000,1.735,0.00,0.00,32.10,1.138,0.687,1.138,0.692,0.686,0,NONE,INSPECT_SW_R_MID,0.000,0.000,0.000,0.993,0,0
22:55:34.548,INSPECTING,10.448,-0.000,1.735,0.00,0.00,43.51,0.872,0.594,0.872,0.595,0.595,0,NONE,INSPECT_SW_R_MID,0.000,0.000,0.000,0.998,0,0
22:55:34.748,INSPECTING,10.448,-0.000,1.735,0.00,0.00,54.96,0.724,0.539,0.724,0.539,0.540,0,NONE,INSPECT_SW_R_MID,0.000,0.000,0.000,1.000,0,0
22:55:34.949,INSPECTING,10.448,-0.000,1.735,0.00,0.00,66.42,0.610,0.515,0.610,0.515,0.515,0,NONE,INSPECT_SW_R_MID,0.000,0.000,0.000,1.000,0,0
22:55:35.156,INSPECTING,10.448,-0.000,1.735,0.00,0.00,77.88,0.542,0.514,0.542,0.514,0.514,0,NONE,INSPECT_SW_R_MID,0.000,0.000,0.000,1.000,0,0
22:55:35.356,INSPECTING,10.448,-0.000,1.735,0.00,0.00,89.33,0.489,0.505,0.489,0.505,0.505,0,NONE,INSPECT_SW_R_MID,0.000,0.000,0.000,1.000,0,0
22:55:35.560,INSPECTING,10.448,-0.000,1.735,0.00,0.00,100.79,0.459,0.505,0.459,0.505,0.506,0,NONE,INSPECT_SW_R_MID,0.000,0.000,0.000,1.000,0,0
22:55:35.777,INSPECTING,10.448,-0.000,1.735,0.00,0.00,112.25,0.451,0.524,0.451,0.525,0.526,0,NONE,INSPECT_SW_R_MID,0.000,0.000,0.000,1.000,0,0
22:55:35.978,INSPECTING,10.448,-0.000,1.735,0.00,0.00,123.71,0.461,0.571,0.461,0.571,0.571,0,NONE,INSPECT_SW_R_MID,0.000,0.000,0.000,1.000,0,0
22:55:36.189,INSPECTING,10.448,-0.000,1.735,0.00,0.00,128.09,0.490,0.635,0.490,0.639,0.635,0,NONE,INSPECT_RY_MID_2,0.000,0.000,0.000,-0.510,0,0
22:55:36.387,INSPECTING,10.448,-0.000,1.735,0.00,0.00,119.76,0.487,0.632,0.487,0.636,0.631,0,NONE,INSPECT_RY_MID_2,0.000,0.000,0.000,-0.882,0,0
22:55:36.594,INSPECTING,10.448,-0.000,1.735,0.00,0.00,109.05,0.466,0.586,0.466,0.587,0.586,0,NONE,INSPECT_RY_MID_2,0.000,0.000,0.000,-0.972,0,0
22:55:36.796,INSPECTING,10.448,-0.000,1.735,0.00,0.00,97.77,0.452,0.540,0.452,0.540,0.540,0,NONE,INSPECT_RY_MID_2,0.000,0.000,0.000,-0.993,0,0
22:55:36.998,INSPECTING,10.448,-0.000,1.735,0.00,0.00,86.35,0.451,0.512,0.451,0.513,0.512,0,NONE,INSPECT_RY_MID_2,0.000,0.000,0.000,-0.998,0,0
22:55:37.203,INSPECTING,10.448,-0.000,1.735,0.00,0.00,74.90,0.472,0.506,0.472,0.506,0.506,0,NONE,INSPECT_RY_MID_2,0.000,0.000,0.000,-1.000,0,0
22:55:37.403,INSPECTING,10.448,-0.000,1.735,0.00,0.00,63.45,0.515,0.511,0.515,0.511,0.511,0,NONE,INSPECT_RY_MID_2,0.000,0.000,0.000,-1.000,0,0
22:55:37.618,INSPECTING,10.448,-0.000,1.735,0.00,0.00,51.99,0.570,0.509,0.570,0.509,0.509,0,NONE,INSPECT_RY_MID_2,0.000,0.000,0.000,-1.000,0,0
22:55:37.819,INSPECTING,10.448,-0.000,1.735,0.00,0.00,40.53,0.670,0.522,0.670,0.523,0.522,0,NONE,INSPECT_RY_MID_2,0.000,0.000,0.000,-1.000,0,0
22:55:38.028,INSPECTING,10.448,-0.000,1.735,0.00,0.00,29.07,0.778,0.562,0.778,0.564,0.563,0,NONE,INSPECT_RY_MID_2,0.000,0.000,0.000,-1.000,0,0
22:55:38.236,INSPECTING,10.448,-0.000,1.735,0.00,0.00,17.61,0.972,0.644,0.972,0.646,0.646,0,NONE,INSPECT_RY_MID_2,0.000,0.000,0.000,-1.000,0,0
22:55:38.434,INSPECTING,10.448,-0.000,1.735,0.00,0.00,6.15,1.406,0.761,1.406,0.762,0.759,0,NONE,INSPECT_RY_MID_2,0.000,0.000,0.000,-1.000,0,0
22:55:38.643,INSPECTING,10.448,-0.000,1.735,0.00,0.00,0.42,2.142,0.895,2.142,0.895,0.896,0,NONE,INSPECT_DOWN,0.000,0.000,-0.255,0.000,0,0
22:55:38.858,INSPECTING,10.448,-0.000,1.672,0.00,0.00,0.42,2.407,0.950,2.407,0.950,0.951,0,NONE,INSPECT_DOWN,0.000,0.000,-0.441,0.000,0,0
22:55:39.061,INSPECTING,10.448,-0.000,1.580,0.00,0.00,0.42,2.470,0.963,2.470,0.962,0.964,0,NONE,INSPECT_DOWN,0.000,0.000,-0.486,0.000,0,0
22:55:39.270,INSPECTING,10.448,-0.000,1.481,0.00,0.00,0.42,2.486,0.966,2.486,0.967,0.967,0,NONE,INSPECT_DOWN,0.000,0.000,-0.497,0.000,0,0
22:55:39.491,INSPECTING,10.448,-0.000,1.383,0.00,0.00,0.42,2.489,0.967,2.489,0.970,0.967,0,NONE,INSPECT_DOWN,0.000,0.000,-0.499,0.000,0,0
22:55:39.776,INSPECTING,10.448,-0.000,1.283,0.00,0.00,0.42,2.490,0.967,2.490,0.970,0.968,0,NONE,INSPECT_DOWN,0.000,0.000,-0.500,0.000,0,0
22:55:39.965,INSPECTING,10.448,-0.000,1.183,0.00,0.00,0.42,2.490,0.968,2.490,0.969,0.971,0,NONE,INSPECT_DOWN,0.000,0.000,-0.500,0.000,0,0
22:55:40.205,INSPECTING,10.448,-0.000,1.082,0.00,0.00,0.42,2.490,0.968,2.490,0.969,0.971,0,NONE,INSPECT_DOWN,0.000,0.000,-0.350,0.000,0,0
22:55:40.407,INSPECTING,10.448,-0.000,1.048,0.00,0.00,-4.79,2.529,0.980,2.522,0.981,0.981,0,NONE,INSPECT_SW_L_LO,0.000,0.000,0.000,-0.760,0,0
22:55:40.642,INSPECTING,10.448,-0.000,1.048,0.00,0.00,-14.74,2.706,1.151,2.686,1.162,1.139,0,NONE,INSPECT_SW_L_LO,0.000,0.000,0.000,-0.942,0,0
22:55:40.830,INSPECTING,10.448,-0.000,1.048,0.00,0.00,-25.81,3.560,1.420,3.147,1.399,1.311,0,NONE,INSPECT_SW_L_LO,0.000,0.000,0.000,-0.986,0,0
22:55:41.031,INSPECTING,10.448,-0.000,1.048,0.00,0.00,-37.18,2.981,2.183,2.821,2.207,1.541,0,NONE,INSPECT_SW_L_LO,0.000,0.000,0.000,-0.997,0,0
22:55:41.246,INSPECTING,10.448,-0.000,1.048,0.00,0.00,-48.62,2.772,2.502,2.707,3.160,1.657,0,NONE,INSPECT_SW_L_LO,0.000,0.000,0.000,-0.999,0,0
22:55:41.458,INSPECTING,10.448,-0.000,1.048,0.00,0.00,-60.08,2.556,2.884,2.533,3.424,1.606,0,NONE,INSPECT_SW_L_LO,0.000,0.000,0.000,-1.000,0,0
22:55:41.671,INSPECTING,10.448,-0.000,1.048,0.00,0.00,-71.53,2.439,2.784,2.428,3.175,1.609,0,NONE,INSPECT_SW_L_LO,0.000,0.000,0.000,-1.000,0,0
22:55:41.866,INSPECTING,10.448,-0.000,1.048,0.00,0.00,-82.99,2.329,2.771,2.325,2.907,1.535,0,NONE,INSPECT_SW_L_LO,0.000,0.000,0.000,-1.000,0,0
22:55:42.080,INSPECTING,10.448,-0.000,1.048,0.00,0.00,-94.45,2.371,2.657,2.369,2.714,1.319,0,NONE,INSPECT_SW_L_LO,0.000,0.000,0.000,-1.000,0,0
22:55:42.288,INSPECTING,10.448,-0.000,1.048,0.00,0.00,-105.91,2.510,2.662,2.510,2.712,1.430,0,NONE,INSPECT_SW_L_LO,0.000,0.000,0.000,-1.000,0,0
22:55:42.500,INSPECTING,10.448,-0.000,1.048,0.00,0.00,-117.37,2.754,2.700,2.703,2.760,1.294,0,NONE,INSPECT_SW_L_LO,0.000,0.000,0.000,-1.000,0,0
22:55:42.703,INSPECTING,10.448,-0.000,1.048,0.00,0.00,-128.83,2.323,2.712,2.287,2.825,1.468,0,NONE,INSPECT_SW_L_LO,0.000,0.000,0.000,-0.700,0,0
22:55:42.932,INSPECTING,10.448,-0.000,1.048,0.00,0.00,-124.19,2.845,2.077,2.800,2.893,1.274,0,NONE,INSPECT_RY_LO_1,0.000,0.000,0.000,0.760,0,0
22:55:43.135,INSPECTING,10.448,-0.000,1.048,0.00,0.00,-114.47,2.446,2.486,2.417,2.846,1.394,0,NONE,INSPECT_RY_LO_1,0.000,0.000,0.000,0.942,0,0
22:55:43.345,INSPECTING,10.448,-0.000,1.048,0.00,0.00,-103.37,2.734,2.656,2.718,2.808,1.269,0,NONE,INSPECT_RY_LO_1,0.000,0.000,0.000,0.986,0,0
22:55:43.549,INSPECTING,10.448,-0.000,1.048,0.00,0.00,-92.00,2.699,2.693,2.690,2.776,1.406,0,NONE,INSPECT_RY_LO_1,0.000,0.000,0.000,0.997,0,0
22:55:43.756,INSPECTING,10.448,-0.000,1.048,0.00,0.00,-80.56,2.534,1.998,2.531,2.683,1.154,0,NONE,INSPECT_RY_LO_1,0.000,0.000,0.000,0.999,0,0
22:55:43.959,INSPECTING,10.448,-0.000,1.048,0.00,0.00,-69.11,2.422,2.330,2.421,2.669,1.451,0,NONE,INSPECT_RY_LO_1,0.000,0.000,0.000,1.000,0,0
22:55:44.177,INSPECTING,10.448,-0.000,1.048,0.00,0.00,-57.65,2.316,2.570,2.316,2.768,1.451,0,NONE,INSPECT_RY_LO_1,0.000,0.000,0.000,1.000,0,0
22:55:44.397,INSPECTING,10.448,-0.000,1.048,0.00,0.00,-46.19,2.375,2.708,2.375,3.167,1.483,0,NONE,INSPECT_RY_LO_1,0.000,0.000,0.000,1.000,0,0
22:55:44.597,INSPECTING,10.448,-0.000,1.048,0.00,0.00,-34.73,2.500,2.672,2.491,3.546,1.502,0,NONE,INSPECT_RY_LO_1,0.000,0.000,0.000,1.000,0,0
22:55:44.797,TURNING,10.448,-0.000,1.048,0.00,0.00,-26.14,2.562,2.608,2.533,3.454,1.509,0,NONE,TURNING,0.000,0.025,0.000,-0.224,0,0
22:55:44.994,TURNING,10.453,-0.003,1.048,0.00,0.00,-27.65,2.793,2.508,2.767,2.713,1.486,0,NONE,TURNING,0.000,0.044,0.000,-1.118,0,0
22:55:45.220,TURNING,10.461,-0.008,1.048,0.00,0.00,-41.89,2.704,2.584,2.695,2.928,1.495,0,NONE,TURNING,0.000,0.049,0.000,-1.332,0,0
22:55:45.418,TURNING,10.467,-0.016,1.048,0.00,0.00,-57.50,2.638,2.980,2.630,3.348,1.600,0,NONE,TURNING,0.000,0.050,0.000,-1.384,0,0
22:55:45.634,TURNING,10.471,-0.025,1.048,0.00,0.00,-73.45,2.459,2.846,2.451,3.222,1.563,0,NONE,TURNING,0.000,0.050,0.000,-1.396,0,0
22:55:45.862,TURNING,10.473,-0.034,1.048,0.00,0.00,-89.46,2.385,2.078,2.381,2.919,0.970,0,NONE,TURNING,0.000,0.050,0.000,-1.399,0,0
22:55:46.052,TURNING,10.472,-0.044,1.048,0.00,0.00,-105.50,2.480,2.439,2.478,2.754,1.313,0,NONE,TURNING,0.000,0.050,0.000,-1.400,0,0
22:55:46.259,TURNING,10.468,-0.053,1.048,0.00,0.00,-121.54,2.664,2.098,2.629,2.224,0.850,0,NONE,TURNING,0.000,0.050,0.000,-1.400,0,0
22:55:46.484,TURNING,10.461,-0.061,1.048,0.00,0.00,-137.58,2.841,2.105,2.829,2.708,1.263,0,NONE,TURNING,0.000,0.050,0.000,-1.400,0,0
22:55:46.681,TURNING,10.453,-0.067,1.048,0.00,0.00,-153.63,2.823,2.546,2.812,3.234,1.381,0,NONE,TURNING,0.000,0.050,0.000,-1.400,0,0
22:55:46.880,TURNING,10.444,-0.070,1.048,0.00,0.00,-169.67,3.017,2.589,3.007,3.515,1.504,0,NONE,TURNING,0.000,0.050,0.000,-1.400,0,0
22:55:47.080,SEARCHING,10.436,-0.071,1.048,0.00,0.00,-178.08,2.008,2.836,2.006,3.553,1.478,0,NONE,SEARCHING,0.000,0.425,0.239,-0.480,0,0
22:55:47.279,SEARCHING,10.321,-0.071,1.108,-0.00,0.00,179.19,1.655,2.706,1.655,3.532,1.578,0,NONE,SEARCHING,0.000,0.710,0.397,-0.115,0,0
22:55:47.486,SEARCHING,10.178,-0.068,1.189,-0.00,0.00,178.54,1.530,2.825,1.530,3.436,1.634,0,NONE,SEARCHING,0.000,0.778,0.404,-0.028,0,0
22:55:47.680,SEARCHING,10.028,-0.064,1.267,-0.00,0.00,178.39,1.550,3.114,1.550,3.311,1.776,0,NONE,SEARCHING,0.000,0.795,0.346,-0.007,0,0
22:55:47.879,SEARCHING,9.877,-0.060,1.332,-0.00,0.00,178.35,1.578,3.410,1.578,3.175,1.964,0,NONE,SEARCHING,0.000,0.799,0.275,-0.002,0,0
22:55:48.090,SEARCHING,9.725,-0.056,1.385,-0.00,0.00,178.34,1.645,3.660,1.645,3.070,2.041,0,NONE,SEARCHING,0.000,0.800,0.228,-0.000,0,0
22:55:48.286,SEARCHING,9.573,-0.051,1.429,-0.00,0.00,178.34,1.706,3.711,1.703,2.984,2.070,0,NONE,SEARCHING,0.000,0.800,0.200,0.000,0,0
22:55:48.495,SEARCHING,9.421,-0.047,1.467,-0.00,0.00,178.34,1.769,3.771,1.769,2.913,2.270,0,NONE,SEARCHING,0.000,0.800,0.152,0.000,0,0
22:55:48.694,SEARCHING,9.269,-0.042,1.495,-0.00,0.00,178.34,1.833,3.730,1.833,2.856,2.234,0,NONE,SEARCHING,0.000,0.800,0.128,0.000,0,0
22:55:48.897,SEARCHING,9.117,-0.038,1.520,-0.00,0.00,178.35,1.885,3.967,1.883,2.783,2.675,0,NONE,SEARCHING,0.000,0.800,0.078,0.000,0,0
22:55:49.095,SEARCHING,8.966,-0.034,1.533,-0.00,0.00,178.35,1.920,4.009,1.920,2.765,2.399,0,NONE,SEARCHING,0.000,0.800,0.058,0.000,0,0
22:55:49.299,SEARCHING,8.814,-0.029,1.545,-0.00,0.00,178.35,1.984,4.111,1.984,2.734,2.366,0,NONE,SEARCHING,0.000,0.800,0.066,0.000,0,0
22:55:49.504,SEARCHING,8.662,-0.025,1.558,-0.00,0.00,178.35,1.993,4.217,1.993,2.702,2.371,0,NONE,SEARCHING,0.000,0.800,0.066,0.000,0,0
22:55:49.717,SEARCHING,8.510,-0.020,1.571,-0.00,0.00,178.35,2.013,4.177,2.013,2.692,2.372,0,NONE,SEARCHING,0.000,0.800,0.063,0.000,0,0
22:55:49.913,SEARCHING,8.358,-0.016,1.586,-0.00,0.00,178.35,2.089,4.148,2.089,2.676,2.191,0,NONE,SEARCHING,0.000,0.800,0.098,0.000,0,0
22:55:50.106,SEARCHING,8.206,-0.012,1.604,-0.00,0.00,178.35,2.117,4.236,2.117,2.640,2.387,0,NONE,SEARCHING,0.000,0.800,0.053,0.000,0,0
22:55:50.309,SEARCHING,8.054,-0.007,1.612,-0.00,0.00,178.35,2.131,4.191,2.131,2.615,2.440,0,NONE,SEARCHING,0.000,0.800,0.013,0.000,0,0
22:55:50.512,SEARCHING,7.902,-0.003,1.620,-0.00,0.00,178.35,2.167,4.180,2.167,2.586,1.738,0,NONE,SEARCHING,0.000,0.800,0.140,0.000,0,0
22:55:50.721,SEARCHING,7.750,0.001,1.649,-0.00,0.00,178.35,2.167,4.094,2.167,2.522,2.302,0,NONE,SEARCHING,0.000,0.800,0.096,0.000,0,0
22:55:50.917,SEARCHING,7.598,0.006,1.663,-0.00,0.00,178.35,2.195,4.018,2.195,2.439,2.466,0,NONE,SEARCHING,0.000,0.800,0.023,0.000,0,0
22:55:51.120,SEARCHING,7.446,0.010,1.666,-0.00,0.00,178.35,2.259,3.989,2.259,2.395,2.741,0,NONE,SEARCHING,0.000,0.800,-0.013,0.000,0,0
22:55:51.326,SEARCHING,7.294,0.015,1.663,-0.00,0.00,178.35,2.294,3.932,2.294,2.389,2.590,0,NONE,SEARCHING,0.000,0.800,-0.010,0.000,0,0
22:55:51.521,SEARCHING,7.134,0.019,1.663,-0.00,0.00,178.35,2.343,3.942,2.343,2.382,2.490,0,NONE,SEARCHING,0.000,0.800,-0.002,0.000,0,0
22:55:51.722,SEARCHING,6.974,0.024,1.663,-0.00,0.00,178.35,2.402,3.849,2.402,2.382,2.538,0,NONE,SEARCHING,0.000,0.800,-0.001,0.000,0,0
22:55:51.931,SEARCHING,6.814,0.028,1.663,-0.00,0.00,178.35,2.443,3.986,2.443,2.402,2.533,0,NONE,SEARCHING,0.000,0.800,-0.000,0.000,0,0
22:55:52.128,SEARCHING,6.654,0.033,1.663,-0.00,0.00,178.35,2.480,3.992,2.480,2.387,2.427,0,NONE,SEARCHING,0.000,0.800,-0.000,0.000,0,0
22:55:52.331,SEARCHING,6.499,0.038,1.665,-0.00,0.00,178.35,2.480,4.007,2.480,2.400,2.311,0,NONE,SEARCHING,0.000,0.800,0.028,0.000,0,0
22:55:52.534,SEARCHING,6.351,0.042,1.670,-0.00,0.00,178.35,2.480,4.053,2.480,2.406,2.403,0,NONE,SEARCHING,0.000,0.800,0.007,0.000,0,0
22:55:52.730,SEARCHING,6.191,0.046,1.670,-0.00,0.00,178.35,2.490,4.044,2.490,2.359,2.637,0,NONE,SEARCHING,0.000,0.800,-0.015,0.000,0,0
22:55:52.926,SEARCHING,6.039,0.051,1.665,-0.00,0.00,178.35,2.528,4.042,2.528,2.288,2.675,0,NONE,SEARCHING,0.000,0.800,-0.051,0.000,0,0
22:55:53.130,SEARCHING,5.887,0.055,1.653,-0.00,0.00,178.35,2.556,4.052,2.556,2.231,2.586,0,NONE,SEARCHING,0.000,0.800,-0.069,0.000,0,0
22:55:53.331,SEARCHING,5.735,0.060,1.639,-0.00,0.00,178.35,2.565,4.050,2.567,2.224,2.460,0,NONE,SEARCHING,0.000,0.800,-0.064,-0.000,0,0
22:55:53.532,SEARCHING,5.583,0.064,1.629,-0.00,0.00,178.35,2.601,4.030,2.602,2.237,1.505,0,NONE,SEARCHING,0.000,0.800,0.058,-0.000,0,0
22:55:53.730,SEARCHING,5.431,0.068,1.653,-0.00,0.00,178.34,2.605,3.977,2.606,2.222,1.935,0,NONE,SEARCHING,0.000,0.800,0.184,-0.000,0,0
22:55:53.929,SEARCHING,5.279,0.073,1.682,-0.00,0.00,178.34,2.596,3.906,2.596,2.182,2.567,0,NONE,SEARCHING,0.000,0.800,0.028,-0.000,0,0
22:55:54.132,SEARCHING,5.127,0.077,1.682,-0.00,0.00,178.34,2.563,3.941,2.563,2.171,2.696,0,NONE,SEARCHING,0.000,0.800,-0.061,-0.000,0,0
22:55:54.335,SEARCHING,4.975,0.081,1.666,-0.00,0.00,178.34,2.568,3.974,2.568,2.178,2.712,0,NONE,SEARCHING,0.000,0.800,-0.110,-0.000,0,0
22:55:54.533,SEARCHING,4.823,0.086,1.645,-0.00,0.00,178.34,2.547,4.044,2.547,2.191,2.629,0,NONE,SEARCHING,0.000,0.800,-0.100,-0.000,0,0
22:55:54.733,SEARCHING,4.671,0.090,1.625,-0.00,0.00,178.34,2.506,4.079,2.506,2.251,2.587,0,NONE,SEARCHING,0.000,0.800,-0.091,-0.000,0,0
22:55:54.937,SEARCHING,4.519,0.095,1.608,-0.00,0.00,178.34,2.490,4.119,2.490,2.281,2.457,0,NONE,SEARCHING,0.000,0.800,-0.048,-0.000,0,0
22:55:55.134,SEARCHING,4.367,0.099,1.601,-0.00,0.00,178.34,2.483,4.125,2.483,2.300,2.418,0,NONE,SEARCHING,0.000,0.800,-0.012,-0.000,0,0
22:55:55.332,SEARCHING,4.211,0.104,1.600,-0.00,0.00,178.34,2.477,4.005,2.477,2.313,2.477,0,NONE,SEARCHING,0.000,0.800,-0.003,-0.000,0,0
22:55:55.532,SEARCHING,4.052,0.108,1.600,-0.00,0.00,178.34,2.451,3.951,2.451,2.320,2.485,0,NONE,SEARCHING,0.000,0.800,-0.001,-0.000,0,0
22:55:55.733,SEARCHING,3.892,0.113,1.600,-0.00,0.00,178.34,2.451,3.852,2.451,2.307,2.431,0,NONE,SEARCHING,0.000,0.800,-0.000,-0.000,0,0
22:55:55.935,SEARCHING,3.732,0.117,1.600,-0.00,0.00,178.34,2.432,3.713,2.432,2.307,2.524,0,NONE,SEARCHING,0.000,0.800,-0.000,-0.000,0,0
22:55:56.136,SEARCHING,3.572,0.122,1.600,-0.00,0.00,178.34,2.417,3.631,2.417,2.325,2.429,0,NONE,SEARCHING,0.000,0.800,-0.000,-0.000,0,0
22:55:56.339,SEARCHING,3.412,0.127,1.600,-0.00,0.00,178.34,2.396,3.626,2.396,2.339,2.429,0,NONE,SEARCHING,0.000,0.800,-0.000,-0.000,0,0
22:55:56.537,SEARCHING,3.252,0.131,1.600,-0.00,0.00,178.34,2.370,3.634,2.370,2.322,2.433,0,NONE,SEARCHING,0.000,0.800,-0.000,-0.000,0,0
22:55:56.737,SEARCHING,3.092,0.136,1.600,-0.00,0.00,178.34,2.358,3.636,2.358,2.303,2.436,0,NONE,SEARCHING,0.000,0.800,-0.000,-0.000,0,0
22:55:56.938,SEARCHING,2.932,0.141,1.600,-0.00,0.00,178.34,2.319,3.608,2.319,2.308,2.427,0,NONE,SEARCHING,0.000,0.800,-0.000,-0.000,0,0
22:55:57.138,SEARCHING,2.772,0.145,1.600,-0.00,0.00,178.34,2.283,3.463,2.283,2.307,2.432,0,NONE,SEARCHING,0.000,0.800,-0.000,-0.000,0,0
22:55:57.336,SEARCHING,2.612,0.150,1.600,-0.00,0.00,178.34,2.248,4.076,2.265,2.316,2.439,0,NONE,SEARCHING,0.000,0.800,-0.000,-0.001,0,0
22:55:57.537,SEARCHING,2.452,0.154,1.600,-0.00,0.00,178.33,2.245,4.010,2.248,2.314,2.434,0,NONE,SEARCHING,0.000,0.800,-0.000,-0.001,0,0
22:55:57.738,SEARCHING,2.292,0.159,1.600,-0.00,0.00,178.32,2.214,4.145,2.215,2.319,2.430,0,NONE,SEARCHING,0.000,0.800,-0.000,-0.000,0,0
22:55:57.938,SEARCHING,2.132,0.164,1.600,-0.00,0.00,178.32,2.195,4.155,2.195,2.304,2.431,0,NONE,SEARCHING,0.000,0.800,-0.000,-0.000,0,0
22:55:58.141,SEARCHING,1.972,0.169,1.600,-0.00,0.00,178.32,2.137,4.015,2.137,2.306,2.428,0,NONE,SEARCHING,0.000,0.800,-0.000,-0.000,0,0
22:55:58.341,SEARCHING,1.813,0.173,1.600,-0.00,0.00,178.31,2.712,3.952,2.712,2.326,2.407,0,NONE,SEARCHING,0.000,0.800,-0.000,-0.000,0,0
22:55:58.544,SEARCHING,1.653,0.178,1.600,-0.00,0.00,178.32,3.698,7.116,3.674,2.206,2.289,0,NONE,SEARCHING,0.000,0.800,-0.000,0.001,0,0
22:55:58.742,SEARCHING,1.493,0.182,1.600,-0.00,0.00,178.59,8.487,9.308,7.002,2.122,2.246,0,NONE,SEARCHING,0.000,0.800,-0.000,0.039,0,0
22:55:58.944,TURNING,1.372,0.185,1.600,0.00,0.00,-179.92,9.637,9.834,9.280,6.107,3.065,0,NONE,TURNING,0.000,0.025,0.000,0.714,0,0
22:55:59.147,TURNING,1.365,0.184,1.600,0.00,0.00,-168.19,9.913,9.960,9.827,9.065,4.424,0,NONE,TURNING,0.000,0.044,0.000,1.235,0,0
22:55:59.345,TURNING,1.356,0.181,1.600,0.00,0.00,-153.18,9.979,9.990,9.958,9.776,3.551,0,NONE,TURNING,0.000,0.049,0.000,1.360,0,0
22:55:59.547,TURNING,1.348,0.176,1.600,0.00,0.00,-137.39,9.995,9.998,9.990,3.928,2.567,0,NONE,TURNING,0.000,0.050,0.000,1.391,0,0
22:55:59.745,TURNING,1.341,0.168,1.600,0.00,0.00,-121.41,9.999,5.986,9.998,2.554,2.271,0,NONE,TURNING,0.000,0.050,0.000,1.398,0,0
22:55:59.949,TURNING,1.337,0.159,1.600,0.00,0.00,-105.38,10.000,2.901,9.999,2.079,2.009,0,NONE,TURNING,0.000,0.050,0.000,1.399,0,0
22:56:00.159,TURNING,1.336,0.149,1.600,0.00,0.00,-89.34,5.911,2.049,5.910,1.852,1.835,0,NONE,TURNING,0.000,0.050,0.000,1.400,0,0
22:56:00.374,TURNING,1.338,0.139,1.600,0.00,0.00,-73.30,3.197,1.853,3.195,1.785,1.781,0,NONE,TURNING,0.000,0.050,0.000,1.400,0,0
22:56:00.590,TURNING,1.342,0.130,1.600,0.00,0.00,-57.25,2.131,1.742,2.131,1.716,1.716,0,NONE,TURNING,0.000,0.050,0.000,1.400,0,0
22:56:00.796,TURNING,1.348,0.123,1.600,0.00,0.00,-41.21,1.682,1.689,1.681,1.683,1.680,0,NONE,TURNING,0.000,0.050,0.000,1.400,0,0
22:56:00.994,TURNING,1.357,0.117,1.600,0.00,0.00,-25.17,1.521,1.756,1.521,1.754,1.755,0,NONE,TURNING,0.000,0.050,0.000,1.400,0,0
22:56:01.188,TURNING,1.366,0.114,1.600,0.00,0.00,-9.13,1.549,2.019,1.549,2.020,2.025,0,NONE,TURNING,0.000,0.050,0.000,1.400,0,0
22:56:01.393,SEARCHING,1.378,0.114,1.600,0.00,0.00,6.51,1.898,3.235,1.898,2.270,2.324,0,NONE,SEARCHING,0.000,0.425,0.000,0.480,1,0
