timestamp,state,x,y,z,roll_deg,pitch_deg,yaw_deg,dist_left,dist_center,dist_right,dist_top,dist_bottom,dtof_alert,collision_event,best_dir,max_space,cmd_vx,cmd_vz,cmd_yaw
22:16:38.016,SEARCHING,0.000,0.000,0.000,0.00,0.00,0.00,10.000,10.000,10.000,10.000,10.000,0,0,SEARCHING,0.000,0.240,0.000,0.000
22:16:39.234,SEARCHING,0.036,0.000,1.000,0.00,0.00,0.00,10.000,10.000,10.000,10.000,10.000,0,0,SEARCHING,0.000,0.666,0.000,0.000
22:16:39.436,SEARCHING,0.177,0.000,1.000,0.00,0.00,0.04,4.899,3.899,3.216,3.904,3.738,0,0,SEARCHING,0.000,0.768,0.000,0.033
22:16:39.637,SEARCHING,0.332,0.001,1.000,0.00,0.00,0.70,3.863,2.707,1.970,2.714,2.615,0,0,SEARCHING,0.000,0.792,0.000,0.132
22:16:39.838,SEARCHING,0.491,0.005,1.000,0.00,0.00,2.44,3.677,2.502,1.822,2.507,2.455,0,0,SEARCHING,0.000,0.798,0.000,0.196
22:16:40.038,SEARCHING,0.650,0.014,1.000,0.00,0.00,4.76,3.652,2.475,1.847,2.484,2.427,0,0,SEARCHING,0.000,0.800,0.000,0.212
22:16:40.238,SEARCHING,0.809,0.030,1.000,0.00,0.00,7.19,3.677,2.476,1.812,2.457,2.423,0,0,SEARCHING,0.000,0.800,0.000,0.215
22:16:40.439,SEARCHING,0.967,0.054,1.000,0.00,0.00,9.71,3.729,2.500,1.696,2.504,2.439,0,0,SEARCHING,0.000,0.800,0.000,0.238
22:16:40.639,SEARCHING,1.125,0.084,1.000,0.00,0.00,12.51,3.887,2.563,1.665,2.571,2.460,0,0,SEARCHING,0.000,0.800,0.000,0.261
22:16:40.839,SEARCHING,1.280,0.122,1.000,0.00,0.00,15.56,4.103,2.648,1.681,2.654,2.428,0,0,SEARCHING,0.000,0.800,0.000,0.275
22:16:41.040,SEARCHING,1.402,0.159,1.002,0.00,0.00,18.09,4.110,2.676,1.703,2.661,2.436,0,0,SEARCHING,0.000,0.800,0.018,0.277
22:16:41.240,SEARCHING,1.523,0.201,1.003,0.00,0.00,20.62,4.089,2.619,1.731,2.626,2.457,0,0,SEARCHING,0.000,0.800,0.004,0.272
22:16:41.441,SEARCHING,1.672,0.261,1.003,0.00,0.00,23.71,4.171,2.659,1.780,2.654,2.486,0,0,SEARCHING,0.000,0.800,0.001,0.263
22:16:41.642,SEARCHING,1.817,0.329,1.003,0.00,0.00,26.71,4.407,2.755,1.858,2.746,2.486,0,0,SEARCHING,0.000,0.800,0.000,0.255
22:16:41.842,SEARCHING,1.930,0.388,1.005,0.00,0.00,29.02,4.627,2.883,1.957,2.876,2.483,0,0,SEARCHING,0.000,0.800,0.040,0.243
22:16:42.043,SEARCHING,2.013,0.436,1.015,0.00,0.00,30.68,4.850,2.958,1.883,2.972,2.487,0,0,SEARCHING,0.000,0.800,0.067,0.249
22:16:42.243,SEARCHING,2.095,0.486,1.029,0.00,0.00,32.46,5.093,3.082,1.811,3.122,2.501,0,0,SEARCHING,0.000,0.800,0.083,0.269
22:16:42.444,SEARCHING,2.175,0.539,1.047,0.00,0.00,34.36,5.601,3.201,1.838,3.215,2.537,0,0,SEARCHING,0.000,0.800,0.096,0.284
22:16:42.644,SEARCHING,2.254,0.594,1.066,0.00,0.00,36.34,5.857,3.196,1.887,3.203,2.567,0,0,SEARCHING,0.000,0.800,0.095,0.288
22:16:42.845,SEARCHING,2.330,0.652,1.085,0.00,0.00,38.30,5.840,3.145,1.945,3.181,2.634,0,0,SEARCHING,0.000,0.800,0.085,0.281
22:16:43.046,SEARCHING,2.405,0.712,1.101,0.00,0.00,40.20,5.849,3.181,2.006,3.185,2.689,0,0,SEARCHING,0.000,0.800,0.074,0.270
22:16:43.246,SEARCHING,2.477,0.775,1.116,0.00,0.00,42.02,5.803,3.283,2.090,3.281,2.695,0,0,SEARCHING,0.000,0.800,0.077,0.255
22:16:43.446,SEARCHING,2.548,0.840,1.131,0.00,0.00,43.72,5.656,3.367,2.194,3.382,2.760,0,0,SEARCHING,0.000,0.800,0.078,0.237
22:16:43.647,SEARCHING,2.617,0.908,1.147,0.00,0.00,45.29,5.367,3.475,2.267,3.445,2.834,0,0,SEARCHING,0.000,0.800,0.077,0.219
22:16:43.847,SEARCHING,2.683,0.977,1.162,0.00,0.00,46.72,5.083,3.607,2.383,3.621,2.879,0,0,SEARCHING,0.000,0.800,0.082,0.195
22:16:44.048,SEARCHING,2.748,1.047,1.179,0.00,0.00,48.00,4.861,3.705,2.389,3.741,2.925,0,0,SEARCHING,0.000,0.800,0.086,0.178
22:16:44.249,SEARCHING,2.812,1.119,1.196,0.00,0.00,49.20,4.658,3.810,2.312,3.864,2.955,0,0,SEARCHING,0.000,0.800,0.092,0.173
22:16:44.449,SEARCHING,2.874,1.192,1.215,0.00,0.00,50.40,4.432,3.960,2.220,4.035,2.979,0,0,SEARCHING,0.000,0.800,0.099,0.178
22:16:44.650,SEARCHING,2.935,1.267,1.235,0.00,0.00,51.63,4.247,4.158,2.223,4.303,3.040,0,0,SEARCHING,0.000,0.800,0.107,0.177
22:16:44.850,SEARCHING,2.994,1.342,1.258,0.00,0.00,52.81,3.980,4.595,2.252,4.792,3.106,0,0,SEARCHING,0.000,0.800,0.125,0.165
22:16:45.050,SEARCHING,3.051,1.419,1.284,0.00,0.00,53.90,3.822,4.654,2.271,5.156,3.165,0,0,SEARCHING,0.000,0.800,0.138,0.151
22:16:45.251,SEARCHING,3.107,1.497,1.312,0.00,0.00,54.90,3.655,4.661,2.310,5.213,3.223,0,0,SEARCHING,0.000,0.800,0.143,0.137
22:16:45.451,SEARCHING,3.162,1.576,1.340,0.00,0.00,55.79,3.543,4.819,2.348,5.202,3.286,0,0,SEARCHING,0.000,0.800,0.138,0.124
22:16:45.651,SEARCHING,3.215,1.656,1.367,0.00,0.00,56.60,3.446,5.061,2.424,5.104,3.345,0,0,SEARCHING,0.000,0.800,0.130,0.108
22:16:45.852,SEARCHING,3.268,1.736,1.393,0.00,0.00,57.30,3.342,5.562,2.444,5.046,3.365,0,0,SEARCHING,0.000,0.800,0.122,0.096
22:16:46.052,SEARCHING,3.319,1.817,1.417,0.00,0.00,57.93,3.286,6.147,2.441,4.951,3.468,0,0,SEARCHING,0.000,0.800,0.112,0.088
22:16:46.253,SEARCHING,3.370,1.899,1.438,0.00,0.00,58.51,3.175,6.598,2.485,4.897,3.511,0,0,SEARCHING,0.000,0.800,0.103,0.078
22:16:46.454,SEARCHING,3.420,1.981,1.458,0.00,0.00,59.01,3.095,6.366,2.503,4.861,3.561,0,0,SEARCHING,0.000,0.800,0.094,0.067
22:16:46.654,SEARCHING,3.469,2.064,1.477,0.00,0.00,59.45,3.060,6.189,2.560,4.839,3.611,0,0,SEARCHING,0.000,0.800,0.088,0.058
22:16:46.856,SEARCHING,3.517,2.146,1.494,0.00,0.00,59.82,3.012,5.995,2.567,4.781,3.577,0,0,SEARCHING,0.000,0.800,0.084,0.050
22:16:47.055,SEARCHING,3.565,2.229,1.511,0.00,0.00,60.15,2.961,5.945,2.571,4.739,3.436,0,0,SEARCHING,0.000,0.800,0.091,0.044
22:16:47.256,SEARCHING,3.613,2.313,1.530,0.00,0.00,60.44,2.952,5.674,2.622,4.678,3.303,0,0,SEARCHING,0.000,0.800,0.101,0.039
22:16:47.456,SEARCHING,3.660,2.396,1.551,0.00,0.00,60.64,2.915,5.566,3.078,4.600,3.011,0,0,SEARCHING,0.000,0.800,0.124,0.011
22:16:47.656,SEARCHING,3.707,2.480,1.577,0.00,0.00,60.62,2.888,5.518,3.155,4.560,2.995,0,0,SEARCHING,0.000,0.800,0.131,-0.013
22:16:47.857,SEARCHING,3.754,2.564,1.604,0.00,0.00,60.49,2.879,5.529,3.194,4.509,2.732,0,0,SEARCHING,0.000,0.800,0.156,-0.023
22:16:48.057,SEARCHING,3.802,2.647,1.636,0.00,0.00,60.33,2.889,5.733,3.168,4.420,2.726,0,0,SEARCHING,0.000,0.800,0.168,-0.023
22:16:48.258,SEARCHING,3.849,2.731,1.670,0.00,0.00,60.17,2.922,5.914,3.126,4.360,2.732,0,0,SEARCHING,0.000,0.800,0.168,-0.021
22:16:48.458,SEARCHING,3.897,2.814,1.703,0.00,0.00,60.04,2.919,6.037,2.997,4.282,2.785,0,0,SEARCHING,0.000,0.800,0.158,-0.015
22:16:48.658,SEARCHING,3.945,2.897,1.734,0.00,0.00,59.95,2.913,6.195,3.040,4.192,2.734,0,0,SEARCHING,0.000,0.800,0.152,-0.012
22:16:48.859,SEARCHING,3.993,2.980,1.765,0.00,0.00,59.88,2.913,6.343,2.914,4.108,2.701,0,0,SEARCHING,0.000,0.800,0.153,-0.006
22:16:49.059,SEARCHING,4.042,3.063,1.795,0.00,0.00,59.85,2.926,6.593,2.909,4.029,2.687,0,0,SEARCHING,0.000,0.800,0.151,-0.002
22:16:49.260,SEARCHING,4.090,3.146,1.825,0.00,0.00,59.70,2.891,6.490,5.179,3.904,2.666,0,0,SEARCHING,0.000,0.800,0.146,-0.066
22:16:49.461,SEARCHING,4.139,3.229,1.854,0.00,0.00,59.04,2.901,6.196,5.571,3.848,2.704,0,0,SEARCHING,0.000,0.800,0.139,-0.115
22:16:49.662,SEARCHING,4.188,3.311,1.881,0.00,0.00,58.20,2.905,5.933,5.483,3.786,2.741,0,0,SEARCHING,0.000,0.800,0.129,-0.127
22:16:49.862,SEARCHING,4.240,3.392,1.906,0.00,0.00,57.32,2.940,5.740,5.382,3.723,2.822,0,0,SEARCHING,0.000,0.800,0.114,-0.126
22:16:50.062,SEARCHING,4.292,3.472,1.928,0.00,0.00,56.46,2.967,5.610,5.329,3.657,2.898,0,0,SEARCHING,0.000,0.800,0.098,-0.122
22:16:50.263,SEARCHING,4.345,3.552,1.947,0.00,0.00,55.63,2.997,5.402,5.248,3.592,2.950,0,0,SEARCHING,0.000,0.800,0.082,-0.118
22:16:50.463,SEARCHING,4.400,3.631,1.962,0.00,0.00,54.84,3.025,5.167,5.206,3.531,2.993,0,0,SEARCHING,0.000,0.800,0.069,-0.113
22:16:50.664,SEARCHING,4.456,3.709,1.975,0.00,0.00,54.07,3.051,5.061,5.168,3.489,3.029,0,0,SEARCHING,0.000,0.800,0.059,-0.110
22:16:50.869,SEARCHING,4.513,3.787,1.985,0.00,0.00,53.37,3.103,4.998,4.559,3.451,3.067,0,0,SEARCHING,0.000,0.800,0.020,-0.091
22:16:51.069,SEARCHING,4.590,3.889,1.987,0.00,0.00,52.55,3.144,4.897,4.704,3.426,3.044,0,0,SEARCHING,0.000,0.800,0.005,-0.089
22:16:53.488,SEARCHING,4.688,4.015,1.987,0.00,0.00,51.56,3.166,4.831,4.340,3.420,3.048,0,0,SEARCHING,0.000,0.800,0.001,-0.075
22:16:53.500,SEARCHING,4.788,4.140,1.987,0.00,0.00,50.71,3.166,4.831,4.340,3.420,3.048,0,0,SEARCHING,0.000,0.800,0.000,-0.070
22:16:53.637,SEARCHING,4.890,4.263,1.987,0.00,0.00,49.91,4.508,4.560,4.514,3.516,3.071,0,0,SEARCHING,0.000,0.800,0.000,-0.049
22:16:53.830,SEARCHING,4.994,4.385,1.987,0.00,0.00,49.52,5.368,4.255,4.783,3.540,3.160,0,0,SEARCHING,0.000,0.800,0.000,0.000
22:16:54.028,SEARCHING,5.098,4.507,1.987,0.00,0.00,49.57,5.504,4.065,5.153,3.465,3.753,0,0,SEARCHING,0.000,0.800,0.000,0.010
22:16:54.230,SEARCHING,5.201,4.629,1.987,0.00,0.00,49.67,5.494,3.791,5.301,3.504,4.031,0,0,SEARCHING,0.000,0.800,0.000,0.007
22:16:54.430,SEARCHING,5.305,4.751,1.987,0.00,0.00,49.75,5.376,3.599,5.012,3.528,4.072,0,0,SEARCHING,0.000,0.800,0.000,0.008
22:16:54.630,SEARCHING,5.408,4.873,1.987,0.00,0.00,49.89,5.325,3.549,4.317,3.571,4.209,0,0,SEARCHING,0.000,0.800,-0.015,0.024
22:16:54.830,SEARCHING,5.470,4.946,1.981,0.00,0.00,50.13,5.246,3.400,3.558,3.547,4.247,0,0,SEARCHING,0.000,0.800,-0.045,0.051
22:16:55.031,SEARCHING,5.531,5.020,1.972,0.00,0.00,50.56,5.125,3.362,3.393,3.461,4.346,0,0,SEARCHING,0.000,0.800,-0.061,0.071
22:16:55.232,SEARCHING,5.592,5.095,1.959,0.00,0.00,51.08,5.043,3.369,3.329,3.388,4.394,0,0,SEARCHING,0.000,0.800,-0.073,0.079
22:16:55.433,SEARCHING,5.652,5.169,1.943,0.00,0.00,51.64,4.990,3.275,3.260,3.318,4.366,0,0,SEARCHING,0.000,0.800,-0.082,0.083
22:16:55.633,SEARCHING,5.711,5.245,1.926,0.00,0.00,52.22,4.933,3.106,3.103,3.190,4.357,0,0,SEARCHING,0.000,0.800,-0.093,0.089
22:16:55.834,SEARCHING,5.770,5.321,1.907,0.00,0.00,52.87,4.895,2.961,2.953,3.104,4.324,0,0,SEARCHING,0.000,0.800,-0.103,0.100
22:16:56.034,SEARCHING,5.827,5.398,1.886,0.00,0.00,53.60,4.726,2.829,2.753,3.017,4.318,0,0,SEARCHING,0.000,0.800,-0.112,0.113
22:16:56.235,SEARCHING,5.884,5.476,1.863,0.00,0.00,54.41,4.688,2.761,2.641,2.950,4.259,0,0,SEARCHING,0.000,0.800,-0.121,0.125
22:16:56.435,SEARCHING,5.939,5.554,1.839,0.00,0.00,55.30,4.626,2.804,2.548,2.809,4.212,0,0,SEARCHING,0.000,0.800,-0.130,0.133
22:16:56.635,SEARCHING,5.993,5.633,1.811,0.00,0.00,56.24,4.536,2.841,2.519,2.680,4.170,0,0,SEARCHING,0.000,0.800,-0.148,0.139
22:16:56.836,SEARCHING,6.046,5.713,1.781,0.00,0.00,57.20,4.445,2.866,2.456,2.691,4.078,0,0,SEARCHING,0.000,0.800,-0.156,0.143
22:16:57.036,SEARCHING,6.097,5.795,1.751,0.00,0.00,58.20,4.327,2.959,2.418,2.894,3.994,0,0,SEARCHING,0.000,0.800,-0.136,0.145
22:16:57.238,SEARCHING,6.147,5.876,1.726,0.00,0.00,59.20,4.234,4.340,2.344,3.983,3.914,0,0,SEARCHING,0.000,0.800,-0.066,0.149
22:16:57.438,SEARCHING,6.196,5.959,1.717,0.00,0.00,60.24,4.005,4.180,2.247,4.618,3.853,0,0,SEARCHING,0.000,0.800,-0.000,0.153
22:16:57.638,SEARCHING,6.243,6.043,1.720,0.00,0.00,61.31,3.905,3.989,2.111,4.568,3.822,0,0,SEARCHING,0.000,0.800,0.039,0.163
22:16:57.839,SEARCHING,6.288,6.128,1.727,0.00,0.00,62.48,3.806,3.929,2.013,4.496,3.902,0,0,SEARCHING,0.000,0.800,0.015,0.178
22:16:58.039,SEARCHING,6.346,6.242,1.728,0.00,0.00,64.16,3.700,3.895,1.900,4.407,3.920,0,0,SEARCHING,0.000,0.800,0.004,0.193
22:16:58.243,SEARCHING,6.413,6.387,1.728,0.00,0.00,66.40,3.592,4.129,1.886,4.322,3.885,0,0,SEARCHING,0.000,0.800,0.001,0.201
22:16:58.443,SEARCHING,6.475,6.535,1.728,0.00,0.00,68.69,3.402,4.041,2.253,4.165,3.881,0,0,SEARCHING,0.000,0.800,0.000,0.174
22:16:58.643,SEARCHING,6.530,6.685,1.728,0.00,0.00,70.45,3.254,3.962,2.528,4.032,3.836,0,0,SEARCHING,0.000,0.800,0.000,0.105
22:16:58.843,SEARCHING,6.583,6.836,1.728,0.00,0.00,71.53,3.100,3.802,2.501,3.793,3.768,0,0,SEARCHING,0.000,0.800,0.000,0.073
22:16:59.044,SEARCHING,6.632,6.988,1.728,0.00,0.00,72.33,2.954,3.543,2.457,3.608,3.623,0,0,SEARCHING,0.000,0.800,0.000,0.061
22:16:59.244,SEARCHING,6.680,7.141,1.728,0.00,0.00,73.02,2.869,3.171,2.387,3.488,3.492,0,0,SEARCHING,0.000,0.800,0.000,0.057
22:16:59.445,SEARCHING,6.726,7.294,1.728,0.00,0.00,73.67,2.763,2.944,2.349,3.249,3.395,0,0,SEARCHING,0.000,0.800,0.000,0.055
22:16:59.645,SEARCHING,6.770,7.448,1.728,0.00,0.00,74.30,2.652,2.801,2.207,2.828,3.246,0,0,SEARCHING,0.000,0.800,-0.016,0.055
22:16:59.845,SEARCHING,6.796,7.540,1.723,0.00,0.00,74.70,2.590,2.949,2.156,2.738,3.127,0,0,SEARCHING,0.000,0.800,-0.044,0.060
22:17:00.046,SEARCHING,6.821,7.633,1.713,0.00,0.00,75.10,2.496,2.935,2.190,2.662,2.951,0,0,SEARCHING,0.000,0.800,-0.036,0.052
22:17:00.247,SEARCHING,6.845,7.726,1.708,0.00,0.00,75.43,2.445,2.885,2.221,2.572,2.906,0,0,SEARCHING,0.000,0.800,-0.025,0.042
22:17:00.448,SEARCHING,6.869,7.819,1.703,0.00,0.00,75.70,2.389,2.795,2.184,2.470,2.808,0,0,SEARCHING,0.000,0.800,-0.029,0.036
22:17:00.649,SEARCHING,6.893,7.912,1.696,0.00,0.00,75.83,2.318,2.723,2.592,2.391,2.721,0,0,SEARCHING,0.000,0.800,-0.053,-0.008
22:17:00.849,SEARCHING,6.917,8.005,1.685,0.00,0.00,75.63,2.258,2.665,2.857,2.364,2.642,0,0,SEARCHING,0.000,0.800,-0.055,-0.051
22:17:01.048,SEARCHING,6.941,8.098,1.674,0.00,0.00,75.20,2.201,2.538,2.824,2.242,2.520,0,0,SEARCHING,0.000,0.800,-0.060,-0.071
22:17:01.245,SEARCHING,6.966,8.190,1.661,0.00,0.00,74.68,2.144,2.439,2.755,2.108,2.423,0,0,SEARCHING,0.000,0.800,-0.066,-0.079
22:17:01.445,SEARCHING,6.991,8.283,1.648,0.00,0.00,74.13,2.117,2.236,2.668,2.029,2.325,0,0,SEARCHING,0.000,0.800,-0.071,-0.079
22:17:01.646,SEARCHING,7.018,8.375,1.633,0.00,0.00,73.59,2.070,2.144,2.572,1.922,2.271,0,0,SEARCHING,0.000,0.800,-0.085,-0.078
22:17:01.846,SEARCHING,7.045,8.467,1.615,0.00,0.00,73.06,2.021,2.156,2.498,1.821,2.170,0,0,SEARCHING,0.000,0.800,-0.100,-0.077
22:17:02.047,SEARCHING,7.074,8.559,1.595,0.00,0.00,72.53,1.989,2.079,2.423,1.722,2.060,0,0,SEARCHING,0.000,0.800,-0.108,-0.075
22:17:02.248,SEARCHING,7.103,8.650,1.572,0.00,0.00,72.03,1.933,1.991,2.349,1.605,1.981,0,0,SEARCHING,0.000,0.795,-0.124,-0.073
22:17:02.448,SEARCHING,7.132,8.739,1.546,0.00,0.00,71.45,1.421,1.889,2.266,1.528,1.889,0,0,SEARCHING,0.000,0.723,-0.141,-0.128
22:17:02.648,SEARCHING,7.158,8.815,1.518,0.00,0.00,70.24,1.327,1.797,2.235,1.448,1.793,0,0,SEARCHING,0.000,0.629,-0.151,-0.213
22:17:02.849,SEARCHING,7.183,8.883,1.487,0.00,0.00,68.72,1.510,1.727,2.223,1.413,1.727,0,0,SEARCHING,0.000,0.584,-0.158,-0.206
22:17:03.050,SEARCHING,7.209,8.947,1.456,0.00,0.00,67.50,1.659,1.644,2.222,1.449,1.642,0,0,SEARCHING,0.000,0.563,-0.129,-0.147
22:17:03.251,SEARCHING,7.235,9.008,1.433,0.00,0.00,66.56,1.589,1.578,2.187,1.487,1.577,0,0,SEARCHING,0.000,0.529,-0.068,-0.135
22:17:03.451,SEARCHING,7.259,9.064,1.423,0.00,0.00,65.61,1.514,1.512,2.180,1.497,1.512,0,0,SEARCHING,0.000,0.486,-0.016,-0.149
22:17:03.651,SEARCHING,7.291,9.132,1.422,0.00,0.00,64.18,1.433,1.453,2.156,1.450,1.450,0,0,SEARCHING,0.000,0.447,-0.004,-0.169
22:17:03.852,SEARCHING,7.330,9.210,1.422,0.00,0.00,62.04,1.180,1.413,2.203,1.415,1.413,0,0,SEARCHING,0.000,0.401,-0.001,-0.251
22:17:04.052,SEARCHING,7.369,9.278,1.422,0.00,0.00,58.96,1.203,1.420,2.337,1.418,1.421,0,0,SEARCHING,0.000,0.381,-0.000,-0.305
22:17:04.254,SEARCHING,7.410,9.343,1.422,0.00,0.00,55.37,1.145,1.449,2.478,1.446,1.444,0,0,SEARCHING,0.000,0.383,-0.000,-0.344
22:17:04.453,SEARCHING,7.456,9.405,1.422,0.00,0.00,51.23,1.053,1.529,2.555,1.508,1.528,0,0,SEARCHING,0.000,0.395,-0.000,-0.408
22:17:04.654,SEARCHING,7.508,9.466,1.422,0.00,0.00,46.44,1.067,1.669,2.526,1.534,1.665,0,0,SEARCHING,0.000,0.438,-0.019,-0.433
22:17:04.854,SEARCHING,7.548,9.505,1.415,0.00,0.00,43.47,1.100,1.792,2.528,1.544,1.791,0,0,SEARCHING,0.000,0.498,-0.072,-0.424
22:17:05.054,SEARCHING,7.595,9.548,1.398,0.00,0.00,40.62,1.143,1.949,2.678,1.574,1.965,0,0,SEARCHING,0.000,0.582,-0.120,-0.407
22:17:05.255,SEARCHING,7.653,9.595,1.372,0.00,0.00,37.84,1.184,2.098,2.923,1.644,2.095,0,0,SEARCHING,0.000,0.669,-0.147,-0.403
22:17:05.455,SEARCHING,7.722,9.647,1.341,0.00,0.00,35.07,1.248,2.260,3.270,1.693,2.134,0,0,SEARCHING,0.000,0.762,-0.155,-0.400
22:17:05.655,SEARCHING,7.799,9.699,1.312,0.00,0.00,32.37,1.312,2.232,3.141,1.768,2.064,0,0,SEARCHING,0.000,0.791,-0.124,-0.378
22:17:05.856,SEARCHING,7.881,9.749,1.290,0.00,0.00,29.88,1.379,2.144,3.124,1.838,1.980,0,0,SEARCHING,0.000,0.796,-0.066,-0.344
22:17:06.058,SEARCHING,7.963,9.794,1.280,0.00,0.00,27.63,1.484,2.020,3.083,1.963,1.691,0,0,SEARCHING,0.000,0.759,0.014,-0.306
22:17:06.257,SEARCHING,8.043,9.834,1.288,0.00,0.00,25.64,1.559,1.960,3.047,1.948,1.718,0,0,SEARCHING,0.000,0.725,0.071,-0.272
22:17:06.458,SEARCHING,8.121,9.871,1.303,0.00,0.00,23.87,1.632,1.986,3.183,1.936,1.639,0,0,SEARCHING,0.000,0.724,0.094,-0.247
22:17:06.658,SEARCHING,8.202,9.905,1.324,0.00,0.00,22.15,1.552,2.119,3.394,2.069,1.568,0,0,SEARCHING,0.000,0.763,0.143,-0.262
22:17:06.859,SEARCHING,8.289,9.940,1.357,0.00,0.00,20.29,1.581,2.227,3.736,2.201,1.472,0,0,SEARCHING,0.000,0.791,0.215,-0.280
22:17:07.060,SEARCHING,8.379,9.971,1.403,0.00,0.00,18.30,1.486,2.407,3.954,2.432,1.473,0,0,SEARCHING,0.000,0.798,0.281,-0.307
22:17:07.261,SEARCHING,8.471,10.000,1.456,0.00,0.00,16.05,1.398,2.645,4.164,1.592,1.493,0,0,SEARCHING,0.000,0.799,0.163,-0.352
22:17:07.461,SEARCHING,8.564,10.025,1.477,0.00,0.00,13.46,1.322,3.087,4.352,1.369,1.607,0,0,SEARCHING,0.000,0.800,-0.027,-0.400
22:17:07.661,SEARCHING,8.657,10.045,1.464,0.00,0.00,10.66,1.414,3.829,4.535,3.029,1.591,0,0,SEARCHING,0.000,0.800,0.031,-0.402
22:17:07.862,SEARCHING,8.752,10.061,1.491,0.00,0.00,7.99,1.580,3.964,4.508,3.652,1.605,0,0,SEARCHING,0.000,0.800,0.321,-0.364
22:17:08.062,SEARCHING,8.847,10.073,1.561,0.00,0.00,5.65,1.761,4.994,4.653,3.063,1.749,0,0,SEARCHING,0.000,0.800,0.350,-0.315
22:17:08.262,SEARCHING,8.943,10.081,1.624,0.00,0.00,3.62,1.973,5.586,4.597,1.359,1.916,0,0,SEARCHING,0.000,0.800,0.106,-0.269
22:17:08.462,SEARCHING,9.039,10.086,1.619,0.00,0.00,1.92,2.181,5.742,4.528,1.732,1.973,0,0,SEARCHING,0.000,0.800,-0.180,-0.222
22:17:08.663,SEARCHING,9.135,10.088,1.597,0.00,0.00,0.53,3.633,5.521,4.323,3.338,1.926,0,0,SEARCHING,0.000,0.800,0.103,-0.145
22:17:08.863,SEARCHING,9.231,10.088,1.629,0.00,0.00,0.03,6.121,5.422,4.257,3.557,1.950,0,0,SEARCHING,0.000,0.800,0.237,-0.006
22:17:09.063,SEARCHING,9.327,10.088,1.678,0.00,0.00,0.22,6.645,5.368,4.197,3.434,2.072,0,0,SEARCHING,0.000,0.800,0.244,0.050
22:17:09.265,SEARCHING,9.423,10.089,1.725,0.00,0.00,0.63,6.549,5.412,4.174,3.151,2.144,0,0,SEARCHING,0.000,0.800,0.210,0.065
22:17:09.465,SEARCHING,9.519,10.090,1.763,0.00,0.00,1.10,6.615,5.431,4.146,3.144,2.650,0,0,SEARCHING,0.000,0.800,0.132,0.070
22:17:09.665,SEARCHING,9.615,10.093,1.786,0.00,0.00,1.59,6.604,5.362,4.128,3.190,2.763,0,0,SEARCHING,0.000,0.800,0.077,0.072
22:17:09.865,SEARCHING,9.711,10.096,1.800,0.00,0.00,2.09,6.617,5.325,4.057,3.164,2.661,0,0,SEARCHING,0.000,0.800,0.070,0.075
22:17:10.066,SEARCHING,9.807,10.100,1.814,0.00,0.00,2.61,6.438,5.255,3.943,3.103,2.564,0,0,SEARCHING,0.000,0.800,0.074,0.077
22:17:10.266,SEARCHING,9.903,10.104,1.830,0.00,0.00,3.15,6.232,5.178,3.837,3.063,2.476,0,0,SEARCHING,0.000,0.800,0.085,0.079
22:17:10.467,SEARCHING,9.998,10.110,1.847,0.00,0.00,3.69,6.192,5.079,3.783,3.065,2.411,0,0,SEARCHING,0.000,0.800,0.097,0.080
22:17:10.667,SEARCHING,10.094,10.116,1.868,0.00,0.00,4.26,6.151,5.084,3.732,3.083,2.352,0,0,SEARCHING,0.000,0.800,0.111,0.083
22:17:10.869,SEARCHING,10.190,10.124,1.890,0.00,0.00,4.83,6.172,5.073,3.695,3.046,2.314,0,0,SEARCHING,0.000,0.800,0.120,0.085
22:17:11.069,SEARCHING,10.285,10.133,1.915,0.00,0.00,5.43,6.175,5.050,3.668,3.045,2.366,0,0,SEARCHING,0.000,0.800,0.120,0.087
22:17:11.269,SEARCHING,10.381,10.142,1.938,0.00,0.00,6.03,6.051,4.994,3.658,3.027,2.424,0,0,SEARCHING,0.000,0.800,0.108,0.087
22:17:11.471,SEARCHING,10.476,10.152,1.959,0.00,0.00,6.63,5.937,4.923,3.650,3.084,2.486,0,0,SEARCHING,0.000,0.800,0.097,0.086
22:17:11.671,SEARCHING,10.572,10.164,1.978,0.00,0.00,7.22,6.032,4.968,3.609,3.119,2.516,0,0,SEARCHING,0.000,0.800,0.094,0.087
22:17:11.872,SEARCHING,10.667,10.176,1.997,0.00,0.00,7.82,6.029,4.958,3.613,3.100,2.544,0,0,SEARCHING,0.000,0.800,0.089,0.089
22:17:12.071,SEARCHING,10.762,10.190,2.014,0.00,0.00,8.44,5.929,4.945,3.584,3.029,2.589,0,0,SEARCHING,0.000,0.800,0.076,0.089
22:17:12.271,SEARCHING,10.857,10.204,2.029,0.00,0.00,9.04,6.065,4.878,3.589,2.998,2.624,0,0,SEARCHING,0.000,0.800,0.065,0.089
22:17:12.473,SEARCHING,10.952,10.220,2.041,0.00,0.00,9.66,6.087,4.942,3.577,2.987,2.652,0,0,SEARCHING,0.000,0.800,0.056,0.091
22:17:12.673,SEARCHING,11.046,10.237,2.050,0.00,0.00,10.29,5.933,4.882,3.557,2.950,2.679,0,0,SEARCHING,0.000,0.800,0.019,0.091
22:17:12.873,SEARCHING,11.172,10.260,2.052,0.00,0.00,11.11,5.768,4.889,3.573,2.967,2.690,0,0,SEARCHING,0.000,0.800,0.005,0.088
22:17:13.073,SEARCHING,11.329,10.292,2.052,0.00,0.00,12.11,5.712,4.876,3.509,2.959,2.688,0,0,SEARCHING,0.000,0.800,0.001,0.087
22:17:13.274,SEARCHING,11.485,10.327,2.052,0.00,0.00,13.12,5.735,4.878,3.456,2.991,2.692,0,0,SEARCHING,0.000,0.800,0.000,0.090
22:17:13.474,SEARCHING,11.640,10.365,2.052,0.00,0.00,14.15,5.673,4.818,3.378,3.034,2.714,0,0,SEARCHING,0.000,0.800,0.000,0.093
22:17:13.674,SEARCHING,11.795,10.405,2.052,0.00,0.00,15.22,5.730,4.783,3.303,3.117,2.771,0,0,SEARCHING,0.000,0.800,0.000,0.098
22:17:13.875,SEARCHING,11.949,10.448,2.052,0.00,0.00,16.36,5.594,4.635,3.243,3.154,3.526,0,0,SEARCHING,0.000,0.800,0.000,0.102
22:17:14.076,SEARCHING,12.072,10.485,2.050,0.00,0.00,17.29,5.596,4.590,3.276,3.168,4.067,0,0,SEARCHING,0.000,0.800,-0.052,0.102
22:17:14.276,SEARCHING,12.163,10.514,2.037,0.00,0.00,17.99,5.590,4.578,3.226,3.188,4.144,0,0,SEARCHING,0.000,0.800,-0.078,0.104
22:17:14.477,SEARCHING,12.254,10.544,2.021,0.00,0.00,18.71,5.471,4.518,3.215,3.232,4.158,0,0,SEARCHING,0.000,0.800,-0.082,0.104
22:17:14.677,SEARCHING,12.345,10.576,2.005,0.00,0.00,19.42,5.374,4.490,3.245,3.247,4.160,0,0,SEARCHING,0.000,0.800,-0.082,0.101
22:17:14.878,SEARCHING,12.436,10.608,1.988,0.00,0.00,20.10,5.287,4.470,3.208,3.306,4.160,0,0,SEARCHING,0.000,0.800,-0.078,0.098
22:17:15.079,SEARCHING,12.526,10.641,1.973,0.00,0.00,20.77,5.153,4.458,3.174,3.355,4.205,0,0,SEARCHING,0.000,0.800,-0.073,0.098
22:17:15.280,SEARCHING,12.615,10.676,1.958,0.00,0.00,21.42,4.912,4.413,3.230,3.412,4.234,0,0,SEARCHING,0.000,0.800,-0.071,0.090
22:17:15.479,SEARCHING,12.704,10.711,1.944,0.00,0.00,22.01,4.769,4.401,3.198,3.451,4.231,0,0,SEARCHING,0.000,0.800,-0.067,0.083
22:17:15.680,SEARCHING,12.793,10.748,1.931,0.00,0.00,22.57,4.476,4.349,3.190,3.554,4.237,0,0,SEARCHING,0.000,0.800,-0.060,0.077
22:17:15.881,SEARCHING,12.882,10.785,1.920,0.00,0.00,23.07,4.353,4.329,3.183,3.614,4.192,0,0,SEARCHING,0.000,0.800,-0.038,0.069
22:17:16.080,SEARCHING,12.970,10.823,1.914,0.00,0.00,23.52,4.066,4.303,3.198,3.635,4.166,0,0,SEARCHING,0.000,0.800,-0.009,0.060
22:17:16.281,SEARCHING,13.116,10.888,1.914,0.00,0.00,24.19,3.930,4.203,3.151,3.624,4.123,0,0,SEARCHING,0.000,0.800,-0.002,0.054
22:17:16.481,SEARCHING,13.262,10.954,1.914,0.00,0.00,24.80,3.807,4.128,3.056,3.599,4.087,0,0,SEARCHING,0.000,0.800,-0.001,0.052
22:17:16.682,SEARCHING,13.407,11.022,1.914,0.00,0.00,25.46,4.716,4.032,2.953,3.613,4.028,0,0,SEARCHING,0.000,0.800,-0.000,0.078
22:17:16.883,SEARCHING,13.551,11.091,1.914,0.00,0.00,26.45,5.471,3.875,2.833,3.629,3.912,0,0,SEARCHING,0.000,0.800,-0.000,0.112
22:17:17.084,SEARCHING,13.693,11.164,1.914,0.00,0.00,27.82,5.677,3.807,2.758,3.632,3.709,0,0,SEARCHING,0.000,0.800,-0.000,0.136
22:17:17.284,SEARCHING,13.834,11.241,1.914,0.00,0.00,29.42,5.891,3.747,2.736,3.618,3.174,0,0,SEARCHING,0.000,0.800,-0.000,0.150
22:17:17.485,SEARCHING,13.945,11.305,1.917,0.00,0.00,30.82,6.089,3.750,2.719,3.636,2.808,0,0,SEARCHING,0.000,0.800,0.058,0.158
22:17:17.686,SEARCHING,14.027,11.354,1.931,0.00,0.00,31.93,6.293,3.702,2.690,3.632,2.757,0,0,SEARCHING,0.000,0.800,0.093,0.165
22:17:17.886,SEARCHING,14.108,11.406,1.951,0.00,0.00,33.09,6.496,3.745,2.708,3.595,2.697,0,0,SEARCHING,0.000,0.800,0.104,0.171
22:17:18.087,SEARCHING,14.188,11.459,1.972,0.00,0.00,34.28,6.933,3.732,2.698,3.544,2.593,0,0,SEARCHING,0.000,0.800,0.115,0.175
22:17:18.287,SEARCHING,14.267,11.514,1.996,0.00,0.00,35.51,7.442,3.749,2.699,3.483,2.479,0,0,SEARCHING,0.000,0.800,0.129,0.183
22:17:18.488,SEARCHING,14.344,11.570,2.022,0.00,0.00,36.79,7.913,3.841,2.739,3.408,2.386,0,0,SEARCHING,0.000,0.800,0.141,0.188
22:17:18.688,SEARCHING,14.421,11.628,2.051,0.00,0.00,38.10,8.628,3.874,2.736,3.346,2.314,0,0,SEARCHING,0.000,0.800,0.152,0.194
22:17:18.888,SEARCHING,14.496,11.688,2.082,0.00,0.00,39.47,9.776,3.943,2.699,3.259,2.232,0,0,SEARCHING,0.000,0.800,0.163,0.206
22:17:19.089,SEARCHING,14.569,11.750,2.115,0.00,0.00,40.92,9.867,3.994,2.642,3.184,2.134,0,0,SEARCHING,0.000,0.800,0.175,0.216
22:17:19.289,SEARCHING,14.641,11.814,2.151,0.00,0.00,42.42,8.899,4.119,2.654,3.101,2.042,0,0,SEARCHING,0.000,0.800,0.190,0.217
22:17:19.489,SEARCHING,14.711,11.879,2.190,0.00,0.00,43.89,7.835,4.255,2.658,3.010,2.012,0,0,SEARCHING,0.000,0.800,0.198,0.207
22:17:19.691,SEARCHING,14.779,11.947,2.230,0.00,0.00,45.27,6.949,4.373,2.723,2.933,1.961,0,0,SEARCHING,0.000,0.800,0.200,0.192
22:17:19.890,SEARCHING,14.846,12.015,2.269,0.00,0.00,46.54,6.534,4.413,2.712,2.834,2.003,0,0,SEARCHING,0.000,0.800,0.190,0.179
22:17:20.091,SEARCHING,14.912,12.086,2.297,0.00,0.00,47.74,5.965,4.634,2.747,2.711,4.338,0,0,SEARCHING,0.000,0.800,-0.026,0.167
22:17:20.291,SEARCHING,14.976,12.157,2.283,0.00,0.00,48.84,5.724,4.777,2.778,2.699,4.712,0,0,SEARCHING,0.000,0.800,-0.145,0.154
22:17:20.492,SEARCHING,15.038,12.230,2.251,0.00,0.00,49.88,5.383,4.868,2.779,2.787,4.850,0,0,SEARCHING,0.000,0.800,-0.176,0.146
22:17:20.693,SEARCHING,15.100,12.304,2.216,0.00,0.00,50.86,5.261,4.956,2.804,2.882,4.953,0,0,SEARCHING,0.000,0.800,-0.178,0.139
22:17:20.893,SEARCHING,15.160,12.379,2.181,0.00,0.00,51.78,4.999,5.146,2.824,2.980,5.176,0,0,SEARCHING,0.000,0.800,-0.173,0.129
22:17:21.095,SEARCHING,15.219,12.455,2.146,0.00,0.00,52.65,4.889,5.384,2.809,3.033,5.296,0,0,SEARCHING,0.000,0.800,-0.169,0.124
22:17:21.294,SEARCHING,15.277,12.531,2.113,0.00,0.00,53.48,4.705,5.813,2.842,3.166,5.235,0,0,SEARCHING,0.000,0.800,-0.159,0.116
22:17:21.494,SEARCHING,15.333,12.609,2.082,0.00,0.00,54.27,4.582,6.070,2.848,3.262,5.206,0,0,SEARCHING,0.000,0.800,-0.146,0.111
22:17:21.694,SEARCHING,15.389,12.687,2.053,0.00,0.00,55.01,4.495,6.437,2.894,3.340,5.095,0,0,SEARCHING,0.000,0.800,-0.132,0.104
22:17:21.895,SEARCHING,15.444,12.766,2.027,0.00,0.00,55.70,4.369,6.829,2.901,3.391,5.063,0,0,SEARCHING,0.000,0.800,-0.122,0.097
22:17:22.095,SEARCHING,15.497,12.845,2.003,0.00,0.00,56.34,4.259,7.266,2.935,3.439,4.990,0,0,SEARCHING,0.000,0.800,-0.114,0.090
22:17:22.298,SEARCHING,15.550,12.926,1.981,0.00,0.00,56.94,4.123,7.547,2.974,3.511,4.946,0,0,SEARCHING,0.000,0.800,-0.105,0.082
22:17:22.498,SEARCHING,15.602,13.006,1.960,0.00,0.00,57.47,4.082,7.934,2.979,3.580,4.894,0,0,SEARCHING,0.000,0.800,-0.097,0.075
22:17:22.698,SEARCHING,15.653,13.087,1.942,0.00,0.00,57.97,3.994,8.272,3.021,3.617,4.850,0,0,SEARCHING,0.000,0.800,-0.089,0.069
22:17:22.899,SEARCHING,15.704,13.169,1.924,0.00,0.00,58.42,3.927,8.436,3.054,3.660,4.777,0,0,SEARCHING,0.000,0.800,-0.082,0.063
22:17:23.099,SEARCHING,15.754,13.251,1.908,0.00,0.00,58.84,3.859,8.632,3.069,3.727,4.719,0,0,SEARCHING,0.000,0.800,-0.075,0.057
22:17:23.301,SEARCHING,15.804,13.333,1.894,0.00,0.00,59.22,3.827,8.724,3.104,3.745,4.675,0,0,SEARCHING,0.000,0.800,-0.067,0.052
22:17:23.500,SEARCHING,15.853,13.416,1.880,0.00,0.00,59.56,3.760,9.141,3.161,3.791,4.642,0,0,SEARCHING,0.000,0.800,-0.063,0.046
22:17:23.700,SEARCHING,15.901,13.499,1.868,0.00,0.00,59.85,3.740,9.373,3.194,3.799,4.604,0,0,SEARCHING,0.000,0.800,-0.058,0.040
22:17:23.901,SEARCHING,15.949,13.582,1.857,0.00,0.00,60.10,3.691,9.507,3.235,3.826,4.579,0,0,SEARCHING,0.000,0.800,-0.054,0.034
22:17:24.102,SEARCHING,15.997,13.665,1.848,0.00,0.00,60.33,3.673,9.810,3.227,3.862,4.561,0,0,SEARCHING,0.000,0.800,-0.018,0.031
22:17:24.302,SEARCHING,16.060,13.776,1.846,0.00,0.00,60.61,3.630,9.802,3.280,3.896,4.545,0,0,SEARCHING,0.000,0.800,-0.004,0.028
22:17:24.503,SEARCHING,16.138,13.916,1.846,0.00,0.00,60.91,3.585,9.869,3.341,3.876,4.573,0,0,SEARCHING,0.000,0.800,-0.001,0.022
22:17:24.703,SEARCHING,16.216,14.056,1.846,0.00,0.00,61.15,3.554,9.972,3.329,3.841,4.557,0,0,SEARCHING,0.000,0.800,-0.000,0.017
22:17:24.904,SEARCHING,16.293,14.196,1.846,0.00,0.00,61.34,3.521,9.986,3.337,3.845,4.515,0,0,SEARCHING,0.000,0.800,-0.000,0.015
22:17:25.105,SEARCHING,16.369,14.337,1.846,0.00,0.00,61.50,3.470,9.998,3.318,3.834,4.523,0,0,SEARCHING,0.000,0.800,-0.000,0.012
22:17:25.307,SEARCHING,16.445,14.477,1.846,0.00,0.00,61.62,3.395,9.994,3.325,3.877,4.508,0,0,SEARCHING,0.000,0.800,-0.000,0.008
22:17:25.507,SEARCHING,16.521,14.618,1.846,0.00,0.00,61.70,3.314,9.982,3.384,3.853,4.571,0,0,SEARCHING,0.000,0.800,-0.000,0.001
22:17:25.707,SEARCHING,16.597,14.759,1.846,0.00,0.00,61.69,3.314,9.982,3.398,3.862,4.576,0,0,SEARCHING,0.000,0.800,-0.000,-0.004
22:17:27.963,SEARCHING,16.673,14.900,1.846,0.00,0.00,61.63,3.314,9.988,3.419,3.867,4.576,0,0,SEARCHING,0.000,0.800,-0.000,-0.006
22:17:27.992,SEARCHING,16.749,15.041,1.846,0.00,0.00,61.56,3.314,9.988,3.419,3.867,4.576,0,0,SEARCHING,0.000,0.800,-0.000,-0.007
22:17:28.154,SEARCHING,16.825,15.181,1.846,0.00,0.00,61.44,3.237,9.987,3.727,3.891,4.590,0,0,SEARCHING,0.000,0.800,-0.000,-0.022
22:17:28.349,SEARCHING,16.902,15.322,1.846,0.00,0.00,61.15,3.218,9.972,3.717,3.901,4.551,0,0,SEARCHING,0.000,0.800,-0.000,-0.031
22:17:28.549,SEARCHING,16.980,15.462,1.846,0.00,0.00,60.79,3.215,9.951,3.655,3.841,4.524,0,0,SEARCHING,0.000,0.800,-0.000,-0.032
22:17:28.749,SEARCHING,17.058,15.601,1.846,0.00,0.00,60.43,3.262,9.789,3.614,3.860,4.554,0,0,SEARCHING,0.000,0.800,-0.000,-0.027
22:17:28.949,SEARCHING,17.138,15.740,1.846,0.00,0.00,60.13,3.223,9.551,3.568,3.846,4.565,0,0,SEARCHING,0.000,0.800,-0.000,-0.025
22:17:29.150,SEARCHING,17.218,15.879,1.846,0.00,0.00,59.85,3.244,9.314,3.487,3.885,4.595,0,0,SEARCHING,0.000,0.800,-0.000,-0.021
22:17:29.351,SEARCHING,17.298,16.017,1.846,0.00,0.00,59.62,3.241,9.167,3.456,3.882,4.578,0,0,SEARCHING,0.000,0.800,-0.000,-0.017
22:17:29.552,SEARCHING,17.379,16.155,1.846,0.00,0.00,59.43,3.299,8.844,3.450,3.869,4.577,0,0,SEARCHING,0.000,0.800,-0.000,-0.015
22:17:29.753,SEARCHING,17.461,16.292,1.846,0.00,0.00,59.29,3.566,8.726,3.404,3.874,4.567,0,0,SEARCHING,0.000,0.800,-0.000,-0.002
22:17:29.952,SEARCHING,17.543,16.430,1.846,0.00,0.00,59.32,3.707,8.609,3.414,3.871,4.575,0,0,SEARCHING,0.000,0.800,-0.000,0.012
22:17:30.153,SEARCHING,17.624,16.568,1.846,0.00,0.00,59.47,3.737,8.270,3.415,3.882,4.576,0,0,SEARCHING,0.000,0.800,-0.000,0.017
22:17:30.353,SEARCHING,17.705,16.706,1.846,0.00,0.00,59.68,3.749,8.093,3.396,3.884,4.557,0,0,SEARCHING,0.000,0.800,-0.000,0.021
22:17:30.554,SEARCHING,17.786,16.844,1.846,0.00,0.00,59.93,3.751,8.192,3.395,3.872,4.541,0,0,SEARCHING,0.000,0.800,-0.000,0.022
22:17:30.754,SEARCHING,17.866,16.982,1.846,0.00,0.00,60.18,3.799,7.887,3.392,3.869,4.572,0,0,SEARCHING,0.000,0.800,-0.000,0.023
22:17:30.955,SEARCHING,17.945,17.121,1.846,0.00,0.00,60.45,3.812,7.724,3.413,3.877,4.576,0,0,SEARCHING,0.000,0.800,-0.000,0.024
22:17:31.155,SEARCHING,18.023,17.261,1.846,0.00,0.00,60.73,3.798,7.539,3.424,3.888,4.596,0,0,SEARCHING,0.000,0.800,-0.000,0.024
22:17:31.355,SEARCHING,18.101,17.400,1.846,0.00,0.00,61.00,3.747,7.392,3.534,3.879,4.552,0,0,SEARCHING,0.000,0.800,-0.000,0.019
22:17:31.556,SEARCHING,18.163,17.513,1.845,0.00,0.00,61.15,3.748,7.207,3.534,3.831,4.573,0,0,SEARCHING,0.000,0.800,-0.033,0.013
22:17:31.757,SEARCHING,18.210,17.597,1.839,0.00,0.00,61.24,3.740,7.157,3.570,3.903,4.530,0,0,SEARCHING,0.000,0.800,-0.013,0.011
22:17:31.957,SEARCHING,18.271,17.709,1.837,0.00,0.00,61.33,3.725,6.982,3.608,3.898,4.521,0,0,SEARCHING,0.000,0.800,-0.003,0.008
22:17:32.158,SEARCHING,18.348,17.849,1.837,0.00,0.00,61.42,3.695,7.050,3.559,3.916,4.570,0,0,SEARCHING,0.000,0.800,-0.001,0.008
22:17:32.358,SEARCHING,18.424,17.990,1.837,0.00,0.00,61.51,3.733,6.803,3.592,3.923,4.528,0,0,SEARCHING,0.000,0.800,-0.000,0.008
22:17:32.558,SEARCHING,18.500,18.131,1.837,0.00,0.00,61.61,3.737,6.569,3.587,3.921,4.498,0,0,SEARCHING,0.000,0.800,-0.000,0.009
22:17:32.760,SEARCHING,18.576,18.271,1.837,0.00,0.00,61.71,3.814,6.394,3.662,3.893,4.520,0,0,SEARCHING,0.000,0.800,-0.000,0.009
22:17:32.959,SEARCHING,18.652,18.412,1.837,0.00,0.00,61.82,3.874,6.230,3.701,3.907,4.570,0,0,SEARCHING,0.000,0.800,-0.000,0.010
22:17:33.159,SEARCHING,18.727,18.553,1.837,0.00,0.00,61.93,3.891,6.190,3.773,3.917,4.576,0,0,SEARCHING,0.000,0.800,-0.000,0.008
22:17:33.360,SEARCHING,18.803,18.695,1.837,0.00,0.00,62.02,3.880,5.960,3.811,3.888,4.549,0,0,SEARCHING,0.000,0.800,-0.000,0.006
22:17:33.562,SEARCHING,18.878,18.836,1.837,0.00,0.00,62.08,3.878,5.771,3.804,3.866,4.545,0,0,SEARCHING,0.000,0.800,-0.000,0.004
22:17:33.761,SEARCHING,18.952,18.977,1.837,0.00,0.00,62.13,3.865,5.570,3.799,3.924,4.507,0,0,SEARCHING,0.000,0.800,-0.000,0.004
22:17:33.964,SEARCHING,19.027,19.119,1.837,0.00,0.00,62.18,3.867,5.398,3.790,3.911,4.568,0,0,SEARCHING,0.000,0.800,-0.000,0.004
22:17:34.165,SEARCHING,19.102,19.260,1.837,0.00,0.00,62.22,3.914,5.195,3.837,3.941,4.534,0,0,SEARCHING,0.000,0.800,-0.000,0.004
22:17:34.365,SEARCHING,19.176,19.402,1.837,0.00,0.00,62.27,3.942,5.041,3.883,3.901,4.516,0,0,SEARCHING,0.000,0.800,-0.000,0.004
22:17:34.566,SEARCHING,19.251,19.544,1.837,0.00,0.00,62.32,4.042,4.916,3.908,3.930,4.539,0,0,SEARCHING,0.000,0.800,-0.000,0.006
22:17:34.766,SEARCHING,19.325,19.685,1.837,0.00,0.00,62.39,4.103,4.822,3.968,3.902,4.572,0,0,SEARCHING,0.000,0.800,-0.000,0.007
22:17:34.966,SEARCHING,19.399,19.827,1.837,0.00,0.00,62.46,4.083,4.613,4.051,3.925,4.565,0,0,SEARCHING,0.000,0.800,-0.000,0.004
22:17:35.167,SEARCHING,19.473,19.969,1.837,0.00,0.00,62.50,4.103,4.471,4.074,3.933,4.575,0,0,SEARCHING,0.000,0.800,-0.000,0.002
22:17:35.365,SEARCHING,19.547,20.111,1.837,0.00,0.00,62.52,4.061,4.316,4.064,3.930,4.549,0,0,SEARCHING,0.000,0.800,-0.000,0.001
22:17:35.564,SEARCHING,19.621,20.253,1.837,0.00,0.00,62.53,4.003,4.141,4.036,3.943,4.551,0,0,SEARCHING,0.000,0.800,-0.000,-0.001
22:17:35.764,SEARCHING,19.694,20.395,1.837,0.00,0.00,62.52,3.974,3.934,4.054,3.918,4.567,0,0,SEARCHING,0.000,0.800,-0.000,-0.002
22:17:35.966,SEARCHING,19.768,20.537,1.837,0.00,0.00,62.47,3.888,3.636,4.117,3.645,4.571,0,0,SEARCHING,0.000,0.800,-0.020,-0.008
22:17:36.165,SEARCHING,19.813,20.622,1.831,0.00,0.00,62.41,3.829,3.535,4.168,3.555,4.507,0,0,SEARCHING,0.000,0.800,-0.058,-0.013
22:17:36.365,SEARCHING,19.857,20.707,1.818,0.00,0.00,62.30,3.749,3.434,4.244,3.401,4.509,0,0,SEARCHING,0.000,0.800,-0.075,-0.019
22:17:36.566,SEARCHING,19.902,20.792,1.802,0.00,0.00,62.15,3.726,3.346,4.262,3.312,4.489,0,0,SEARCHING,0.000,0.800,-0.086,-0.024
22:17:36.766,SEARCHING,19.947,20.877,1.785,0.00,0.00,61.97,3.636,3.296,4.326,3.226,4.411,0,0,SEARCHING,0.000,0.800,-0.094,-0.030
22:17:36.966,SEARCHING,19.992,20.962,1.765,0.00,0.00,61.73,3.451,3.222,4.436,2.974,4.384,0,0,SEARCHING,0.000,0.800,-0.107,-0.042
22:17:37.168,SEARCHING,20.038,21.046,1.742,0.00,0.00,61.39,3.304,3.092,4.546,2.684,4.289,0,0,SEARCHING,0.000,0.800,-0.145,-0.057
22:17:37.367,SEARCHING,20.084,21.130,1.711,0.00,0.00,60.97,3.245,3.125,4.533,2.920,4.259,0,0,SEARCHING,0.000,0.800,-0.158,-0.066
22:17:37.568,SEARCHING,20.131,21.214,1.681,0.00,0.00,60.49,3.137,3.089,4.466,3.003,4.195,0,0,SEARCHING,0.000,0.800,-0.128,-0.072
22:17:37.769,SEARCHING,20.179,21.297,1.657,0.00,0.00,59.98,3.170,5.443,4.414,2.936,4.127,0,0,SEARCHING,0.000,0.800,-0.118,-0.074
22:17:37.969,SEARCHING,20.227,21.380,1.633,0.00,0.00,59.53,3.717,6.063,4.435,2.821,4.095,0,0,SEARCHING,0.000,0.800,-0.125,-0.051
22:17:38.169,SEARCHING,20.276,21.463,1.607,0.00,0.00,59.24,3.822,6.244,4.412,2.647,4.043,0,0,SEARCHING,0.000,0.800,-0.142,-0.034
22:17:38.371,SEARCHING,20.325,21.545,1.578,0.00,0.00,59.03,3.859,6.260,4.476,2.471,3.956,0,0,SEARCHING,0.000,0.800,-0.164,-0.029
22:17:38.571,SEARCHING,20.375,21.627,1.543,0.00,0.00,58.83,3.863,6.234,4.579,2.314,3.891,0,0,SEARCHING,0.000,0.800,-0.194,-0.030
22:17:38.771,SEARCHING,20.424,21.710,1.505,0.00,0.00,58.60,3.800,6.196,4.807,2.650,3.764,0,0,SEARCHING,0.000,0.800,-0.163,-0.037
22:17:38.972,SEARCHING,20.475,21.791,1.475,0.00,0.00,58.32,3.848,6.129,5.039,2.615,3.672,0,0,SEARCHING,0.000,0.800,-0.136,-0.045
22:17:39.173,SEARCHING,20.525,21.873,1.448,0.00,0.00,57.99,3.872,6.062,5.368,3.185,3.598,0,0,SEARCHING,0.000,0.800,-0.087,-0.052
22:17:39.373,SEARCHING,20.576,21.954,1.436,0.00,0.00,57.62,3.902,5.905,5.572,4.441,3.578,0,0,SEARCHING,0.000,0.800,-0.001,-0.057
22:17:39.573,SEARCHING,20.628,22.035,1.440,0.00,0.00,57.20,3.881,5.920,5.571,4.880,3.572,0,0,SEARCHING,0.000,0.800,0.064,-0.063
22:17:39.774,SEARCHING,20.680,22.116,1.455,0.00,0.00,56.77,3.843,5.817,5.628,4.902,3.634,0,0,SEARCHING,0.000,0.800,0.082,-0.063
22:17:39.974,SEARCHING,20.733,22.196,1.471,0.00,0.00,56.33,3.805,5.752,5.485,4.904,3.677,0,0,SEARCHING,0.000,0.800,0.083,-0.064
22:17:40.174,SEARCHING,20.786,22.276,1.488,0.00,0.00,55.89,3.739,5.622,5.553,4.865,3.720,0,0,SEARCHING,0.000,0.800,0.079,-0.067
22:17:40.375,SEARCHING,20.841,22.355,1.503,0.00,0.00,55.42,3.723,5.576,5.578,4.850,3.786,0,0,SEARCHING,0.000,0.800,0.073,-0.070
22:17:40.575,SEARCHING,20.895,22.434,1.517,0.00,0.00,54.93,3.713,5.561,5.581,4.777,3.810,0,0,SEARCHING,0.000,0.800,0.067,-0.072
22:17:40.776,SEARCHING,20.951,22.512,1.531,0.00,0.00,54.44,3.699,5.475,5.464,4.768,3.813,0,0,SEARCHING,0.000,0.800,0.064,-0.070
22:17:40.976,SEARCHING,21.007,22.590,1.543,0.00,0.00,53.96,3.699,5.425,5.450,4.701,3.861,0,0,SEARCHING,0.000,0.800,0.060,-0.069
22:17:41.177,SEARCHING,21.064,22.667,1.555,0.00,0.00,53.49,3.692,5.362,5.293,4.714,3.876,0,0,SEARCHING,0.000,0.800,0.056,-0.068
22:17:41.378,SEARCHING,21.121,22.744,1.566,0.00,0.00,53.03,3.682,5.298,5.282,4.675,3.919,0,0,SEARCHING,0.000,0.800,0.038,-0.066
22:17:41.577,SEARCHING,21.179,22.821,1.571,0.00,0.00,52.58,3.690,5.352,5.175,4.602,3.942,0,0,SEARCHING,0.000,0.800,0.009,-0.064
22:17:41.778,SEARCHING,21.277,22.947,1.571,0.00,0.00,51.85,3.696,5.307,5.062,4.584,3.945,0,0,SEARCHING,0.000,0.800,0.002,-0.061
22:17:41.979,SEARCHING,21.376,23.073,1.571,0.00,0.00,51.16,3.674,5.258,4.931,4.571,3.945,0,0,SEARCHING,0.000,0.800,0.001,-0.058
22:17:42.178,SEARCHING,21.477,23.197,1.571,0.00,0.00,50.50,3.676,5.172,4.876,4.576,3.945,0,0,SEARCHING,0.000,0.800,0.000,-0.055
22:17:42.379,SEARCHING,21.580,23.320,1.571,0.00,0.00,49.88,3.643,5.120,4.730,4.631,3.945,0,0,SEARCHING,0.000,0.800,0.000,-0.052
22:17:42.580,SEARCHING,21.684,23.442,1.571,0.00,0.00,49.29,3.634,5.066,4.629,4.660,3.925,0,0,SEARCHING,0.000,0.800,0.000,-0.049
22:17:42.780,SEARCHING,21.788,23.562,1.571,0.00,0.00,48.74,3.653,5.025,4.488,4.636,3.887,0,0,SEARCHING,0.000,0.800,0.000,-0.044
22:17:42.981,SEARCHING,21.873,23.658,1.573,0.00,0.00,48.36,3.672,4.973,4.411,4.638,3.879,0,0,SEARCHING,0.000,0.800,0.034,-0.038
22:17:43.181,SEARCHING,21.937,23.730,1.579,0.00,0.00,48.10,3.608,4.814,4.338,4.638,3.924,0,0,SEARCHING,0.000,0.800,0.013,-0.037
22:17:43.381,SEARCHING,22.023,23.825,1.580,0.00,0.00,47.76,3.554,4.778,4.259,4.642,3.939,0,0,SEARCHING,0.000,0.800,0.003,-0.037
22:17:43.582,SEARCHING,22.131,23.943,1.580,0.00,0.00,47.33,3.412,4.687,4.138,4.584,3.944,0,0,SEARCHING,0.000,0.800,0.001,-0.039
22:17:43.782,SEARCHING,22.240,24.060,1.580,0.00,0.00,46.87,3.281,4.619,3.997,4.550,3.945,0,0,SEARCHING,0.000,0.800,0.000,-0.042
22:17:43.982,SEARCHING,22.349,24.177,1.580,0.00,0.00,46.39,3.184,4.445,3.853,4.446,3.945,0,0,SEARCHING,0.000,0.800,0.000,-0.043
22:17:44.183,SEARCHING,22.460,24.292,1.580,0.00,0.00,45.90,3.150,4.363,3.736,4.369,3.955,0,0,SEARCHING,0.000,0.800,0.000,-0.041
22:17:44.384,SEARCHING,22.572,24.407,1.580,0.00,0.00,45.43,3.068,4.256,3.607,4.244,3.946,0,0,SEARCHING,0.000,0.800,0.000,-0.040
22:17:44.584,SEARCHING,22.685,24.520,1.580,0.00,0.00,44.98,2.994,4.155,3.474,4.152,3.945,0,0,SEARCHING,0.000,0.800,0.000,-0.038
22:17:44.784,SEARCHING,22.798,24.633,1.580,0.00,0.00,44.55,2.945,4.004,3.375,4.013,3.904,0,0,SEARCHING,0.000,0.800,0.000,-0.036
22:17:44.985,SEARCHING,22.913,24.745,1.580,0.00,0.00,44.14,2.888,3.851,3.266,3.833,3.813,0,0,SEARCHING,0.000,0.800,0.000,-0.034
22:17:45.185,SEARCHING,23.028,24.856,1.580,0.00,0.00,43.77,2.826,3.699,3.134,3.685,3.683,0,0,SEARCHING,0.000,0.800,0.000,-0.030
22:17:45.386,SEARCHING,23.144,24.966,1.580,0.00,0.00,43.43,2.747,3.557,3.014,3.560,3.563,0,0,SEARCHING,0.000,0.800,0.000,-0.028
22:17:45.586,SEARCHING,23.260,25.076,1.580,0.00,0.00,43.12,2.709,3.415,2.891,3.413,3.413,0,0,SEARCHING,0.000,0.800,0.000,-0.023
22:17:45.787,SEARCHING,23.377,25.185,1.580,0.00,0.00,42.87,2.632,3.271,2.789,3.248,3.248,0,0,SEARCHING,0.000,0.800,0.000,-0.018
22:17:45.987,SEARCHING,23.495,25.294,1.580,0.00,0.00,42.67,2.560,3.100,2.663,3.089,3.085,0,0,SEARCHING,0.000,0.800,0.000,-0.015
22:17:46.188,SEARCHING,23.612,25.402,1.580,0.00,0.00,42.52,2.480,2.945,2.521,2.947,2.939,0,0,SEARCHING,0.000,0.800,0.000,-0.010
22:17:46.388,SEARCHING,23.730,25.510,1.580,0.00,0.00,42.42,2.391,2.811,2.396,2.811,2.797,0,0,SEARCHING,0.000,0.800,0.000,-0.004
22:17:46.589,SEARCHING,23.848,25.618,1.580,0.00,0.00,42.39,2.260,2.659,2.279,2.662,2.658,0,0,SEARCHING,0.000,0.800,0.000,-0.002
22:17:46.789,SEARCHING,23.967,25.726,1.580,0.00,0.00,42.36,2.128,2.497,2.153,2.497,2.491,0,0,SEARCHING,0.000,0.800,0.000,-0.004
22:17:46.989,SEARCHING,24.085,25.834,1.580,0.00,0.00,42.31,2.028,2.354,2.033,2.347,2.344,0,0,SEARCHING,0.000,0.800,0.000,-0.003
22:17:47.190,SEARCHING,24.203,25.941,1.580,0.00,0.00,42.30,1.964,2.218,1.906,2.207,2.204,0,0,SEARCHING,0.000,0.800,0.000,0.004
22:17:47.391,SEARCHING,24.322,26.049,1.580,0.00,0.00,42.37,1.866,2.074,1.783,2.058,2.052,0,0,SEARCHING,0.000,0.800,0.000,0.014
22:17:47.591,SEARCHING,24.439,26.156,1.580,0.00,0.00,42.56,1.789,1.927,1.657,1.924,1.917,0,0,SEARCHING,0.000,0.755,0.000,0.026
22:17:47.791,SEARCHING,24.546,26.255,1.580,0.00,0.00,42.90,1.712,1.791,1.542,1.791,1.794,0,0,SEARCHING,0.000,0.667,0.000,0.041
22:17:47.992,SEARCHING,24.640,26.344,1.580,0.00,0.00,43.41,1.629,1.671,1.433,1.676,1.673,0,0,SEARCHING,0.000,0.583,0.000,0.057
22:17:48.193,SEARCHING,24.722,26.421,1.580,0.00,0.00,44.10,1.554,1.570,1.340,1.574,1.578,0,0,SEARCHING,0.000,0.509,0.000,0.071
22:17:48.393,SEARCHING,24.792,26.490,1.580,0.00,0.00,44.96,1.481,1.486,1.264,1.488,1.485,0,0,SEARCHING,0.000,0.452,0.000,0.085
22:17:48.593,SEARCHING,24.854,26.553,1.580,0.00,0.00,45.97,1.419,1.412,1.196,1.412,1.414,0,0,SEARCHING,0.000,0.404,0.000,0.097
22:17:48.793,SEARCHING,24.908,26.610,1.580,0.00,0.00,47.12,1.355,1.350,1.137,1.349,1.352,0,0,SEARCHING,0.000,0.366,0.000,0.107
22:17:48.994,SEARCHING,24.957,26.663,1.580,0.00,0.00,48.37,1.296,1.302,1.084,1.295,1.297,0,0,SEARCHING,0.000,0.336,0.000,0.115
22:17:49.195,SEARCHING,25.000,26.713,1.580,0.00,0.00,49.71,1.235,1.255,1.040,1.255,1.253,0,0,SEARCHING,0.000,0.310,0.000,0.120
22:17:49.395,SEARCHING,25.039,26.759,1.580,0.00,0.00,51.09,1.188,1.210,0.998,1.208,1.215,0,0,SEARCHING,0.000,0.287,0.000,0.124
22:17:49.595,SEARCHING,25.074,26.804,1.580,0.00,0.00,52.53,1.135,1.178,0.959,1.177,1.180,0,0,SEARCHING,0.000,0.269,0.000,0.127
22:17:49.796,SEARCHING,25.105,26.846,1.580,0.00,0.00,53.99,1.086,1.151,0.929,1.150,1.148,0,0,SEARCHING,0.000,0.256,0.000,0.127
22:17:49.996,SEARCHING,25.135,26.888,1.580,0.00,0.00,55.43,1.043,1.122,0.902,1.124,1.123,0,0,SEARCHING,0.000,0.251,0.000,0.123
22:17:50.197,SEARCHING,25.163,26.929,1.580,0.00,0.00,56.83,1.003,1.099,0.871,1.102,1.100,0,0,SEARCHING,0.000,0.250,0.000,0.121
22:17:50.397,SEARCHING,25.190,26.971,1.580,0.00,0.00,58.21,0.960,1.077,0.848,1.080,1.077,0,0,SEARCHING,0.000,0.250,0.000,0.116
22:17:50.598,SEARCHING,25.216,27.014,1.580,0.00,0.00,59.52,0.920,1.054,0.820,1.051,1.054,0,0,SEARCHING,0.000,0.250,0.000,0.110
22:17:50.798,SEARCHING,25.240,27.058,1.580,0.00,0.00,60.76,0.881,1.031,0.795,1.028,1.032,0,0,SEARCHING,0.000,0.250,0.000,0.104
22:17:51.000,SEARCHING,25.264,27.101,1.580,0.00,0.00,61.92,0.841,1.002,0.768,1.007,1.003,0,0,SEARCHING,0.000,0.250,0.000,0.094
22:17:51.199,SEARCHING,25.288,27.146,1.580,0.00,0.00,62.98,0.801,0.980,0.745,0.982,0.979,0,0,SEARCHING,0.000,0.250,0.000,0.085
22:17:51.400,SEARCHING,25.310,27.190,1.580,0.00,0.00,63.91,0.760,0.947,0.722,0.948,0.949,0,0,SEARCHING,0.000,0.250,0.000,0.068
22:17:51.600,SEARCHING,25.332,27.235,1.580,0.00,0.00,64.63,0.721,0.899,0.695,0.899,0.899,0,0,SEARCHING,0.000,0.250,0.000,0.052
22:17:51.801,SEARCHING,25.353,27.281,1.580,0.00,0.00,65.18,0.685,0.849,0.668,0.851,0.850,0,0,SEARCHING,0.000,0.250,0.000,0.039
22:17:52.001,SEARCHING,25.374,27.326,1.580,0.00,0.00,65.59,0.646,0.802,0.640,0.802,0.802,0,0,SEARCHING,0.000,0.250,0.000,0.025
22:17:52.202,INSPECTING,25.385,27.352,1.580,0.00,0.00,65.75,0.615,0.761,0.616,0.761,0.762,0,0,INSPECT_TOP,0.000,0.164,0.204,0.008
22:17:52.403,INSPECTING,25.393,27.369,1.633,0.00,0.00,65.77,0.604,0.745,0.607,0.747,0.746,0,0,INSPECT_TOP,0.000,0.154,0.353,0.002
22:17:52.603,INSPECTING,25.401,27.386,1.706,0.00,0.00,65.78,0.591,0.730,0.593,0.730,0.730,0,0,INSPECT_TOP,0.000,0.149,0.389,0.000
22:17:52.803,INSPECTING,25.408,27.402,1.785,0.00,0.00,65.78,0.579,0.714,0.582,0.715,0.714,0,0,INSPECT_TOP,0.000,0.145,0.397,0.000
22:17:53.004,INSPECTING,25.415,27.418,1.865,0.00,0.00,65.78,0.565,0.697,0.569,0.699,0.698,0,0,INSPECT_TOP,0.000,0.142,0.399,0.000
22:17:53.204,INSPECTING,25.422,27.433,1.944,0.00,0.00,65.78,0.553,0.683,0.560,0.686,0.683,0,0,INSPECT_TOP,0.000,0.139,0.400,0.000
22:17:53.405,INSPECTING,25.429,27.448,2.024,0.00,0.00,65.78,0.541,0.669,0.549,0.672,0.668,0,0,INSPECT_TOP,0.000,0.136,0.400,0.000
22:17:53.606,INSPECTING,25.435,27.463,2.104,0.00,0.00,65.78,0.529,0.657,0.540,0.656,0.655,0,0,INSPECT_TOP,0.000,0.133,0.400,0.000
22:17:53.807,INSPECTING,25.442,27.477,2.184,0.00,0.00,65.78,0.518,0.642,0.530,0.641,0.642,0,0,INSPECT_TOP,0.000,0.130,0.400,0.000
22:17:54.008,INSPECTING,25.448,27.492,2.264,0.00,0.00,65.78,0.507,0.629,0.521,0.629,0.630,0,0,INSPECT_TOP,0.000,0.128,0.400,0.000
22:17:54.207,INSPECTING,25.454,27.505,2.344,0.00,0.00,65.78,0.496,0.614,0.516,0.615,0.616,0,0,INSPECT_TOP,0.000,0.125,0.400,0.000
22:17:54.408,INSPECTING,25.461,27.519,2.424,0.00,0.00,65.78,0.485,0.603,0.505,0.602,0.603,0,0,INSPECT_TOP,0.000,0.122,0.400,0.000
22:17:54.608,INSPECTING,25.466,27.532,2.504,0.00,0.00,65.78,0.475,0.588,0.497,0.588,0.589,0,0,INSPECT_TOP,0.000,0.119,0.400,0.000
22:17:54.808,INSPECTING,25.472,27.545,2.584,0.00,0.00,65.78,0.465,0.575,0.485,0.576,0.576,0,0,INSPECT_TOP,0.000,0.117,0.400,0.000
22:17:55.009,INSPECTING,25.478,27.558,2.664,0.00,0.00,65.78,0.455,0.562,0.477,0.563,0.562,0,0,INSPECT_TOP,0.000,0.114,0.400,0.000
22:17:55.209,INSPECTING,25.484,27.570,2.744,0.00,0.00,65.78,0.447,0.551,0.468,0.551,0.551,0,0,INSPECT_TOP,0.000,0.112,0.400,0.000
22:17:55.409,INSPECTING,25.489,27.582,2.824,0.00,0.00,65.78,0.436,0.539,0.461,0.539,0.539,0,0,INSPECT_TOP,0.000,0.109,0.400,0.000
22:17:55.610,INSPECTING,25.494,27.594,2.904,0.00,0.00,65.78,0.426,0.527,0.454,0.526,0.527,0,0,INSPECT_TOP,0.000,0.107,0.400,0.000
22:17:55.810,INSPECTING,25.500,27.606,2.984,0.00,0.00,65.78,0.417,0.517,0.444,0.516,0.516,0,0,INSPECT_TOP,0.000,0.105,0.400,0.000
22:17:56.010,INSPECTING,25.505,27.617,3.064,0.00,0.00,65.78,0.408,0.505,0.562,0.503,0.505,0,0,INSPECT_TOP,0.000,0.102,0.400,0.000
22:17:56.247,TURNING,25.510,27.628,3.144,0.00,0.00,65.78,0.398,0.494,0.637,0.493,0.495,0,0,TURNING,0.000,0.086,0.280,0.420
22:17:56.411,TURNING,25.512,27.633,3.191,0.00,0.00,69.43,0.391,0.479,0.621,0.459,0.480,0,0,TURNING,0.000,0.062,0.096,1.064
22:17:56.621,TURNING,25.514,27.640,3.204,0.00,0.00,77.85,0.378,0.447,0.547,0.416,0.447,1,0,TURNING,0.000,0.053,0.023,1.319
22:17:56.828,TURNING,25.515,27.644,3.207,0.00,0.00,84.07,0.372,0.424,0.492,0.416,0.423,1,0,TURNING,0.000,0.051,0.006,1.381
22:17:57.020,TURNING,25.514,27.654,3.207,0.00,0.00,99.93,0.381,0.405,0.433,0.401,0.405,1,0,TURNING,0.000,0.050,0.001,1.395
22:17:57.219,TURNING,25.511,27.664,3.207,0.00,0.00,115.93,0.412,0.401,0.392,0.399,0.401,1,0,TURNING,0.000,0.050,0.000,1.399
22:17:57.432,TURNING,25.506,27.672,3.207,0.00,0.00,131.96,0.458,0.409,0.372,0.401,0.410,1,0,TURNING,0.000,0.050,0.000,1.400
22:17:57.615,TURNING,25.498,27.678,3.207,0.00,0.00,148.00,0.680,0.471,0.384,0.394,0.471,0,0,TURNING,0.000,0.050,0.000,1.400
22:17:57.816,TURNING,25.489,27.683,3.207,0.00,0.00,164.04,1.204,0.598,0.440,0.400,0.598,0,0,TURNING,0.000,0.050,0.000,1.400
22:17:58.019,TURNING,25.480,27.684,3.207,0.00,-0.00,-179.92,1.682,1.122,0.622,0.412,1.126,0,0,TURNING,0.000,0.050,0.000,1.400
22:17:58.220,TURNING,25.470,27.683,3.207,0.00,-0.00,-163.87,1.557,1.205,1.040,0.434,2.311,0,0,TURNING,0.000,0.050,0.000,1.400
22:17:58.421,TURNING,25.461,27.679,3.207,0.00,-0.00,-147.83,1.458,2.041,1.534,0.435,4.242,0,0,TURNING,0.000,0.050,0.000,1.400
22:17:58.621,TURNING,25.453,27.673,3.207,0.00,-0.00,-131.79,1.465,2.189,1.279,0.432,4.812,0,0,TURNING,0.000,0.050,0.000,1.400
22:17:58.863,RETURNING,25.447,27.664,3.207,0.00,-0.00,-115.74,1.157,1.360,1.195,0.408,4.584,0,0,TURNING,0.000,0.035,0.000,0.980
22:17:59.023,RETURNING,25.441,27.650,3.169,0.00,-0.00,-113.95,1.217,1.290,1.366,0.464,3.598,0,0,RETURNING,0.000,0.243,-0.532,0.185
22:17:59.223,RETURNING,25.426,27.617,3.052,0.00,-0.00,-113.45,2.090,1.843,1.840,0.691,3.462,0,0,RETURNING,0.000,0.429,-0.660,-0.038
22:17:59.420,RETURNING,25.399,27.556,2.918,0.00,-0.00,-114.30,2.700,2.913,2.830,1.025,3.398,0,0,RETURNING,0.000,0.667,-0.690,-0.179
22:17:59.619,RETURNING,25.363,27.478,2.781,0.00,-0.00,-115.70,2.690,3.264,3.797,1.383,3.316,0,0,RETURNING,0.000,0.740,-0.616,-0.220
22:17:59.820,RETURNING,25.323,27.397,2.667,0.00,-0.00,-117.25,2.626,3.309,4.120,1.671,3.282,0,0,RETURNING,0.000,0.762,-0.453,-0.225
22:18:00.020,RETURNING,25.280,27.316,2.584,0.00,-0.00,-118.78,2.594,3.393,4.080,1.913,3.387,0,0,RETURNING,0.000,0.771,-0.336,-0.215
22:18:02.515,RETURNING,25.215,27.202,2.522,0.00,-0.00,-120.79,2.591,3.594,4.041,2.079,3.563,0,0,RETURNING,0.000,0.778,-0.270,-0.197
22:18:02.524,RETURNING,25.199,27.175,2.468,0.00,-0.00,-121.22,2.594,3.623,3.973,2.080,3.601,0,0,RETURNING,0.000,0.782,-0.250,-0.182
22:18:02.594,RETURNING,25.158,27.108,2.420,0.00,-0.00,-122.23,2.605,3.699,3.925,2.194,3.704,0,0,RETURNING,0.000,0.784,-0.239,-0.170
22:18:02.773,RETURNING,25.107,27.029,2.374,0.00,-0.00,-123.36,2.633,4.106,3.867,2.494,4.072,0,0,RETURNING,0.000,0.787,-0.203,-0.155
22:18:02.971,RETURNING,25.054,26.950,2.334,0.00,-0.00,-124.38,2.580,4.491,3.775,2.590,4.794,0,0,RETURNING,0.000,0.790,-0.203,-0.142
22:18:03.171,RETURNING,25.000,26.872,2.293,0.00,-0.00,-125.32,2.464,5.441,3.708,2.722,5.460,0,0,RETURNING,0.000,0.792,-0.215,-0.132
22:18:03.373,RETURNING,24.945,26.795,2.249,0.00,-0.00,-126.20,2.371,6.158,3.669,2.813,5.588,0,0,RETURNING,0.000,0.793,-0.217,-0.124
22:18:03.572,RETURNING,24.888,26.719,2.207,0.00,-0.00,-127.02,2.269,7.340,3.565,2.930,5.589,0,0,RETURNING,0.000,0.795,-0.205,-0.116
22:18:03.772,RETURNING,24.830,26.643,2.167,0.00,-0.00,-127.80,2.208,8.591,3.532,3.043,5.471,0,0,RETURNING,0.000,0.796,-0.188,-0.109
22:18:03.975,RETURNING,24.771,26.568,2.130,0.00,-0.00,-128.53,2.175,9.236,3.482,3.151,5.354,0,0,RETURNING,0.000,0.797,-0.170,-0.101
22:18:04.175,RETURNING,24.711,26.493,2.097,0.00,-0.00,-129.19,2.231,8.927,3.403,3.230,5.325,0,0,RETURNING,0.000,0.798,-0.155,-0.091
22:18:04.375,RETURNING,24.650,26.419,2.067,0.00,-0.00,-129.79,2.306,8.654,3.316,3.304,5.215,0,0,RETURNING,0.000,0.798,-0.141,-0.080
22:18:04.575,RETURNING,24.589,26.346,2.039,0.00,-0.00,-130.30,2.374,8.180,3.239,3.400,5.130,0,0,RETURNING,0.000,0.799,-0.127,-0.068
22:18:04.776,RETURNING,24.526,26.273,2.015,0.00,-0.00,-130.73,2.464,7.917,3.052,3.419,5.082,0,0,RETURNING,0.000,0.799,-0.118,-0.056
22:18:04.978,RETURNING,24.464,26.200,1.991,0.00,-0.00,-131.08,2.480,8.024,2.954,3.524,4.987,0,0,RETURNING,0.000,0.799,-0.109,-0.045
22:18:05.177,RETURNING,24.400,26.128,1.970,0.00,-0.00,-131.37,2.474,7.732,2.973,3.591,4.922,0,0,RETURNING,0.000,0.800,-0.099,-0.040
22:18:05.382,RETURNING,24.337,26.056,1.951,0.00,-0.00,-131.63,2.425,7.667,2.893,3.644,4.880,0,0,RETURNING,0.000,0.800,-0.089,-0.036
22:18:05.583,RETURNING,24.273,25.984,1.934,0.00,-0.00,-131.86,2.391,7.421,2.808,3.690,4.834,0,0,RETURNING,0.000,0.800,-0.083,-0.032
22:18:05.784,RETURNING,24.209,25.913,1.918,0.00,-0.00,-132.07,2.375,7.585,2.731,3.699,4.780,0,0,RETURNING,0.000,0.800,-0.077,-0.028
22:18:05.984,RETURNING,24.144,25.842,1.903,0.00,-0.00,-132.25,2.418,7.319,2.640,3.758,4.769,0,0,RETURNING,0.000,0.800,-0.071,-0.023
22:18:06.185,RETURNING,24.080,25.771,1.889,0.00,-0.00,-132.38,2.566,7.206,2.573,3.807,4.738,0,0,RETURNING,0.000,0.800,-0.066,-0.015
22:18:06.386,RETURNING,24.015,25.700,1.876,0.00,-0.00,-132.45,2.711,7.146,2.472,3.808,4.707,0,0,RETURNING,0.000,0.800,-0.062,-0.005
22:18:06.586,RETURNING,23.950,25.629,1.864,0.00,-0.00,-132.46,2.957,7.202,2.381,3.804,4.674,0,0,RETURNING,0.000,0.800,-0.060,0.005
22:18:06.785,RETURNING,23.886,25.558,1.852,0.00,-0.00,-132.39,2.987,7.111,2.309,3.851,4.624,0,0,RETURNING,0.000,0.800,-0.056,0.012
22:18:06.987,RETURNING,23.821,25.487,1.843,0.00,-0.00,-132.30,2.984,6.959,2.248,3.878,4.610,0,0,RETURNING,0.000,0.800,-0.019,0.015
22:18:07.187,RETURNING,23.735,25.393,1.841,0.00,-0.00,-132.15,2.984,6.943,2.174,3.882,4.580,0,0,RETURNING,0.000,0.800,-0.004,0.017
22:18:07.388,RETURNING,23.628,25.274,1.841,0.00,-0.00,-131.95,2.937,7.014,2.100,3.897,4.584,0,0,RETURNING,0.000,0.800,-0.001,0.018
22:18:07.588,RETURNING,23.521,25.155,1.841,0.00,-0.00,-131.78,2.963,6.966,3.792,3.939,4.577,0,0,RETURNING,0.000,0.800,-0.000,-0.007
22:18:07.789,RETURNING,23.414,25.036,1.841,0.00,-0.00,-131.95,3.087,6.895,4.167,3.939,4.576,0,0,RETURNING,0.000,0.800,-0.000,-0.028
22:18:07.990,RETURNING,23.307,24.917,1.841,0.00,-0.00,-132.28,3.387,6.837,4.176,3.916,4.576,0,0,RETURNING,0.000,0.800,-0.000,-0.028
22:18:08.190,RETURNING,23.199,24.799,1.841,0.00,-0.00,-132.58,3.550,6.743,4.071,3.908,4.576,0,0,RETURNING,0.000,0.800,-0.000,-0.020
22:18:08.390,RETURNING,23.091,24.681,1.841,0.00,-0.00,-132.79,3.585,6.571,3.987,3.933,4.576,0,0,RETURNING,0.000,0.800,-0.000,-0.014
22:18:08.590,RETURNING,22.982,24.564,1.841,0.00,-0.00,-132.93,3.714,6.542,3.900,3.893,4.576,0,0,RETURNING,0.000,0.800,-0.000,-0.009
22:18:08.791,RETURNING,22.873,24.447,1.841,0.00,-0.00,-133.02,3.996,6.353,3.854,3.895,4.581,0,0,RETURNING,0.000,0.800,-0.000,-0.003
22:18:08.992,RETURNING,22.763,24.330,1.841,0.00,-0.00,-133.03,4.182,6.201,3.736,3.924,4.577,0,0,RETURNING,0.000,0.800,-0.000,0.003
22:18:09.192,RETURNING,22.654,24.213,1.841,0.00,-0.00,-132.99,4.253,6.088,3.687,3.943,4.576,0,0,RETURNING,0.000,0.800,-0.000,0.006
22:18:09.393,RETURNING,22.545,24.096,1.841,0.00,-0.00,-132.92,4.240,6.015,3.641,3.936,4.576,0,0,RETURNING,0.000,0.800,-0.000,0.007
22:18:09.593,RETURNING,22.436,23.979,1.841,0.00,-0.00,-132.83,4.322,5.861,3.559,3.944,4.576,0,0,RETURNING,0.000,0.800,-0.000,0.008
22:18:09.790,RETURNING,22.328,23.861,1.841,0.00,-0.00,-132.74,4.509,5.720,3.545,3.906,4.576,0,0,RETURNING,0.000,0.800,-0.000,0.009
22:18:09.990,RETURNING,22.219,23.744,1.841,0.00,-0.00,-132.63,4.757,5.660,3.476,3.917,4.576,0,0,RETURNING,0.000,0.800,-0.000,0.012
22:18:10.191,RETURNING,22.111,23.626,1.841,0.00,-0.00,-132.50,4.909,5.480,3.381,3.903,4.586,0,0,RETURNING,0.000,0.800,-0.000,0.013
22:18:10.391,RETURNING,22.003,23.508,1.841,0.00,-0.00,-132.34,5.051,5.399,3.340,3.909,4.589,0,0,RETURNING,0.000,0.800,-0.000,0.015
22:18:10.592,RETURNING,21.895,23.389,1.841,0.00,-0.00,-132.17,5.099,5.297,3.334,3.917,4.578,0,0,RETURNING,0.000,0.800,-0.000,0.014
22:18:10.792,RETURNING,21.788,23.271,1.841,0.00,-0.00,-132.01,5.172,5.248,3.222,3.953,4.577,0,0,RETURNING,0.000,0.800,-0.000,0.014
22:18:10.992,RETURNING,21.681,23.152,1.841,0.00,-0.00,-131.84,5.231,5.171,3.174,3.946,4.576,0,0,RETURNING,0.000,0.800,-0.000,0.015
22:18:11.193,RETURNING,21.575,23.032,1.841,0.00,-0.00,-131.68,5.210,5.105,3.165,3.950,4.558,0,0,RETURNING,0.000,0.800,-0.000,0.013
22:18:11.393,RETURNING,21.469,22.913,1.841,0.00,-0.00,-131.53,5.156,5.047,3.106,3.946,4.495,0,0,RETURNING,0.000,0.800,-0.000,0.012
22:18:11.594,RETURNING,21.363,22.793,1.841,0.00,-0.00,-131.39,5.195,4.929,3.052,3.931,4.440,0,0,RETURNING,0.000,0.800,-0.000,0.011
22:18:11.795,RETURNING,21.257,22.673,1.841,0.00,-0.00,-131.26,5.157,4.934,3.002,3.909,4.493,0,0,RETURNING,0.000,0.800,-0.000,0.011
22:18:11.996,RETURNING,21.152,22.552,1.841,0.00,-0.00,-131.14,5.069,4.903,2.959,3.902,4.538,0,0,RETURNING,0.000,0.800,-0.000,0.010
22:18:12.196,RETURNING,21.047,22.432,1.841,0.00,-0.00,-131.04,5.032,4.889,2.879,3.881,4.520,0,0,RETURNING,0.000,0.799,-0.000,0.009
22:18:12.396,RETURNING,20.942,22.311,1.841,0.00,-0.00,-130.93,5.079,4.918,2.832,3.893,4.500,0,0,RETURNING,0.000,0.799,-0.000,0.010
22:18:12.596,RETURNING,20.837,22.190,1.841,0.00,-0.00,-130.81,5.278,4.927,2.790,3.880,4.488,0,0,RETURNING,0.000,0.799,-0.000,0.011
22:18:12.797,RETURNING,20.733,22.069,1.841,0.00,-0.00,-130.69,5.379,4.924,2.698,3.934,4.555,0,0,RETURNING,0.000,0.799,-0.000,0.012
22:18:12.997,RETURNING,20.629,21.948,1.841,0.00,-0.00,-130.55,5.423,4.891,2.672,3.927,4.556,0,0,RETURNING,0.000,0.799,-0.000,0.013
22:18:13.198,RETURNING,20.525,21.826,1.841,0.00,-0.00,-130.40,5.454,4.836,2.641,3.909,4.543,0,0,RETURNING,0.000,0.799,-0.000,0.013
22:18:13.398,RETURNING,20.421,21.704,1.841,0.00,-0.00,-130.26,5.426,4.839,2.562,3.917,4.507,0,0,RETURNING,0.000,0.799,-0.000,0.012
22:18:13.599,RETURNING,20.318,21.582,1.841,0.00,-0.00,-130.11,5.453,4.833,2.534,3.938,4.419,0,0,RETURNING,0.000,0.799,-0.000,0.012
22:18:13.800,RETURNING,20.215,21.460,1.841,0.00,-0.00,-129.98,5.412,4.832,2.501,3.917,4.409,0,0,RETURNING,0.000,0.799,-0.000,0.012
22:18:14.001,RETURNING,20.113,21.338,1.841,0.00,-0.00,-129.84,5.552,4.790,2.451,3.922,4.441,0,0,RETURNING,0.000,0.799,-0.000,0.012
22:18:14.200,RETURNING,20.011,21.215,1.841,0.00,-0.00,-129.70,5.667,4.710,2.391,3.911,4.428,0,0,RETURNING,0.000,0.798,-0.000,0.013
22:18:14.401,RETURNING,19.909,21.092,1.841,0.00,-0.00,-129.55,5.815,4.801,2.302,3.889,4.442,0,0,RETURNING,0.000,0.798,-0.000,0.015
22:18:14.601,RETURNING,19.807,20.969,1.841,0.00,-0.00,-129.37,5.923,4.737,2.159,3.894,4.481,0,0,RETURNING,0.000,0.798,-0.000,0.019
22:18:14.802,RETURNING,19.706,20.845,1.841,0.00,-0.00,-129.15,5.995,4.696,2.071,3.936,4.486,0,0,RETURNING,0.000,0.798,-0.000,0.022
22:18:15.002,RETURNING,19.606,20.721,1.841,0.00,-0.00,-128.89,5.928,4.631,2.041,3.910,4.487,0,0,RETURNING,0.000,0.798,-0.000,0.022
22:18:15.202,RETURNING,19.506,20.597,1.841,0.00,-0.00,-128.63,6.011,4.594,2.022,3.921,4.487,0,0,RETURNING,0.000,0.797,-0.000,0.021
22:18:15.403,RETURNING,19.407,20.472,1.841,0.00,-0.00,-128.40,5.998,4.532,2.035,3.901,4.410,0,0,RETURNING,0.000,0.797,-0.000,0.018
22:18:15.604,RETURNING,19.308,20.347,1.841,0.00,-0.00,-128.19,6.085,4.526,2.005,3.881,4.450,0,0,RETURNING,0.000,0.797,-0.000,0.016
22:18:15.804,RETURNING,19.209,20.222,1.841,0.00,-0.00,-128.01,6.156,4.469,2.005,3.900,4.301,0,0,RETURNING,0.000,0.796,-0.000,0.015
22:18:16.005,RETURNING,19.112,20.096,1.841,0.00,-0.00,-127.85,6.189,4.407,2.018,3.881,4.242,0,0,RETURNING,0.000,0.796,-0.000,0.012
22:18:16.205,RETURNING,19.014,19.970,1.841,0.00,-0.00,-127.72,6.324,4.360,1.995,3.879,4.208,0,0,RETURNING,0.000,0.796,-0.000,0.011
22:18:16.406,RETURNING,18.917,19.844,1.841,0.00,-0.00,-127.60,6.199,4.302,2.007,3.878,4.165,0,0,RETURNING,0.000,0.796,-0.000,0.009
22:18:16.606,RETURNING,18.820,19.718,1.841,0.00,-0.00,-127.50,6.046,4.249,1.988,3.908,4.157,0,0,RETURNING,0.000,0.796,-0.000,0.007
22:18:16.806,RETURNING,18.723,19.592,1.841,0.00,-0.00,-127.42,5.994,4.194,1.985,3.917,4.144,0,0,RETURNING,0.000,0.795,-0.000,0.006
22:18:17.007,RETURNING,18.626,19.465,1.841,0.00,-0.00,-127.37,5.765,4.126,1.970,3.886,4.076,0,0,RETURNING,0.000,0.795,-0.000,0.004
22:18:17.207,RETURNING,18.530,19.339,1.841,0.00,-0.00,-127.33,5.669,4.031,1.971,3.837,3.995,0,0,RETURNING,0.000,0.795,-0.000,0.002
22:18:17.408,RETURNING,18.433,19.212,1.841,0.00,-0.00,-127.32,5.464,3.902,2.014,3.816,3.934,0,0,RETURNING,0.000,0.795,-0.000,-0.001
22:18:17.609,RETURNING,18.337,19.086,1.841,0.00,-0.00,-127.34,5.251,3.816,2.034,3.744,3.861,0,0,RETURNING,0.000,0.795,-0.000,-0.005
22:18:17.809,RETURNING,18.241,18.960,1.841,0.00,-0.00,-127.40,5.153,3.721,1.978,3.682,3.778,0,0,RETURNING,0.000,0.795,-0.000,-0.005
22:18:18.009,RETURNING,18.144,18.833,1.841,0.00,-0.00,-127.46,4.964,3.641,1.927,3.595,3.691,0,0,RETURNING,0.000,0.795,-0.000,-0.004
22:18:18.210,RETURNING,18.047,18.707,1.841,0.00,-0.00,-127.50,4.795,3.591,1.896,3.548,3.610,0,0,RETURNING,0.000,0.795,-0.000,-0.003
