timestamp,state,x,y,z,roll_deg,pitch_deg,yaw_deg,dist_left,dist_center,dist_right,dist_top,dist_bottom,dtof_alert,collision_event,best_dir,max_space,cmd_vx,cmd_vz,cmd_yaw
00:02:45.043,SEARCHING,0.000,0.000,1.000,0.00,0.00,0.00,7.630,7.891,7.325,7.891,7.715,0,0,SEARCHING,0.000,0.240,0.000,0.001
00:02:45.225,SEARCHING,0.063,0.000,1.000,0.00,0.00,0.47,2.125,2.986,1.096,2.994,2.417,0,0,SEARCHING,0.000,0.666,0.061,0.216
00:02:45.426,SEARCHING,0.202,0.004,1.000,0.00,0.00,3.32,1.973,2.789,0.984,2.782,2.453,0,0,SEARCHING,0.000,0.768,0.070,0.349
00:02:45.626,SEARCHING,0.356,0.018,1.000,0.00,0.00,7.46,1.790,2.498,0.938,2.498,2.416,0,0,SEARCHING,0.000,0.792,0.023,0.393
00:02:45.827,SEARCHING,0.512,0.044,1.000,0.00,0.00,11.41,1.609,2.335,2.594,2.339,2.316,0,0,SEARCHING,0.000,0.798,0.005,0.081
00:02:46.027,SEARCHING,0.669,0.077,1.000,0.00,0.00,11.64,1.494,2.171,2.804,2.180,2.171,0,0,SEARCHING,0.000,0.800,0.001,-0.158
00:02:46.228,SEARCHING,0.825,0.107,1.000,0.00,0.00,9.59,1.441,2.021,2.778,2.022,2.009,0,0,SEARCHING,0.000,0.767,0.000,-0.236
00:02:46.428,SEARCHING,0.974,0.129,1.000,0.00,0.00,6.80,1.428,1.892,2.819,1.887,1.893,0,0,SEARCHING,0.000,0.695,0.000,-0.265
00:02:46.629,SEARCHING,1.110,0.142,1.000,0.00,0.00,3.73,1.441,1.856,2.855,1.852,1.854,0,0,SEARCHING,0.000,0.648,0.000,-0.275
00:02:46.829,SEARCHING,1.239,0.147,1.000,0.00,0.00,0.59,1.465,1.850,2.887,1.857,1.842,0,0,SEARCHING,0.000,0.632,0.000,-0.272
00:02:47.030,SEARCHING,1.365,0.145,1.000,0.00,0.00,-2.54,1.351,1.879,2.946,1.868,1.865,0,0,SEARCHING,0.000,0.630,0.000,-0.291
00:02:47.231,SEARCHING,1.491,0.136,1.000,0.00,0.00,-5.97,1.307,1.920,3.128,1.921,1.914,0,0,SEARCHING,0.000,0.637,0.000,-0.332
00:02:47.432,SEARCHING,1.618,0.119,1.000,0.00,0.00,-9.85,1.309,2.014,3.433,2.011,2.019,0,0,SEARCHING,0.000,0.667,0.000,-0.361
00:02:47.632,SEARCHING,1.751,0.091,1.000,0.00,0.00,-14.04,1.336,2.169,3.802,2.176,2.169,0,0,SEARCHING,0.000,0.740,0.000,-0.380
00:02:47.833,SEARCHING,1.895,0.050,1.000,0.00,0.00,-18.40,1.396,2.259,3.949,2.257,2.245,0,0,SEARCHING,0.000,0.786,0.000,-0.378
00:02:48.034,SEARCHING,2.043,-0.005,1.000,0.00,0.00,-22.71,1.480,2.384,4.285,2.395,2.355,0,0,SEARCHING,0.000,0.797,0.000,-0.365
00:02:48.235,SEARCHING,2.188,-0.071,1.000,0.00,0.00,-26.85,1.600,2.647,4.731,2.644,2.433,0,0,SEARCHING,0.000,0.799,0.000,-0.347
00:02:48.434,SEARCHING,2.328,-0.148,1.000,0.00,0.00,-30.79,1.631,3.039,6.183,3.031,2.449,0,0,SEARCHING,0.000,0.800,0.052,-0.345
00:02:48.635,SEARCHING,2.463,-0.234,1.000,0.00,0.00,-34.78,1.720,3.253,6.485,3.273,2.452,0,0,SEARCHING,0.000,0.800,0.101,-0.351
00:02:48.836,SEARCHING,2.592,-0.329,1.000,0.00,0.00,-38.73,1.913,3.386,5.694,3.384,2.458,0,0,SEARCHING,0.000,0.800,0.121,-0.314
00:02:49.037,SEARCHING,2.713,-0.433,1.000,0.00,0.00,-42.20,2.170,3.635,5.011,3.654,2.467,0,0,SEARCHING,0.000,0.800,0.142,-0.254
00:02:49.238,SEARCHING,2.830,-0.543,1.000,0.00,0.00,-44.96,2.419,3.948,4.562,3.950,2.456,0,0,SEARCHING,0.000,0.800,0.168,-0.195
00:02:49.438,SEARCHING,2.941,-0.658,1.000,0.00,0.00,-47.08,2.438,4.574,4.258,4.335,2.466,0,0,SEARCHING,0.000,0.800,0.191,-0.156
00:02:49.638,SEARCHING,3.048,-0.777,1.000,0.00,0.00,-48.83,2.367,6.549,3.967,5.584,2.442,0,0,SEARCHING,0.000,0.800,0.237,-0.142
00:02:49.839,SEARCHING,3.152,-0.899,1.000,0.00,0.00,-50.43,2.385,6.661,3.740,5.938,2.466,0,0,SEARCHING,0.000,0.800,0.272,-0.130
00:02:50.040,SEARCHING,3.252,-1.023,1.000,0.00,0.00,-51.89,2.472,6.367,3.619,6.012,2.464,0,0,SEARCHING,0.000,0.800,0.283,-0.115
00:02:50.240,SEARCHING,3.350,-1.150,1.000,0.00,0.00,-53.16,2.531,6.107,3.450,6.020,2.465,0,0,SEARCHING,0.000,0.800,0.287,-0.097
00:02:50.440,SEARCHING,3.444,-1.279,1.000,0.00,0.00,-54.23,2.590,5.865,3.310,5.789,2.438,0,0,SEARCHING,0.000,0.800,0.287,-0.079
00:02:50.641,SEARCHING,3.537,-1.409,1.000,0.00,0.00,-55.08,2.673,5.631,3.204,5.524,2.470,0,0,SEARCHING,0.000,0.800,0.277,-0.061
00:02:50.842,SEARCHING,3.628,-1.541,1.000,0.00,0.00,-55.75,2.697,5.316,3.089,5.290,2.448,0,0,SEARCHING,0.000,0.800,0.268,-0.047
00:02:51.043,SEARCHING,3.717,-1.674,1.000,0.00,0.00,-56.26,2.715,5.126,3.011,5.123,2.436,0,0,SEARCHING,0.000,0.800,0.261,-0.036
00:02:51.243,SEARCHING,3.806,-1.807,1.000,0.00,0.00,-56.66,2.735,4.960,2.926,4.904,2.435,0,0,SEARCHING,0.000,0.800,0.254,-0.026
00:02:51.444,SEARCHING,3.894,-1.941,1.000,0.00,0.00,-56.81,4.391,4.862,2.859,4.759,2.440,0,0,SEARCHING,0.000,0.800,0.244,0.047
00:02:51.644,SEARCHING,3.982,-2.074,1.000,0.00,0.00,-56.13,4.585,4.778,2.831,4.761,2.477,0,0,SEARCHING,0.000,0.800,0.237,0.093
00:02:51.845,SEARCHING,4.072,-2.207,1.000,0.00,0.00,-55.02,4.429,4.814,2.824,4.812,2.466,0,0,SEARCHING,0.000,0.800,0.235,0.102
00:02:52.046,SEARCHING,4.165,-2.337,1.000,0.00,0.00,-53.86,4.154,4.795,2.856,4.831,2.440,0,0,SEARCHING,0.000,0.800,0.240,0.095
00:02:52.247,SEARCHING,4.260,-2.465,1.000,0.00,0.00,-52.80,3.944,4.828,2.849,4.844,2.435,0,0,SEARCHING,0.000,0.800,0.243,0.085
00:02:52.447,SEARCHING,4.358,-2.592,1.000,0.00,0.00,-51.85,3.791,4.864,2.892,4.873,2.464,0,0,SEARCHING,0.000,0.800,0.243,0.073
00:02:52.648,SEARCHING,4.458,-2.717,1.000,0.00,0.00,-51.03,3.685,4.863,2.892,4.877,2.462,0,0,SEARCHING,0.000,0.800,0.242,0.064
00:02:52.848,SEARCHING,4.559,-2.841,1.000,0.00,0.00,-50.32,3.621,4.948,2.902,4.901,2.448,0,0,SEARCHING,0.000,0.800,0.244,0.058
00:02:53.049,SEARCHING,4.662,-2.963,1.000,0.00,0.00,-49.66,3.545,4.971,2.905,4.933,2.445,0,0,SEARCHING,0.000,0.800,0.246,0.053
00:02:53.250,SEARCHING,4.766,-3.085,1.000,0.00,0.00,-49.06,3.463,5.052,2.909,5.042,2.449,0,0,SEARCHING,0.000,0.800,0.250,0.048
00:02:53.450,SEARCHING,4.871,-3.205,1.000,0.00,0.00,-48.52,3.395,5.121,2.885,5.104,2.479,0,0,SEARCHING,0.000,0.800,0.250,0.044
00:02:53.651,SEARCHING,4.978,-3.325,1.000,0.00,0.00,-48.03,3.410,5.206,2.903,5.113,2.473,0,0,SEARCHING,0.000,0.800,0.250,0.042
00:02:53.851,SEARCHING,5.085,-3.443,1.000,0.00,0.00,-47.55,3.384,5.237,2.872,4.996,2.458,0,0,SEARCHING,0.000,0.800,0.249,0.041
00:02:54.052,SEARCHING,5.194,-3.561,1.000,0.00,0.00,-47.08,3.381,5.333,2.855,4.843,2.438,0,0,SEARCHING,0.000,0.800,0.247,0.042
00:02:54.253,SEARCHING,5.303,-3.678,1.000,0.00,0.00,-46.59,3.367,5.400,2.853,4.702,2.455,0,0,SEARCHING,0.000,0.800,0.240,0.043
00:02:54.453,SEARCHING,5.414,-3.794,1.000,0.00,0.00,-46.09,3.365,5.687,2.811,4.564,2.450,0,0,SEARCHING,0.000,0.800,0.232,0.045
00:02:54.654,SEARCHING,5.525,-3.908,1.000,0.00,0.00,-45.57,3.365,5.832,2.705,4.439,2.458,0,0,SEARCHING,0.000,0.800,0.224,0.051
00:02:54.854,SEARCHING,5.637,-4.022,1.000,0.00,0.00,-44.96,3.301,5.949,2.690,4.336,2.454,0,0,SEARCHING,0.000,0.800,0.216,0.055
00:02:55.054,SEARCHING,5.751,-4.135,1.000,0.00,0.00,-44.33,3.290,6.058,2.674,4.165,2.463,0,0,SEARCHING,0.000,0.800,0.208,0.056
00:02:55.255,SEARCHING,5.866,-4.246,1.000,0.00,0.00,-43.69,3.243,6.104,2.693,4.034,2.480,0,0,SEARCHING,0.000,0.800,0.196,0.054
00:02:55.456,SEARCHING,5.983,-4.356,1.000,0.00,0.00,-43.08,3.164,6.055,2.702,3.822,2.489,0,0,SEARCHING,0.000,0.800,0.179,0.048
00:02:55.658,SEARCHING,6.100,-4.465,1.000,0.00,0.00,-42.55,3.101,5.820,2.724,3.681,2.477,0,0,SEARCHING,0.000,0.800,0.166,0.041
00:02:55.857,SEARCHING,6.218,-4.572,1.000,0.00,0.00,-42.10,3.022,5.768,2.705,3.526,2.440,0,0,SEARCHING,0.000,0.800,0.157,0.034
00:02:56.058,SEARCHING,6.337,-4.679,1.000,0.00,0.00,-41.72,2.966,5.691,2.714,3.398,2.460,0,0,SEARCHING,0.000,0.800,0.145,0.029
00:02:56.258,SEARCHING,6.457,-4.785,1.000,0.00,0.00,-41.40,2.926,5.658,2.728,3.281,2.443,0,0,SEARCHING,0.000,0.800,0.132,0.023
00:02:56.459,SEARCHING,6.577,-4.891,1.000,0.00,0.00,-41.15,2.917,5.451,2.729,3.099,2.457,0,0,SEARCHING,0.000,0.800,0.116,0.019
00:02:56.659,SEARCHING,6.698,-4.996,1.000,0.00,0.00,-40.93,2.886,5.365,2.726,2.960,2.446,0,0,SEARCHING,0.000,0.800,0.097,0.017
00:02:56.861,SEARCHING,6.819,-5.101,1.000,0.00,0.00,-40.74,2.859,5.175,2.771,2.830,2.466,0,0,SEARCHING,0.000,0.800,0.076,0.013
00:02:57.061,SEARCHING,6.940,-5.205,1.000,0.00,0.00,-40.62,2.841,5.039,3.005,2.748,2.456,0,0,SEARCHING,0.000,0.800,0.061,-0.003
00:02:57.261,SEARCHING,7.062,-5.309,1.000,0.00,0.00,-40.69,2.794,4.956,3.024,3.330,2.464,0,0,SEARCHING,0.000,0.800,0.058,-0.015
00:02:57.462,SEARCHING,7.183,-5.414,1.000,0.00,0.00,-40.88,2.805,4.838,3.021,4.565,2.461,0,0,SEARCHING,0.000,0.800,0.169,-0.019
00:02:57.663,SEARCHING,7.304,-5.519,1.000,0.00,0.00,-41.09,2.804,4.801,2.958,4.726,2.438,0,0,SEARCHING,0.000,0.800,0.220,-0.017
00:02:57.863,SEARCHING,7.424,-5.624,1.000,0.00,0.00,-41.28,2.810,4.706,2.895,4.731,2.448,0,0,SEARCHING,0.000,0.800,0.233,-0.013
00:02:58.063,SEARCHING,7.544,-5.730,1.000,0.00,0.00,-41.41,2.766,4.596,2.841,4.666,2.476,0,0,SEARCHING,0.000,0.800,0.230,-0.008
00:02:58.264,SEARCHING,7.664,-5.836,1.000,0.00,0.00,-41.51,2.751,4.529,2.786,4.584,2.414,0,0,SEARCHING,0.000,0.800,0.230,-0.006
00:02:58.465,SEARCHING,7.784,-5.942,1.000,0.00,0.00,-41.57,2.764,4.485,2.779,4.606,2.407,0,0,SEARCHING,0.000,0.800,0.236,-0.003
00:02:58.666,SEARCHING,7.903,-6.048,1.000,0.00,0.00,-41.59,2.784,4.486,2.738,4.607,2.436,0,0,SEARCHING,0.000,0.800,0.235,0.001
00:02:58.867,SEARCHING,8.023,-6.154,1.000,0.00,0.00,-41.56,2.802,4.427,2.719,4.533,2.453,0,0,SEARCHING,0.000,0.800,0.231,0.006
00:02:59.067,SEARCHING,8.143,-6.260,1.000,0.00,0.00,-41.49,2.794,4.325,2.734,4.471,2.480,0,0,SEARCHING,0.000,0.800,0.222,0.007
00:02:59.267,SEARCHING,8.263,-6.366,1.000,0.00,0.00,-41.41,2.785,4.240,2.744,4.415,2.460,0,0,SEARCHING,0.000,0.800,0.217,0.006
00:02:59.467,SEARCHING,8.383,-6.472,1.000,0.00,0.00,-41.35,2.813,4.150,2.731,4.329,2.447,0,0,SEARCHING,0.000,0.800,0.214,0.007
00:02:59.669,SEARCHING,8.503,-6.577,1.000,0.00,0.00,-41.26,2.821,4.097,2.705,4.270,2.444,0,0,SEARCHING,0.000,0.800,0.213,0.010
00:02:59.870,SEARCHING,8.623,-6.683,1.000,0.00,0.00,-41.14,2.798,4.059,2.664,4.183,2.470,0,0,SEARCHING,0.000,0.800,0.205,0.012
00:03:00.070,SEARCHING,8.744,-6.788,1.000,0.00,0.00,-40.99,2.685,3.987,2.511,4.061,2.474,0,0,SEARCHING,0.000,0.800,0.196,0.017
00:03:00.270,SEARCHING,8.865,-6.893,1.000,0.00,0.00,-40.79,2.506,3.924,2.366,3.999,2.462,0,0,SEARCHING,0.000,0.800,0.190,0.020
00:03:00.472,SEARCHING,8.986,-6.997,1.000,0.00,0.00,-40.56,2.371,3.854,2.213,3.901,2.461,0,0,SEARCHING,0.000,0.800,0.184,0.021
00:03:00.672,SEARCHING,9.108,-7.101,1.000,0.00,0.00,-40.30,2.219,3.740,2.057,3.776,2.476,0,0,SEARCHING,0.000,0.800,0.174,0.026
00:03:00.873,SEARCHING,9.230,-7.204,1.000,0.00,0.00,-40.00,2.054,3.635,1.923,3.656,2.501,0,0,SEARCHING,0.000,0.800,0.161,0.027
00:03:01.073,SEARCHING,9.353,-7.307,1.000,0.00,0.00,-39.69,1.911,3.496,1.877,3.495,2.478,0,0,SEARCHING,0.000,0.800,0.150,0.021
00:03:01.273,SEARCHING,9.476,-7.409,1.000,0.00,0.00,-39.51,1.755,3.387,1.921,3.388,2.469,0,0,SEARCHING,0.000,0.800,0.138,-0.012
00:03:01.474,SEARCHING,9.600,-7.511,1.000,0.00,0.00,-39.75,1.603,3.349,1.931,3.365,2.459,0,0,SEARCHING,0.000,0.800,0.133,-0.055
00:03:01.678,SEARCHING,9.722,-7.613,1.000,0.00,0.00,-40.48,1.516,3.420,1.935,3.391,2.465,0,0,SEARCHING,0.000,0.800,0.133,-0.094
00:03:01.880,SEARCHING,9.843,-7.718,1.000,0.00,0.00,-41.60,1.524,3.553,1.895,3.530,2.474,0,0,SEARCHING,0.000,0.800,0.139,-0.104
00:03:02.080,SEARCHING,9.962,-7.826,1.000,0.00,0.00,-42.77,1.565,3.683,1.828,3.704,2.462,0,0,SEARCHING,0.000,0.800,0.153,-0.089
00:03:02.279,SEARCHING,10.078,-7.935,1.000,0.00,0.00,-43.73,1.610,3.753,1.773,3.769,2.438,0,0,SEARCHING,0.000,0.800,0.165,-0.063
00:03:02.480,SEARCHING,10.193,-8.046,1.000,0.00,0.00,-44.39,1.637,3.709,1.710,3.808,2.464,0,0,SEARCHING,0.000,0.800,0.171,-0.037
00:03:02.681,SEARCHING,10.307,-8.159,1.000,0.00,0.00,-44.77,1.656,3.839,1.680,3.803,2.476,0,0,SEARCHING,0.000,0.800,0.171,-0.018
00:03:02.883,SEARCHING,10.421,-8.272,1.000,0.00,0.00,-44.94,1.670,3.918,1.668,3.771,2.462,0,0,SEARCHING,0.000,0.800,0.170,-0.004
00:03:03.082,SEARCHING,10.534,-8.385,1.000,0.00,0.00,-44.98,1.668,5.448,1.674,3.758,2.461,0,0,SEARCHING,0.000,0.800,0.169,-0.001
00:03:03.283,SEARCHING,10.647,-8.498,1.000,0.00,0.00,-44.99,1.668,6.696,1.674,3.845,2.453,0,0,SEARCHING,0.000,0.800,0.173,-0.001
00:03:03.483,SEARCHING,10.760,-8.611,1.000,0.00,0.00,-45.01,1.670,7.210,1.659,5.492,2.447,0,0,SEARCHING,0.000,0.800,0.227,-0.000
00:03:03.684,SEARCHING,10.873,-8.724,1.000,0.00,0.00,-45.00,1.670,7.397,1.782,6.009,2.466,0,0,SEARCHING,0.000,0.800,0.269,-0.006
00:03:03.885,SEARCHING,10.986,-8.837,1.000,0.00,0.00,-45.22,1.654,7.294,2.140,6.069,2.423,0,0,SEARCHING,0.000,0.800,0.287,-0.071
00:03:04.085,SEARCHING,11.098,-8.952,1.000,0.00,0.00,-46.11,1.686,7.272,2.125,6.027,2.422,0,0,SEARCHING,0.000,0.800,0.295,-0.094
00:03:04.286,SEARCHING,11.208,-9.068,1.000,0.00,0.00,-47.18,1.710,7.148,2.058,5.979,2.415,0,0,SEARCHING,0.000,0.800,0.296,-0.087
00:03:04.486,SEARCHING,11.316,-9.186,1.000,0.00,0.00,-48.14,1.770,7.052,1.973,6.036,2.421,0,0,SEARCHING,0.000,0.800,0.296,-0.067
00:03:04.687,SEARCHING,11.422,-9.306,1.000,0.00,0.00,-48.85,1.804,6.948,1.944,6.002,2.410,0,0,SEARCHING,0.000,0.800,0.299,-0.045
00:03:04.888,SEARCHING,11.527,-9.427,1.000,0.00,0.00,-49.33,1.819,6.756,1.940,6.008,2.441,0,0,SEARCHING,0.000,0.800,0.294,-0.033
00:03:05.087,SEARCHING,11.631,-9.548,1.000,0.00,0.00,-49.68,1.837,6.699,1.882,6.004,2.446,0,0,SEARCHING,0.000,0.800,0.291,-0.022
00:03:05.289,SEARCHING,11.734,-9.671,1.000,0.00,0.00,-49.90,1.817,6.576,1.827,5.987,2.436,0,0,SEARCHING,0.000,0.800,0.292,-0.009
00:03:05.490,SEARCHING,11.837,-9.793,1.000,0.00,0.00,-49.98,3.945,6.327,3.972,6.008,2.456,0,0,SEARCHING,0.000,0.800,0.292,-0.003
00:03:05.689,SEARCHING,11.940,-9.916,1.000,0.00,0.00,-49.98,5.890,6.222,4.978,6.044,2.440,0,0,SEARCHING,0.000,0.800,0.292,0.014
00:03:05.890,SEARCHING,12.043,-10.038,1.000,0.00,0.00,-49.79,6.146,6.106,5.039,6.041,2.414,0,0,SEARCHING,0.000,0.800,0.296,0.023
00:03:06.090,SEARCHING,12.147,-10.160,1.000,0.00,0.00,-49.52,6.055,6.031,5.040,6.131,2.436,0,0,SEARCHING,0.000,0.800,0.296,0.026
00:03:06.291,SEARCHING,12.251,-10.281,1.000,0.00,0.00,-49.23,5.874,5.790,5.056,6.107,2.437,0,0,SEARCHING,0.000,0.800,0.296,0.023
00:03:06.492,SEARCHING,12.355,-10.402,1.000,0.00,0.00,-48.97,5.743,5.722,5.074,6.158,2.445,0,0,SEARCHING,0.000,0.800,0.297,0.021
00:03:06.692,SEARCHING,12.461,-10.523,1.000,0.00,0.00,-48.74,5.558,5.404,5.019,6.139,2.453,0,0,SEARCHING,0.000,0.800,0.295,0.018
00:03:06.893,SEARCHING,12.566,-10.643,1.000,0.00,0.00,-48.54,5.276,5.310,4.980,6.110,2.445,0,0,SEARCHING,0.000,0.800,0.294,0.013
00:03:07.093,SEARCHING,12.672,-10.763,1.000,0.00,0.00,-48.39,5.105,5.185,4.795,6.106,2.437,0,0,SEARCHING,0.000,0.800,0.296,0.011
00:03:07.293,SEARCHING,12.779,-10.882,1.000,0.00,0.00,-48.26,4.930,5.013,4.788,6.043,2.426,0,0,SEARCHING,0.000,0.800,0.296,0.010
00:03:07.494,SEARCHING,12.885,-11.002,1.000,0.00,0.00,-48.15,4.701,4.819,4.820,6.101,2.459,0,0,SEARCHING,0.000,0.800,0.293,0.006
00:03:07.694,SEARCHING,12.992,-11.121,1.000,0.00,0.00,-48.11,4.590,4.662,4.595,6.031,2.441,0,0,SEARCHING,0.000,0.800,0.291,-0.002
00:03:07.897,SEARCHING,13.099,-11.240,1.000,0.00,0.00,-48.13,4.404,4.541,4.378,6.071,2.439,0,0,SEARCHING,0.000,0.800,0.294,-0.001
00:03:08.096,SEARCHING,13.206,-11.359,1.000,0.00,0.00,-48.13,4.467,4.392,4.386,6.016,2.433,0,0,SEARCHING,0.000,0.800,0.294,0.001
00:03:08.299,SEARCHING,13.313,-11.478,1.000,0.00,0.00,-48.11,4.418,4.274,4.220,5.912,2.425,0,0,SEARCHING,0.000,0.800,0.292,0.005
00:03:08.498,SEARCHING,13.420,-11.597,1.000,0.00,0.00,-48.05,4.297,4.118,4.260,5.828,2.447,0,0,SEARCHING,0.000,0.800,0.288,0.005
00:03:08.698,SEARCHING,13.527,-11.716,1.000,0.00,0.00,-48.01,4.133,3.920,4.568,5.759,2.439,0,0,SEARCHING,0.000,0.800,0.285,-0.007
00:03:08.898,SEARCHING,13.634,-11.835,1.000,0.00,0.00,-48.13,4.011,3.769,4.561,5.633,2.427,0,0,SEARCHING,0.000,0.800,0.284,-0.020
00:03:09.099,SEARCHING,13.740,-11.954,1.000,0.00,0.00,-48.37,3.860,3.599,4.506,5.477,2.420,0,0,SEARCHING,0.000,0.800,0.279,-0.025
00:03:09.299,SEARCHING,13.846,-12.074,1.000,0.00,0.00,-48.67,3.819,3.426,4.434,4.456,2.438,0,0,SEARCHING,0.000,0.800,0.260,-0.028
00:03:09.500,SEARCHING,13.952,-12.195,1.000,0.00,0.00,-48.99,3.789,3.300,4.323,3.470,2.420,0,0,SEARCHING,0.000,0.800,0.197,-0.028
00:03:09.700,SEARCHING,14.056,-12.316,1.000,0.00,0.00,-49.29,3.626,3.163,4.124,3.231,2.403,0,0,SEARCHING,0.000,0.800,0.149,-0.023
00:03:09.901,SEARCHING,14.160,-12.437,1.000,0.00,0.00,-49.59,3.082,3.003,4.010,3.037,2.435,0,0,SEARCHING,0.000,0.800,0.118,-0.041
00:03:10.102,SEARCHING,14.264,-12.559,1.000,0.00,0.00,-50.11,2.886,2.835,3.887,2.845,2.447,0,0,SEARCHING,0.000,0.800,0.087,-0.060
00:03:11.194,SEARCHING,14.391,-12.714,1.000,0.00,0.00,-51.03,2.786,2.730,3.788,2.747,2.437,0,0,SEARCHING,0.000,0.800,0.066,-0.071
00:03:11.213,SEARCHING,14.466,-12.807,1.000,0.00,0.00,-51.64,2.786,2.730,3.788,2.747,2.437,0,0,SEARCHING,0.000,0.800,0.058,-0.075
00:03:11.368,SEARCHING,14.564,-12.934,1.000,0.00,0.00,-52.51,2.403,2.391,3.465,2.395,2.341,0,0,SEARCHING,0.000,0.800,0.020,-0.088
00:03:11.562,SEARCHING,14.661,-13.061,1.000,0.00,0.00,-53.57,2.198,2.218,3.351,2.119,2.227,0,0,SEARCHING,0.000,0.800,0.005,-0.110
00:03:11.762,SEARCHING,14.754,-13.191,1.000,0.00,0.00,-54.89,2.025,2.005,3.136,1.840,2.114,0,0,SEARCHING,0.000,0.800,-0.051,-0.129
00:03:11.961,SEARCHING,14.844,-13.322,1.000,0.00,0.00,-56.41,1.850,1.887,3.052,1.807,1.975,0,0,SEARCHING,0.000,0.759,-0.038,-0.151
00:03:12.161,SEARCHING,14.925,-13.448,1.000,0.00,0.00,-58.21,1.675,2.632,2.938,2.825,1.935,0,0,SEARCHING,0.000,0.743,0.091,-0.182
00:03:12.363,SEARCHING,15.003,-13.577,1.000,0.00,0.00,-60.38,1.498,2.827,2.843,2.868,2.400,0,0,SEARCHING,0.000,0.786,0.107,-0.221
00:03:12.564,SEARCHING,15.078,-13.716,1.000,0.00,0.00,-63.03,1.356,2.720,2.747,2.734,2.467,0,0,SEARCHING,0.000,0.797,0.056,-0.268
00:03:12.764,SEARCHING,15.147,-13.860,1.000,0.00,0.00,-66.19,1.291,2.564,2.716,2.579,2.473,0,0,SEARCHING,0.000,0.799,0.013,-0.304
00:03:12.965,SEARCHING,15.207,-14.008,1.000,0.00,0.00,-69.40,2.767,2.416,2.582,2.419,2.394,0,0,SEARCHING,0.000,0.800,0.003,-0.140
00:03:13.165,SEARCHING,15.262,-14.158,1.000,0.00,0.00,-70.60,2.816,2.248,2.431,2.258,2.262,0,0,SEARCHING,0.000,0.800,0.001,-0.005
00:03:13.366,SEARCHING,15.315,-14.309,1.000,0.00,0.00,-70.53,2.640,2.098,2.318,2.097,2.087,0,0,SEARCHING,0.000,0.800,0.000,0.033
00:03:13.566,SEARCHING,15.369,-14.460,1.000,0.00,0.00,-70.13,2.460,1.938,2.135,1.940,1.931,0,0,SEARCHING,0.000,0.795,0.000,0.044
00:03:13.767,SEARCHING,15.422,-14.607,1.000,0.00,0.00,-69.61,2.299,1.778,1.953,1.786,1.776,0,0,SEARCHING,0.000,0.725,0.000,0.053
00:03:13.967,SEARCHING,15.472,-14.739,1.000,0.00,0.00,-68.98,2.151,1.631,0.901,1.634,1.634,0,0,SEARCHING,0.000,0.590,0.000,0.197
00:03:14.168,SEARCHING,15.514,-14.842,1.000,0.00,0.00,-66.04,2.158,1.506,1.349,1.505,1.497,0,0,SEARCHING,0.000,0.466,0.000,0.335
00:03:14.368,SEARCHING,15.553,-14.923,1.000,0.00,0.00,-62.22,2.402,1.408,0.963,1.408,1.396,0,0,SEARCHING,0.000,0.397,0.000,0.392
00:03:14.569,SEARCHING,15.591,-14.990,1.000,0.00,0.00,-57.49,2.962,1.399,1.183,1.395,1.400,0,0,SEARCHING,0.000,0.361,0.000,0.441
00:03:14.770,SEARCHING,15.633,-15.050,1.000,0.00,0.00,-52.47,4.592,1.534,1.183,1.537,1.540,0,0,SEARCHING,0.000,0.394,0.000,0.455
00:03:14.970,SEARCHING,15.685,-15.113,1.000,0.00,0.00,-47.05,6.761,1.810,1.087,1.800,1.833,0,0,SEARCHING,0.000,0.475,0.000,0.549
00:03:15.171,SEARCHING,15.758,-15.183,1.000,0.00,0.00,-40.61,6.325,2.336,1.166,2.341,2.277,0,0,SEARCHING,0.000,0.655,0.000,0.582
00:03:15.371,SEARCHING,15.867,-15.267,1.000,0.00,0.00,-34.11,4.740,4.029,1.393,3.980,2.461,0,0,SEARCHING,0.000,0.765,0.092,0.491
00:03:15.571,SEARCHING,15.998,-15.348,1.000,0.00,0.00,-28.80,3.860,6.452,1.731,5.775,2.459,0,0,SEARCHING,0.000,0.792,0.219,0.352
00:03:15.772,SEARCHING,16.140,-15.420,1.000,0.00,0.00,-25.09,3.403,6.955,2.207,6.041,2.460,0,0,SEARCHING,0.000,0.798,0.270,0.218
00:03:15.973,SEARCHING,16.286,-15.484,1.000,0.00,0.00,-22.89,3.114,6.005,2.763,5.800,2.445,0,0,SEARCHING,0.000,0.800,0.283,0.100
00:03:16.173,SEARCHING,16.433,-15.545,1.000,0.00,0.00,-21.94,2.968,5.465,3.132,5.431,2.436,0,0,SEARCHING,0.000,0.800,0.278,0.026
00:03:16.374,SEARCHING,16.582,-15.605,1.000,0.00,0.00,-21.76,2.900,5.246,3.432,5.242,2.430,0,0,SEARCHING,0.000,0.800,0.270,-0.019
00:03:16.575,SEARCHING,16.731,-15.664,1.000,0.00,0.00,-22.04,2.864,5.194,3.560,5.205,2.438,0,0,SEARCHING,0.000,0.800,0.264,-0.044
00:03:16.775,SEARCHING,16.879,-15.725,1.000,0.00,0.00,-22.57,2.830,5.212,3.540,5.293,2.441,0,0,SEARCHING,0.000,0.800,0.265,-0.052
00:03:16.976,SEARCHING,17.026,-15.787,1.000,0.00,0.00,-23.18,2.807,5.308,3.564,5.401,2.330,0,0,SEARCHING,0.000,0.800,0.274,-0.057
00:03:17.177,SEARCHING,17.173,-15.851,1.000,0.00,0.00,-23.85,2.785,5.499,3.520,5.443,2.425,0,0,SEARCHING,0.000,0.800,0.277,-0.060
00:03:17.379,SEARCHING,17.319,-15.916,1.000,0.00,0.00,-24.53,2.771,5.675,3.445,5.551,2.482,0,0,SEARCHING,0.000,0.800,0.273,-0.058
00:03:17.577,SEARCHING,17.464,-15.983,1.000,0.00,0.00,-25.19,2.796,6.012,3.465,5.693,2.475,0,0,SEARCHING,0.000,0.800,0.272,-0.055
00:03:17.778,SEARCHING,17.608,-16.052,1.000,0.00,0.00,-25.82,2.774,6.705,3.449,5.839,2.451,0,0,SEARCHING,0.000,0.800,0.278,-0.056
00:03:17.979,SEARCHING,17.752,-16.123,1.000,0.00,0.00,-26.46,2.780,7.083,3.437,5.992,2.458,0,0,SEARCHING,0.000,0.800,0.285,-0.055
00:03:18.179,SEARCHING,17.895,-16.195,1.000,0.00,0.00,-27.09,2.778,6.906,3.426,6.018,2.439,0,0,SEARCHING,0.000,0.800,0.290,-0.055
00:03:18.379,SEARCHING,18.037,-16.268,1.000,0.00,0.00,-27.71,2.809,6.682,3.424,6.021,2.443,0,0,SEARCHING,0.000,0.800,0.292,-0.053
00:03:18.580,SEARCHING,18.178,-16.343,1.000,0.00,0.00,-28.31,2.808,6.348,3.426,6.056,2.456,0,0,SEARCHING,0.000,0.800,0.291,-0.052
00:03:18.781,SEARCHING,18.319,-16.420,1.000,0.00,0.00,-28.91,2.799,6.131,3.462,6.026,2.440,0,0,SEARCHING,0.000,0.800,0.291,-0.053
00:03:18.982,SEARCHING,18.459,-16.498,1.000,0.00,0.00,-29.52,2.841,5.941,3.408,5.921,2.435,0,0,SEARCHING,0.000,0.800,0.292,-0.051
00:03:19.182,SEARCHING,18.597,-16.577,1.000,0.00,0.00,-30.08,2.965,5.727,3.356,5.733,2.348,0,0,SEARCHING,0.000,0.800,0.292,-0.041
00:03:19.382,SEARCHING,18.736,-16.658,1.000,0.00,0.00,-30.52,3.035,5.530,3.292,5.611,2.436,0,0,SEARCHING,0.000,0.800,0.288,-0.028
00:03:19.583,SEARCHING,18.873,-16.740,1.000,0.00,0.00,-30.82,3.079,5.374,3.273,5.429,2.469,0,0,SEARCHING,0.000,0.800,0.273,-0.020
00:03:19.786,SEARCHING,19.010,-16.822,1.000,0.00,0.00,-31.03,3.122,5.151,3.261,5.255,2.463,0,0,SEARCHING,0.000,0.800,0.264,-0.014
00:03:19.985,SEARCHING,19.147,-16.904,1.000,0.00,0.00,-31.18,3.110,5.038,3.194,5.119,2.449,0,0,SEARCHING,0.000,0.800,0.258,-0.010
00:03:20.185,SEARCHING,19.284,-16.987,1.000,0.00,0.00,-31.29,3.073,4.924,3.117,5.005,2.437,0,0,SEARCHING,0.000,0.800,0.255,-0.005
00:03:20.385,SEARCHING,19.421,-17.071,1.000,0.00,0.00,-31.34,3.024,4.808,2.993,4.854,2.467,0,0,SEARCHING,0.000,0.800,0.246,-0.001
00:03:20.585,SEARCHING,19.558,-17.154,1.000,0.00,0.00,-31.34,3.039,4.691,2.881,4.782,2.461,0,0,SEARCHING,0.000,0.800,0.240,0.007
00:03:20.787,SEARCHING,19.694,-17.237,1.000,0.00,0.00,-31.23,2.981,4.672,2.758,4.695,2.433,0,0,SEARCHING,0.000,0.800,0.237,0.017
00:03:20.987,SEARCHING,19.831,-17.320,1.000,0.00,0.00,-30.98,3.516,4.622,2.698,4.625,2.450,0,0,SEARCHING,0.000,0.800,0.234,0.044
00:03:21.187,SEARCHING,19.969,-17.401,1.000,0.00,0.00,-30.40,3.757,4.606,2.671,4.555,2.457,0,0,SEARCHING,0.000,0.800,0.229,0.072
00:03:21.388,SEARCHING,20.107,-17.482,1.000,0.00,0.00,-29.54,3.767,4.623,2.686,4.569,2.462,0,0,SEARCHING,0.000,0.800,0.227,0.082
00:03:21.588,SEARCHING,20.247,-17.559,1.000,0.00,0.00,-28.60,3.698,4.693,2.709,4.646,2.465,0,0,SEARCHING,0.000,0.800,0.226,0.082
00:03:21.789,SEARCHING,20.388,-17.635,1.000,0.00,0.00,-27.67,3.683,4.753,2.750,4.748,2.455,0,0,SEARCHING,0.000,0.800,0.231,0.077
00:03:21.990,SEARCHING,20.530,-17.708,1.000,0.00,0.00,-26.80,3.628,4.783,2.742,4.770,2.437,0,0,SEARCHING,0.000,0.800,0.238,0.074
00:03:22.190,SEARCHING,20.674,-17.779,1.000,0.00,0.00,-25.96,3.552,4.814,2.779,4.850,2.466,0,0,SEARCHING,0.000,0.800,0.239,0.069
00:03:22.390,SEARCHING,20.818,-17.849,1.000,0.00,0.00,-25.18,3.524,4.830,2.783,4.866,2.461,0,0,SEARCHING,0.000,0.800,0.240,0.063
00:03:22.591,SEARCHING,20.963,-17.916,1.000,0.00,0.00,-24.46,3.431,4.857,2.733,4.868,2.440,0,0,SEARCHING,0.000,0.800,0.242,0.060
00:03:22.792,SEARCHING,21.109,-17.981,1.000,0.00,0.00,-23.78,3.420,4.921,2.612,4.900,2.435,0,0,SEARCHING,0.000,0.800,0.244,0.065
00:03:22.991,SEARCHING,21.256,-18.045,1.000,0.00,0.00,-23.02,3.347,4.968,2.659,4.888,2.459,0,0,SEARCHING,0.000,0.800,0.245,0.066
00:03:23.193,SEARCHING,21.403,-18.107,1.000,0.00,0.00,-22.27,3.272,4.968,2.635,4.957,2.481,0,0,SEARCHING,0.000,0.800,0.243,0.062
00:03:23.393,SEARCHING,21.552,-18.166,1.000,0.00,0.00,-21.58,3.184,4.957,2.655,5.005,2.492,0,0,SEARCHING,0.000,0.800,0.242,0.055
00:03:23.594,SEARCHING,21.701,-18.225,1.000,0.00,0.00,-20.97,3.102,4.972,2.695,5.068,2.467,0,0,SEARCHING,0.000,0.800,0.245,0.045
00:03:23.794,SEARCHING,21.851,-18.281,1.000,0.00,0.00,-20.47,3.042,4.948,2.701,4.985,2.445,0,0,SEARCHING,0.000,0.800,0.249,0.037
00:03:23.994,SEARCHING,22.001,-18.337,1.000,0.00,0.00,-20.05,3.060,4.971,2.664,4.976,2.469,0,0,SEARCHING,0.000,0.800,0.248,0.036
00:03:24.196,SEARCHING,22.151,-18.391,1.000,0.00,0.00,-19.64,2.926,4.974,2.699,4.980,2.477,0,0,SEARCHING,0.000,0.800,0.245,0.032
00:03:24.393,SEARCHING,22.302,-18.444,1.000,0.00,0.00,-19.31,3.190,4.974,2.693,4.959,2.453,0,0,SEARCHING,0.000,0.800,0.246,0.029
00:03:24.594,SEARCHING,22.453,-18.497,1.000,0.00,0.00,-18.89,3.906,4.974,2.701,4.952,2.428,0,0,SEARCHING,0.000,0.800,0.248,0.068
00:03:24.795,SEARCHING,22.605,-18.548,1.000,0.00,0.00,-18.05,3.997,4.998,2.735,4.990,2.457,0,0,SEARCHING,0.000,0.800,0.248,0.086
00:03:24.995,SEARCHING,22.757,-18.596,1.000,0.00,0.00,-17.05,3.955,5.109,2.744,5.074,2.454,0,0,SEARCHING,0.000,0.800,0.250,0.090
00:03:25.196,SEARCHING,22.911,-18.642,1.000,0.00,0.00,-16.03,3.833,5.143,2.756,5.171,2.468,0,0,SEARCHING,0.000,0.800,0.253,0.085
00:03:25.396,SEARCHING,23.065,-18.685,1.000,0.00,0.00,-15.07,3.743,5.135,2.797,5.167,2.467,0,0,SEARCHING,0.000,0.800,0.253,0.078
00:03:25.596,SEARCHING,23.220,-18.725,1.000,0.00,0.00,-14.20,3.620,5.097,2.836,5.153,2.444,0,0,SEARCHING,0.000,0.800,0.255,0.068
00:03:25.796,SEARCHING,23.375,-18.764,1.000,0.00,0.00,-13.44,3.520,5.086,2.848,5.178,2.441,0,0,SEARCHING,0.000,0.800,0.259,0.059
00:03:25.997,SEARCHING,23.531,-18.800,1.000,0.00,0.00,-12.78,3.458,5.085,2.856,5.127,2.466,0,0,SEARCHING,0.000,0.800,0.256,0.052
00:03:26.198,SEARCHING,23.687,-18.835,1.000,0.00,0.00,-12.19,3.410,5.128,2.892,5.090,2.448,0,0,SEARCHING,0.000,0.800,0.254,0.046
00:03:26.399,SEARCHING,23.843,-18.868,1.000,0.00,0.00,-11.67,3.370,5.090,2.903,5.085,2.444,0,0,SEARCHING,0.000,0.800,0.256,0.041
00:03:26.599,SEARCHING,24.000,-18.900,1.000,0.00,0.00,-11.22,3.353,5.085,2.893,5.074,2.433,0,0,SEARCHING,0.000,0.800,0.255,0.038
00:03:26.799,SEARCHING,24.157,-18.930,1.000,0.00,0.00,-10.78,3.327,5.052,2.920,5.017,2.456,0,0,SEARCHING,0.000,0.800,0.252,0.036
00:03:27.000,SEARCHING,24.315,-18.960,1.000,0.00,0.00,-10.37,3.299,5.032,2.938,5.061,2.493,0,0,SEARCHING,0.000,0.800,0.249,0.032
00:03:27.200,SEARCHING,24.472,-18.988,1.000,0.00,0.00,-10.02,3.241,4.992,2.929,4.990,2.484,0,0,SEARCHING,0.000,0.800,0.244,0.028
00:03:27.400,SEARCHING,24.630,-19.015,1.000,0.00,0.00,-9.70,3.191,4.976,2.933,4.976,2.453,0,0,SEARCHING,0.000,0.800,0.245,0.025
00:03:27.602,SEARCHING,24.787,-19.042,1.000,0.00,0.00,-9.42,3.398,4.886,2.945,4.910,2.436,0,0,SEARCHING,0.000,0.800,0.248,0.028
00:03:27.802,SEARCHING,24.945,-19.068,1.000,0.00,0.00,-9.06,3.993,4.863,2.939,4.873,2.477,0,0,SEARCHING,0.000,0.800,0.243,0.051
00:03:28.003,SEARCHING,25.104,-19.092,1.000,0.00,0.00,-8.41,4.136,4.954,2.925,4.955,2.459,0,0,SEARCHING,0.000,0.800,0.244,0.072
00:03:28.203,SEARCHING,25.262,-19.115,1.000,0.00,0.00,-7.57,4.092,5.219,2.852,5.123,2.442,0,0,SEARCHING,0.000,0.800,0.251,0.080
00:03:28.404,SEARCHING,25.421,-19.134,1.000,0.00,0.00,-6.63,3.988,5.473,2.807,5.434,2.420,0,0,SEARCHING,0.000,0.800,0.261,0.085
00:03:28.605,SEARCHING,25.580,-19.152,1.000,0.00,0.00,-5.67,3.817,5.603,2.792,5.564,2.447,0,0,SEARCHING,0.000,0.800,0.272,0.081
00:03:28.805,SEARCHING,25.739,-19.166,1.000,0.00,0.00,-4.75,3.719,5.614,2.810,5.695,2.453,0,0,SEARCHING,0.000,0.800,0.277,0.076
00:03:29.005,SEARCHING,25.899,-19.179,1.000,0.00,0.00,-3.90,3.597,5.585,2.828,5.616,2.482,0,0,SEARCHING,0.000,0.800,0.274,0.067
00:03:29.206,SEARCHING,26.058,-19.188,1.000,0.00,0.00,-3.15,3.515,5.406,2.856,5.474,2.457,0,0,SEARCHING,0.000,0.800,0.270,0.058
00:03:29.406,SEARCHING,26.218,-19.196,1.000,0.00,0.00,-2.50,3.446,5.239,2.829,5.247,2.439,0,0,SEARCHING,0.000,0.800,0.266,0.053
00:03:29.607,SEARCHING,26.378,-19.203,1.000,0.00,0.00,-1.90,3.381,5.082,2.829,5.118,2.453,0,0,SEARCHING,0.000,0.800,0.260,0.049
00:03:29.807,SEARCHING,26.538,-19.207,1.000,0.00,0.00,-1.35,3.313,4.961,2.838,4.959,2.457,0,0,SEARCHING,0.000,0.800,0.252,0.044
00:03:30.008,SEARCHING,26.698,-19.210,1.000,0.00,0.00,-0.86,3.276,4.813,2.858,4.802,2.448,0,0,SEARCHING,0.000,0.800,0.245,0.039
00:03:30.208,SEARCHING,26.858,-19.212,1.000,0.00,0.00,-0.42,3.212,4.698,2.878,4.690,2.443,0,0,SEARCHING,0.000,0.800,0.241,0.034
00:03:30.409,SEARCHING,27.018,-19.213,1.000,0.00,0.00,-0.06,3.159,4.569,2.964,4.544,2.440,0,0,SEARCHING,0.000,0.800,0.232,0.024
00:03:30.610,SEARCHING,27.178,-19.213,1.000,0.00,0.00,0.19,3.157,4.415,3.083,4.403,2.452,0,0,SEARCHING,0.000,0.800,0.223,0.013
00:03:30.810,SEARCHING,27.338,-19.212,1.000,0.00,0.00,0.31,3.147,4.276,3.111,4.244,2.473,0,0,SEARCHING,0.000,0.800,0.211,0.006
00:03:31.011,SEARCHING,27.498,-19.211,1.000,0.00,0.00,0.37,3.136,4.107,3.127,4.100,2.463,0,0,SEARCHING,0.000,0.800,0.201,0.003
00:03:31.211,SEARCHING,27.658,-19.210,1.000,0.00,0.00,0.40,3.099,3.941,3.103,3.972,2.441,0,0,SEARCHING,0.000,0.800,0.193,0.000
00:03:31.411,SEARCHING,27.818,-19.209,1.000,0.00,0.00,0.40,3.108,3.792,3.117,3.800,2.463,0,0,SEARCHING,0.000,0.800,0.182,-0.001
00:03:31.612,SEARCHING,27.978,-19.208,1.000,0.00,0.00,0.40,3.120,3.625,3.023,3.630,2.468,0,0,SEARCHING,0.000,0.800,0.165,0.003
00:03:31.813,SEARCHING,28.138,-19.207,1.000,0.00,0.00,0.44,3.089,3.504,2.948,3.485,2.453,0,0,SEARCHING,0.000,0.800,0.153,0.008
00:03:32.013,SEARCHING,28.298,-19.205,1.000,0.00,0.00,0.56,3.041,3.363,2.895,3.353,2.454,0,0,SEARCHING,0.000,0.800,0.140,0.013
00:03:32.214,SEARCHING,28.458,-19.203,1.000,0.00,0.00,0.70,2.932,3.215,2.863,3.198,2.431,0,0,SEARCHING,0.000,0.800,0.127,0.010
00:03:32.414,SEARCHING,28.618,-19.201,1.000,0.00,0.00,0.81,2.809,3.037,2.813,3.037,2.435,0,0,SEARCHING,0.000,0.800,0.111,0.005
00:03:32.614,SEARCHING,28.778,-19.199,1.000,0.00,0.00,0.84,2.675,2.896,2.743,2.885,2.469,0,0,SEARCHING,0.000,0.800,0.088,-0.003
00:03:32.815,SEARCHING,28.938,-19.197,1.000,0.00,0.00,0.80,2.523,2.756,2.699,2.747,2.470,0,0,SEARCHING,0.000,0.800,0.049,-0.012
00:03:33.016,SEARCHING,29.098,-19.195,1.000,0.00,0.00,0.63,2.382,2.614,2.634,2.624,2.448,0,0,SEARCHING,0.000,0.800,0.012,-0.025
00:03:33.216,SEARCHING,29.258,-19.193,1.000,0.00,0.00,0.33,2.269,2.465,2.562,2.465,2.407,0,0,SEARCHING,0.000,0.800,0.003,-0.034
00:03:33.417,SEARCHING,29.418,-19.193,1.000,0.00,0.00,-0.08,2.114,2.320,2.472,2.320,2.310,0,0,SEARCHING,0.000,0.800,0.001,-0.046
00:03:33.616,SEARCHING,29.578,-19.194,1.000,0.00,0.00,-0.64,1.985,2.165,2.381,2.167,2.161,0,0,SEARCHING,0.000,0.800,0.000,-0.059
00:03:33.816,SEARCHING,29.738,-19.196,1.000,0.00,0.00,-1.34,1.838,2.024,2.240,2.023,2.025,0,0,SEARCHING,0.000,0.797,0.000,-0.071
00:03:34.017,SEARCHING,29.895,-19.201,1.000,0.00,0.00,-2.18,1.702,1.870,2.093,1.872,1.875,0,0,SEARCHING,0.000,0.736,0.000,-0.080
00:03:34.218,SEARCHING,30.039,-19.208,1.000,0.00,0.00,-3.12,1.573,1.744,1.958,1.745,1.747,0,0,SEARCHING,0.000,0.646,0.000,-0.092
00:03:34.419,SEARCHING,30.164,-19.215,1.000,0.00,0.00,-4.21,1.455,1.621,1.830,1.623,1.619,0,0,SEARCHING,0.000,0.559,0.000,-0.104
00:03:34.619,SEARCHING,30.272,-19.224,1.000,0.00,0.00,-5.43,1.358,1.526,1.736,1.523,1.524,0,0,SEARCHING,0.000,0.489,0.000,-0.118
00:03:34.819,SEARCHING,30.367,-19.234,1.000,0.00,0.00,-6.82,1.274,1.439,1.648,1.439,1.434,0,0,SEARCHING,0.000,0.431,0.000,-0.132
00:03:35.021,SEARCHING,30.451,-19.245,1.000,0.00,0.00,-8.37,1.198,1.366,1.589,1.365,1.365,0,0,SEARCHING,0.000,0.385,0.000,-0.151
00:03:35.221,SEARCHING,30.525,-19.257,1.000,0.00,0.00,-10.15,1.133,1.303,1.534,1.305,1.303,0,0,SEARCHING,0.000,0.346,0.000,-0.170
00:03:35.422,SEARCHING,30.591,-19.270,1.000,0.00,0.00,-12.15,1.077,1.253,1.489,1.252,1.253,0,0,SEARCHING,0.000,0.316,0.000,-0.191
00:03:35.622,SEARCHING,30.652,-19.284,1.000,0.00,0.00,-14.39,1.029,1.209,1.465,1.211,1.209,0,0,SEARCHING,0.000,0.291,0.000,-0.214
00:03:35.822,SEARCHING,30.707,-19.300,1.000,0.00,0.00,-16.90,0.988,1.178,1.454,1.179,1.181,0,0,SEARCHING,0.000,0.272,0.000,-0.240
00:03:36.024,SEARCHING,30.758,-19.316,1.000,0.00,0.00,-19.70,0.955,1.156,1.407,1.157,1.156,0,0,SEARCHING,0.000,0.258,0.000,-0.260
00:03:36.224,SEARCHING,30.806,-19.335,1.000,0.00,0.00,-22.70,0.926,1.140,1.332,1.140,1.140,0,0,SEARCHING,0.000,0.252,0.000,-0.265
00:03:36.424,SEARCHING,30.852,-19.355,1.000,0.00,0.00,-25.72,0.902,1.130,1.270,1.133,1.129,0,0,SEARCHING,0.000,0.250,0.000,-0.260
00:03:36.625,SEARCHING,30.896,-19.378,1.000,0.00,0.00,-28.68,0.884,1.128,1.212,1.126,1.126,0,0,SEARCHING,0.000,0.250,0.000,-0.251
00:03:36.825,SEARCHING,30.940,-19.403,1.000,0.00,0.00,-31.54,0.868,1.130,1.156,1.134,1.130,0,0,SEARCHING,0.000,0.250,0.000,-0.239
00:03:37.026,SEARCHING,30.982,-19.430,1.000,0.00,0.00,-34.24,0.856,1.138,1.100,1.137,1.140,0,0,SEARCHING,0.000,0.250,0.000,-0.221
00:03:37.226,SEARCHING,31.023,-19.459,1.000,0.00,0.00,-36.73,0.845,1.139,1.047,1.141,1.144,0,0,SEARCHING,0.000,0.250,0.000,-0.200
00:03:37.426,SEARCHING,31.062,-19.490,1.000,0.00,0.00,-38.96,0.833,1.147,1.004,1.146,1.149,0,0,SEARCHING,0.000,0.250,0.000,-0.177
00:03:37.628,SEARCHING,31.100,-19.522,1.000,0.00,0.00,-40.94,0.822,1.140,0.960,1.136,1.138,0,0,SEARCHING,0.000,0.250,0.000,-0.155
00:03:37.828,SEARCHING,31.138,-19.555,1.000,0.00,0.00,-42.66,0.814,1.088,0.917,1.090,1.089,0,0,SEARCHING,0.000,0.250,0.000,-0.131
00:03:38.030,SEARCHING,31.174,-19.589,1.000,0.00,0.00,-44.09,0.805,1.028,0.874,1.032,1.027,0,0,SEARCHING,0.000,0.250,0.000,-0.100
00:03:38.233,SEARCHING,31.210,-19.624,1.000,0.00,0.00,-45.16,0.789,0.973,0.834,0.978,0.972,0,0,SEARCHING,0.000,0.250,0.000,-0.072
00:03:38.430,SEARCHING,31.245,-19.660,1.000,0.00,0.00,-45.93,0.773,0.921,0.794,0.925,0.922,0,0,SEARCHING,0.000,0.250,0.000,-0.047
00:03:38.632,SEARCHING,31.279,-19.696,1.000,0.00,0.00,-46.40,0.754,0.873,0.752,0.875,0.873,0,0,SEARCHING,0.000,0.250,0.000,-0.017
00:03:38.832,SEARCHING,31.314,-19.732,1.000,0.00,0.00,-46.53,0.730,0.825,0.712,0.828,0.826,0,0,SEARCHING,0.000,0.250,0.000,0.010
00:03:39.075,INSPECTING,31.348,-19.769,1.000,0.00,0.00,-46.35,0.704,0.779,0.672,0.781,0.779,0,0,SEARCHING,0.000,0.175,0.000,0.036
00:03:39.233,INSPECTING,31.378,-19.799,1.000,0.00,0.00,-46.08,0.673,0.738,0.637,0.741,0.737,0,0,INSPECT_TOP,0.000,0.157,0.304,0.009
00:03:39.433,INSPECTING,31.399,-19.821,1.000,0.00,0.00,-46.00,0.659,0.708,0.611,0.710,0.707,0,0,INSPECT_TOP,0.000,0.147,0.377,0.002
00:03:39.634,INSPECTING,31.419,-19.842,1.000,0.00,0.00,-45.98,0.644,0.681,0.587,0.682,0.680,0,0,INSPECT_TOP,0.000,0.141,0.394,0.001
00:03:39.835,INSPECTING,31.439,-19.862,1.000,0.00,0.00,-45.98,0.633,0.655,0.565,0.656,0.653,0,0,INSPECT_TOP,0.000,0.135,0.399,0.000
00:03:40.035,INSPECTING,31.457,-19.882,1.000,0.00,0.00,-45.98,0.617,0.631,0.543,0.631,0.629,0,0,INSPECT_TOP,0.000,0.130,0.400,0.000
00:03:40.242,INSPECTING,31.475,-19.900,1.000,0.00,0.00,-45.98,0.607,0.606,0.522,0.607,0.606,0,0,INSPECT_TOP,0.000,0.125,0.400,0.000
00:03:40.443,INSPECTING,31.492,-19.918,1.000,0.00,0.00,-45.98,0.593,0.583,0.502,0.583,0.583,0,0,INSPECT_TOP,0.000,0.120,0.400,0.000
00:03:40.645,INSPECTING,31.509,-19.935,1.000,0.00,0.00,-45.98,0.583,0.561,0.484,0.561,0.561,0,0,INSPECT_TOP,0.000,0.115,0.400,0.000
00:03:40.845,INSPECTING,31.525,-19.951,1.000,0.00,0.00,-45.98,0.569,0.539,0.466,0.540,0.540,0,0,INSPECT_TOP,0.000,0.111,0.400,0.000
00:03:41.045,INSPECTING,31.540,-19.967,1.000,0.00,0.00,-45.98,0.557,0.519,0.447,0.519,0.519,0,0,INSPECT_TOP,0.000,0.107,0.400,0.000
00:03:41.289,TURNING,31.555,-19.982,1.000,0.00,0.00,-45.98,0.542,0.500,0.430,0.498,0.499,0,0,TURNING,0.000,0.088,0.280,0.420
00:03:41.447,TURNING,31.567,-19.995,1.000,0.00,0.00,-41.90,0.522,0.489,0.417,0.488,0.487,0,0,TURNING,0.000,0.063,0.096,1.064
00:03:41.648,TURNING,31.577,-20.003,1.000,0.00,0.00,-28.91,0.458,0.534,0.431,0.534,0.534,0,0,TURNING,0.000,0.053,0.023,1.319
00:03:41.848,TURNING,31.587,-20.006,1.000,0.00,0.00,-13.60,0.409,0.489,0.490,0.490,0.490,0,0,TURNING,0.000,0.051,0.006,1.381
00:03:42.048,TURNING,31.597,-20.008,1.000,0.00,0.00,2.27,0.392,0.439,0.484,0.439,0.439,1,0,TURNING,0.000,0.050,0.001,1.395
00:03:42.249,TURNING,31.607,-20.006,1.000,0.00,0.00,18.27,0.413,0.424,0.435,0.424,0.424,1,0,TURNING,0.000,0.050,0.000,1.399
00:03:42.450,TURNING,31.616,-20.002,1.000,0.00,0.00,34.30,0.453,0.422,0.397,0.422,0.422,1,0,TURNING,0.000,0.050,0.000,1.400
00:03:42.650,TURNING,31.623,-19.995,1.000,0.00,0.00,50.34,0.543,0.454,0.390,0.454,0.453,0,0,TURNING,0.000,0.050,0.000,1.400
00:03:42.850,TURNING,31.628,-19.987,1.000,0.00,0.00,66.38,0.756,0.540,0.422,0.539,0.540,0,0,TURNING,0.000,0.050,0.000,1.400
00:03:43.052,TURNING,31.631,-19.977,1.000,0.00,0.00,82.43,1.378,0.740,0.503,0.739,0.740,0,0,TURNING,0.000,0.050,0.000,1.400
00:03:43.252,TURNING,31.631,-19.967,1.000,0.00,0.00,98.47,2.201,1.258,0.684,1.276,1.280,0,0,TURNING,0.000,0.050,0.000,1.400
00:03:45.104,TURNING,31.629,-19.958,1.000,0.00,0.00,114.51,2.556,2.185,1.158,2.194,2.173,0,0,TURNING,0.000,0.050,0.000,1.400
00:03:45.160,RETURNING,31.623,-19.949,1.000,0.00,0.00,130.55,2.556,2.185,1.158,2.194,2.173,0,0,TURNING,0.000,0.035,0.000,0.980
00:03:45.193,RETURNING,31.616,-19.942,1.000,0.00,0.00,146.60,3.440,2.662,1.746,2.666,2.319,0,0,RETURNING,0.000,0.605,0.020,0.358
00:03:45.373,RETURNING,31.509,-19.879,1.000,0.00,0.00,150.51,5.220,3.378,2.344,3.349,2.441,0,0,RETURNING,0.000,0.753,0.095,0.115
00:03:45.570,RETURNING,31.376,-19.805,1.000,0.00,0.00,151.60,5.201,3.386,2.362,3.367,2.451,0,0,RETURNING,0.000,0.787,0.124,0.037
00:03:45.771,RETURNING,31.237,-19.730,1.000,0.00,0.00,151.95,5.049,3.258,2.320,3.276,2.473,0,0,RETURNING,0.000,0.795,0.125,0.013
00:03:45.972,RETURNING,31.096,-19.656,1.000,0.00,0.00,152.08,4.769,3.105,2.245,3.080,2.471,0,0,RETURNING,0.000,0.797,0.110,0.006
00:03:46.172,RETURNING,30.955,-19.581,1.000,0.00,0.00,152.15,4.702,2.959,2.174,2.953,2.462,0,0,RETURNING,0.000,0.797,0.093,0.004
00:03:46.372,RETURNING,30.814,-19.507,1.000,0.00,0.00,152.20,4.678,2.817,2.082,2.829,2.478,0,0,RETURNING,0.000,0.798,0.074,0.006
00:03:46.573,RETURNING,30.673,-19.432,1.000,0.00,0.00,152.28,4.528,2.658,2.011,2.680,2.462,0,0,RETURNING,0.000,0.797,0.042,0.009
00:03:46.774,RETURNING,30.532,-19.358,1.000,0.00,0.00,152.39,4.415,2.502,1.940,2.501,2.443,0,0,RETURNING,0.000,0.797,0.010,0.010
00:03:46.974,RETURNING,30.390,-19.285,1.000,0.00,0.00,152.51,4.286,2.356,1.854,2.355,2.341,0,0,RETURNING,0.000,0.797,0.002,0.012
00:03:47.175,RETURNING,30.249,-19.211,1.000,0.00,0.00,152.65,4.090,2.201,1.774,2.198,2.189,0,0,RETURNING,0.000,0.797,0.001,0.014
00:03:47.375,RETURNING,30.107,-19.138,1.000,0.00,0.00,152.81,3.874,2.049,1.682,2.041,2.030,0,0,RETURNING,0.000,0.791,0.000,0.015
00:03:47.575,RETURNING,29.968,-19.067,1.000,0.00,0.00,152.99,3.773,1.897,1.593,1.894,1.899,0,0,RETURNING,0.000,0.729,0.000,0.018
00:03:47.776,RETURNING,29.841,-19.003,1.000,0.00,0.00,153.20,3.673,1.776,1.520,1.769,1.777,0,0,RETURNING,0.000,0.641,0.000,0.021
00:03:47.977,RETURNING,29.729,-18.946,1.000,0.00,0.00,153.46,3.526,1.682,1.445,1.682,1.708,0,0,RETURNING,0.000,0.574,0.000,0.024
00:03:48.178,RETURNING,29.629,-18.896,1.000,0.00,0.00,153.73,3.448,1.633,1.387,1.641,1.652,0,0,RETURNING,0.000,0.526,0.000,0.026
00:03:48.379,RETURNING,29.535,-18.850,1.000,0.00,0.00,154.03,3.303,1.568,1.329,1.589,1.587,0,0,RETURNING,0.000,0.487,0.000,0.027
00:03:48.579,RETURNING,29.449,-18.809,1.000,0.00,0.00,154.34,3.397,1.498,1.261,1.518,1.519,0,0,RETURNING,0.000,0.445,0.000,0.139
00:03:48.779,RETURNING,29.370,-18.772,1.000,0.00,0.00,156.59,3.507,1.508,1.165,1.513,1.509,0,0,RETURNING,0.000,0.417,0.000,0.233
00:03:48.981,RETURNING,29.293,-18.740,1.000,0.00,0.00,158.74,3.417,1.606,1.066,1.607,1.606,0,0,RETURNING,0.000,0.427,0.000,0.068
00:03:49.181,RETURNING,29.212,-18.710,1.000,0.00,0.00,159.40,3.149,1.621,0.972,1.592,1.625,0,0,RETURNING,0.000,0.435,0.000,0.032
00:03:49.382,RETURNING,29.131,-18.679,1.000,0.00,0.00,159.80,4.909,1.610,0.915,1.578,1.609,0,0,RETURNING,0.000,0.429,0.000,0.048
00:03:49.582,RETURNING,29.051,-18.650,1.000,0.00,0.00,160.39,5.328,1.571,0.901,1.561,1.557,0,0,RETURNING,0.000,0.414,0.000,0.059
00:03:49.782,RETURNING,28.973,-18.623,1.000,0.00,0.00,161.07,5.785,1.597,0.879,1.606,1.602,0,0,RETURNING,0.000,0.409,0.000,0.061
00:03:49.983,RETURNING,28.896,-18.597,1.000,0.00,0.00,161.77,6.512,1.556,0.854,1.579,1.584,0,0,RETURNING,0.000,0.401,0.000,0.064
00:03:50.183,RETURNING,28.820,-18.572,1.000,0.00,0.00,162.50,6.725,1.561,0.854,1.605,1.586,0,0,RETURNING,0.000,0.390,0.000,0.062
00:03:50.385,RETURNING,28.746,-18.549,1.000,0.00,0.00,163.21,6.661,1.586,0.844,1.594,1.564,0,0,RETURNING,0.000,0.393,0.000,0.056
00:03:50.584,RETURNING,28.670,-18.527,1.000,0.00,0.00,163.83,6.552,1.588,0.841,1.587,1.582,0,0,RETURNING,0.000,0.394,0.000,0.049
00:03:50.785,RETURNING,28.594,-18.506,1.000,0.00,0.00,164.38,6.406,1.586,0.840,1.587,1.592,0,0,RETURNING,0.000,0.395,0.000,0.041
00:03:50.986,RETURNING,28.518,-18.485,1.000,0.00,0.00,164.85,6.362,1.561,0.812,1.553,1.571,0,0,RETURNING,0.000,0.388,0.000,0.040
00:03:51.187,RETURNING,28.444,-18.465,1.000,0.00,0.00,165.30,6.214,1.533,0.810,1.542,1.551,0,0,RETURNING,0.000,0.375,0.000,0.038
00:03:51.387,RETURNING,28.372,-18.446,1.000,0.00,0.00,165.72,6.064,1.496,0.801,1.496,1.528,0,0,RETURNING,0.000,0.361,0.000,0.284
00:03:51.587,RETURNING,28.302,-18.430,1.000,0.00,0.00,170.15,5.490,1.842,0.858,1.808,1.831,0,0,RETURNING,0.000,0.392,0.000,0.450
00:03:51.787,RETURNING,28.216,-18.419,1.000,0.00,0.00,174.05,4.900,2.388,0.970,2.026,2.316,0,0,RETURNING,0.000,0.592,-0.022,0.027
00:03:51.989,RETURNING,28.093,-18.406,1.000,0.00,0.00,173.95,4.676,2.415,1.020,1.978,2.382,0,0,RETURNING,0.000,0.682,-0.077,-0.105
00:03:52.189,RETURNING,27.956,-18.391,1.000,0.00,0.00,172.66,4.803,2.313,0.967,1.829,2.289,0,0,RETURNING,0.000,0.708,-0.111,-0.125
00:03:52.389,RETURNING,27.816,-18.371,1.000,0.00,0.00,171.27,4.938,2.161,0.900,1.701,2.146,0,0,RETURNING,0.000,0.694,-0.136,-0.104
00:03:52.591,RETURNING,27.682,-18.349,1.000,0.00,0.00,170.16,5.043,1.996,0.820,1.615,1.995,0,0,RETURNING,0.000,0.623,-0.140,-0.069
00:03:52.790,RETURNING,27.562,-18.328,1.000,0.00,0.00,169.44,5.080,1.864,0.799,1.542,1.872,0,0,RETURNING,0.000,0.549,-0.139,-0.043
00:03:52.991,RETURNING,27.457,-18.308,1.000,0.00,0.00,169.00,5.152,1.736,0.756,1.514,1.749,0,0,RETURNING,0.000,0.481,-0.119,-0.022
00:03:53.191,RETURNING,27.365,-18.289,1.000,0.00,0.00,168.80,5.172,1.651,0.722,1.455,1.669,0,0,RETURNING,0.000,0.427,-0.108,-0.001
00:03:53.392,RETURNING,27.283,-18.273,1.000,0.00,0.00,168.82,5.197,1.573,0.720,1.392,1.564,0,0,RETURNING,0.000,0.388,-0.101,0.007
00:03:53.594,RETURNING,27.208,-18.258,1.000,0.00,0.00,168.92,5.200,1.535,0.701,1.403,1.525,0,0,RETURNING,0.000,0.360,-0.090,0.014
00:03:53.793,RETURNING,27.138,-18.245,1.000,0.00,0.00,170.50,5.077,1.452,0.725,1.358,1.443,0,0,RETURNING,0.000,0.333,-0.044,0.643
00:03:53.993,RETURNING,27.074,-18.238,1.000,0.00,0.00,178.50,4.521,1.967,0.881,1.125,1.697,0,0,RETURNING,0.000,0.370,-0.166,0.515
00:03:54.195,RETURNING,26.990,-18.240,1.000,0.00,-0.00,-177.38,3.790,5.780,1.163,1.053,2.369,0,0,RETURNING,0.000,0.567,-0.468,-0.082
00:03:54.395,RETURNING,26.874,-18.244,1.000,0.00,-0.00,-178.84,3.704,6.185,1.147,1.036,2.438,0,0,RETURNING,0.000,0.628,-0.613,-0.246
00:03:54.596,RETURNING,26.747,-18.244,1.000,0.00,0.00,178.29,3.929,6.171,1.054,3.660,2.455,0,0,RETURNING,0.000,0.657,-0.167,-0.251
00:03:54.797,RETURNING,26.615,-18.237,1.000,0.00,0.00,175.51,4.167,3.674,0.951,3.317,2.421,0,0,RETURNING,0.000,0.679,0.071,-0.207
00:03:54.997,RETURNING,26.479,-18.224,1.000,0.00,0.00,173.26,4.342,3.265,0.838,2.747,2.250,0,0,RETURNING,0.000,0.697,0.108,-0.150
00:03:55.197,RETURNING,26.340,-18.206,1.000,0.00,0.00,171.70,4.538,3.025,0.716,2.442,2.183,0,0,RETURNING,0.000,0.710,0.077,-0.085
00:03:55.398,RETURNING,26.200,-18.184,1.000,0.00,0.00,170.89,4.714,1.885,0.584,2.012,1.679,0,0,RETURNING,0.000,0.634,0.060,-0.010
00:03:55.598,RETURNING,26.076,-18.164,1.000,0.00,0.00,170.91,4.711,2.567,0.411,2.044,2.045,0,0,RETURNING,0.000,0.662,0.058,0.033
00:03:55.799,RETURNING,25.943,-18.143,1.000,0.00,0.00,171.31,4.647,2.573,0.463,2.294,2.059,0,0,RETURNING,0.000,0.705,0.064,0.039
00:03:56.000,RETURNING,25.803,-18.122,1.000,0.00,0.00,171.76,4.594,2.429,0.454,2.332,2.122,0,0,RETURNING,0.000,0.713,0.062,0.036
00:03:56.200,RETURNING,25.662,-18.102,1.000,0.00,0.00,172.15,4.486,2.355,0.526,2.343,2.258,0,0,RETURNING,0.000,0.708,0.020,0.030
00:03:56.401,RETURNING,25.522,-18.084,1.000,0.00,0.00,172.48,4.415,2.271,0.520,2.276,2.284,0,0,RETURNING,0.000,0.683,0.005,0.024
00:03:56.602,RETURNING,25.389,-18.066,1.000,0.00,0.00,172.75,4.294,2.130,0.633,2.137,2.184,0,0,RETURNING,0.000,0.630,0.001,0.008
00:03:56.802,RETURNING,25.267,-18.051,1.000,0.00,0.00,172.82,4.244,2.026,0.576,1.971,2.042,0,0,RETURNING,0.000,0.567,0.000,0.009
00:03:57.003,RETURNING,25.156,-18.037,1.000,0.00,0.00,172.90,4.155,1.939,0.633,1.881,1.951,0,0,RETURNING,0.000,0.523,0.000,-0.008
00:03:57.204,RETURNING,25.054,-18.024,1.000,0.00,0.00,172.71,4.137,1.829,0.700,1.814,1.827,0,0,RETURNING,0.000,0.481,0.000,-0.044
00:03:57.405,RETURNING,24.960,-18.012,1.000,0.00,0.00,172.17,4.047,1.741,0.657,1.741,1.757,0,0,RETURNING,0.000,0.438,0.000,-0.047
00:03:57.604,RETURNING,24.876,-18.000,1.000,0.00,0.00,171.70,4.024,1.641,0.693,1.636,1.669,0,0,RETURNING,0.000,0.396,0.000,-0.034
00:03:57.806,RETURNING,24.798,-17.988,1.000,0.00,0.00,171.27,4.015,1.571,0.693,1.562,1.595,0,0,RETURNING,0.000,0.366,0.000,-0.046
00:03:58.005,RETURNING,24.727,-17.977,1.000,0.00,0.00,170.74,4.008,1.525,0.725,1.509,1.527,0,0,RETURNING,0.000,0.345,0.000,-0.050
00:03:58.204,RETURNING,24.660,-17.966,1.000,0.00,0.00,171.55,3.993,1.460,0.722,1.433,1.465,0,0,RETURNING,0.000,0.324,0.000,0.575
00:03:58.406,RETURNING,24.586,-17.959,1.000,0.00,0.00,177.41,3.742,4.694,1.082,4.419,2.349,0,0,RETURNING,0.000,0.554,0.145,0.110
00:03:58.606,RETURNING,24.471,-17.955,1.000,0.00,0.00,177.77,3.602,4.848,1.163,4.764,2.456,0,0,RETURNING,0.000,0.636,0.216,-0.182
00:03:58.808,RETURNING,24.343,-17.948,1.000,0.00,0.00,175.49,3.591,4.920,1.083,4.888,2.460,0,0,RETURNING,0.000,0.664,0.234,-0.235
00:03:59.008,RETURNING,24.210,-17.935,1.000,0.00,0.00,172.84,3.617,5.024,0.981,5.063,2.468,0,0,RETURNING,0.000,0.684,0.244,-0.209
00:03:59.208,RETURNING,24.073,-17.915,1.000,0.00,0.00,170.55,3.618,5.268,0.869,5.210,2.467,0,0,RETURNING,0.000,0.701,0.251,-0.160
00:03:59.408,RETURNING,23.935,-17.890,1.000,0.00,0.00,168.85,3.582,5.438,0.739,5.516,2.448,0,0,RETURNING,0.000,0.714,0.263,-0.101
00:03:59.609,RETURNING,23.795,-17.861,1.000,0.00,0.00,167.84,3.576,5.494,0.642,5.570,2.439,0,0,RETURNING,0.000,0.722,0.272,-0.040
00:03:59.809,RETURNING,23.653,-17.830,1.000,0.00,0.00,167.55,3.575,5.477,1.329,5.532,2.435,0,0,RETURNING,0.000,0.726,0.278,-0.048
00:04:00.010,RETURNING,23.512,-17.798,1.000,0.00,0.00,166.63,3.521,5.471,1.633,5.529,2.437,0,0,RETURNING,0.000,0.729,0.276,-0.170
00:04:00.211,RETURNING,23.370,-17.762,1.000,0.00,0.00,164.61,3.545,5.639,1.559,5.617,2.427,0,0,RETURNING,0.000,0.736,0.280,-0.187
00:04:00.411,RETURNING,23.228,-17.720,1.000,0.00,0.00,162.51,3.598,6.041,1.434,5.916,2.455,0,0,RETURNING,0.000,0.746,0.283,-0.164
00:04:00.611,RETURNING,23.086,-17.673,1.000,0.00,0.00,160.72,3.638,6.335,1.311,5.998,2.447,0,0,RETURNING,0.000,0.755,0.287,-0.128
00:04:00.811,RETURNING,22.944,-17.622,1.000,0.00,0.00,159.33,3.712,6.157,1.187,5.972,2.459,0,0,RETURNING,0.000,0.762,0.288,-0.093
00:04:01.013,RETURNING,22.802,-17.567,1.000,0.00,0.00,158.35,3.743,6.106,1.096,5.983,2.452,0,0,RETURNING,0.000,0.766,0.288,-0.061
00:04:01.212,RETURNING,22.660,-17.509,1.000,0.00,0.00,157.73,3.759,5.914,0.964,5.922,2.426,0,0,RETURNING,0.000,0.770,0.296,-0.027
00:04:01.413,RETURNING,22.517,-17.451,1.000,0.00,0.00,157.50,3.760,5.838,0.983,6.010,2.446,0,0,RETURNING,0.000,0.771,0.292,-0.002
00:04:01.614,RETURNING,22.375,-17.392,1.000,0.00,0.00,157.47,3.702,5.827,1.001,6.012,2.442,0,0,RETURNING,0.000,0.771,0.292,-0.005
00:04:01.815,RETURNING,22.232,-17.332,1.000,0.00,0.00,157.36,3.662,5.527,1.151,6.069,2.430,0,0,RETURNING,0.000,0.772,0.297,-0.028
00:04:02.016,RETURNING,22.090,-17.273,1.000,0.00,0.00,156.99,3.639,5.493,1.256,6.027,2.426,0,0,RETURNING,0.000,0.772,0.297,-0.048
00:04:02.215,RETURNING,21.948,-17.212,1.000,0.00,0.00,156.44,3.604,5.421,1.400,5.976,2.453,0,0,RETURNING,0.000,0.773,0.293,-0.057
00:04:02.416,RETURNING,21.807,-17.149,1.000,0.00,0.00,155.75,3.626,5.333,1.406,5.971,2.444,0,0,RETURNING,0.000,0.775,0.290,-0.066
00:04:02.617,RETURNING,21.666,-17.085,1.000,0.00,0.00,155.00,3.641,5.216,1.363,6.027,2.459,0,0,RETURNING,0.000,0.777,0.290,-0.059
00:04:02.817,RETURNING,21.525,-17.018,1.000,0.00,0.00,154.33,3.651,5.052,1.458,6.054,2.459,0,0,RETURNING,0.000,0.779,0.290,-0.057
00:04:03.018,RETURNING,21.385,-16.950,1.000,0.00,0.00,153.69,3.696,4.945,1.465,6.049,2.457,0,0,RETURNING,0.000,0.781,0.289,-0.053
00:04:03.219,RETURNING,21.245,-16.880,1.000,0.00,0.00,153.10,3.691,4.696,1.520,6.015,2.442,0,0,RETURNING,0.000,0.783,0.293,-0.050
00:04:03.419,RETURNING,21.106,-16.808,1.000,0.00,0.00,152.53,3.730,4.589,1.556,5.706,2.449,0,0,RETURNING,0.000,0.784,0.287,-0.047
00:04:03.620,RETURNING,20.967,-16.735,1.000,0.00,0.00,151.99,3.768,4.485,1.599,5.596,2.450,0,0,RETURNING,0.000,0.786,0.279,-0.045
00:04:03.819,RETURNING,20.828,-16.661,1.000,0.00,0.00,151.48,3.781,4.338,1.615,5.379,2.444,0,0,RETURNING,0.000,0.787,0.272,-0.042
00:04:04.021,RETURNING,20.690,-16.585,1.000,0.00,0.00,151.01,3.787,4.123,1.639,5.027,2.435,0,0,RETURNING,0.000,0.788,0.263,-0.039
00:04:04.221,RETURNING,20.553,-16.508,1.000,0.00,0.00,150.57,4.081,3.985,1.677,4.606,2.463,0,0,RETURNING,0.000,0.789,0.243,-0.034
00:04:04.421,RETURNING,20.416,-16.431,1.000,0.00,0.00,150.20,4.370,3.810,1.706,4.188,2.444,0,0,RETURNING,0.000,0.790,0.218,-0.028
00:04:04.622,RETURNING,20.279,-16.352,1.000,0.00,0.00,149.89,3.947,3.674,1.717,3.937,2.449,0,0,RETURNING,0.000,0.790,0.197,-0.027
00:04:04.823,RETURNING,20.142,-16.272,1.000,0.00,0.00,149.56,3.561,3.528,1.861,3.759,2.439,0,0,RETURNING,0.000,0.791,0.180,-0.035
00:04:05.023,RETURNING,20.006,-16.191,1.000,0.00,0.00,149.14,3.291,3.396,1.883,3.535,2.444,0,0,RETURNING,0.000,0.791,0.165,-0.042
00:04:05.223,RETURNING,19.870,-16.110,1.000,0.00,0.00,148.65,3.117,3.228,1.884,3.324,2.440,0,0,RETURNING,0.000,0.792,0.146,-0.044
00:04:05.424,RETURNING,19.735,-16.027,1.000,0.00,0.00,148.15,3.030,3.096,1.850,3.174,2.443,0,0,RETURNING,0.000,0.793,0.127,-0.041
00:04:05.626,RETURNING,19.601,-15.943,1.000,0.00,0.00,147.69,2.843,2.951,1.818,3.003,2.429,0,0,RETURNING,0.000,0.794,0.108,-0.038
00:04:05.826,RETURNING,19.467,-15.857,1.000,0.00,0.00,147.27,2.697,2.795,1.815,2.861,2.396,0,0,RETURNING,0.000,0.795,0.091,-0.036
00:04:06.028,RETURNING,19.334,-15.771,1.000,0.00,0.00,146.86,2.573,2.652,1.791,2.692,2.420,0,0,RETURNING,0.000,0.795,0.069,-0.034
00:04:06.229,RETURNING,19.201,-15.684,1.000,0.00,0.00,146.47,2.418,2.462,1.757,2.471,2.430,0,0,RETURNING,0.000,0.796,0.022,-0.033
00:04:06.429,RETURNING,19.068,-15.595,1.000,0.00,0.00,146.09,2.240,2.338,1.660,2.355,2.382,0,0,RETURNING,0.000,0.796,0.005,-0.032
00:04:06.630,RETURNING,18.936,-15.506,1.000,0.00,0.00,145.72,2.060,5.235,1.692,4.762,2.350,0,0,RETURNING,0.000,0.797,0.141,-0.034
00:04:06.830,RETURNING,18.805,-15.416,1.000,0.00,0.00,145.24,1.898,6.635,4.541,5.946,2.421,0,0,RETURNING,0.000,0.797,0.251,-0.085
00:04:07.031,RETURNING,18.675,-15.324,1.000,0.00,0.00,144.17,1.758,6.652,4.379,5.988,2.414,0,0,RETURNING,0.000,0.798,0.286,-0.115
00:04:07.231,RETURNING,18.546,-15.229,1.000,0.00,0.00,142.83,1.617,6.493,4.228,6.051,2.420,0,0,RETURNING,0.000,0.799,0.298,-0.120
00:04:07.433,RETURNING,18.420,-15.131,1.000,0.00,0.00,141.46,1.488,6.169,3.961,6.029,2.429,0,0,RETURNING,0.000,0.800,0.297,-0.115
00:04:07.633,RETURNING,18.296,-15.030,1.000,0.00,0.00,140.15,1.359,6.124,3.757,5.987,2.434,0,0,RETURNING,0.000,0.800,0.294,-0.111
00:04:07.834,RETURNING,18.174,-14.927,1.000,0.00,0.00,138.88,4.111,6.000,3.611,5.862,2.434,0,0,RETURNING,0.000,0.800,0.293,-0.068
00:04:08.034,RETURNING,18.054,-14.821,1.000,0.00,0.00,138.36,5.311,5.822,3.503,5.800,2.452,0,0,RETURNING,0.000,0.800,0.286,0.018
00:04:08.234,RETURNING,17.935,-14.715,1.000,0.00,0.00,138.65,4.919,5.681,3.532,5.584,2.471,0,0,RETURNING,0.000,0.799,0.278,0.041
00:04:08.435,RETURNING,17.814,-14.609,1.000,0.00,0.00,139.11,4.483,5.465,3.611,5.368,2.458,0,0,RETURNING,0.000,0.800,0.271,0.038
00:04:08.635,RETURNING,17.693,-14.505,1.000,0.00,0.00,139.52,4.201,5.337,3.710,5.241,2.425,0,0,RETURNING,0.000,0.800,0.266,0.028
00:04:08.835,RETURNING,17.571,-14.402,1.000,0.00,0.00,139.82,4.270,5.190,4.052,5.076,2.436,0,0,RETURNING,0.000,0.800,0.262,0.019
00:04:09.036,RETURNING,17.449,-14.299,1.000,0.00,0.00,140.03,4.169,5.028,4.250,4.932,2.437,0,0,RETURNING,0.000,0.800,0.254,0.012
00:04:09.236,RETURNING,17.326,-14.196,1.000,0.00,0.00,140.14,4.195,4.905,4.339,4.799,2.468,0,0,RETURNING,0.000,0.800,0.244,0.007
00:04:09.438,RETURNING,17.203,-14.093,1.000,0.00,0.00,140.21,4.188,4.745,4.296,4.690,2.465,0,0,RETURNING,0.000,0.800,0.235,0.005
00:04:09.639,RETURNING,17.080,-13.991,1.000,0.00,0.00,140.26,4.098,4.521,4.126,4.500,2.442,0,0,RETURNING,0.000,0.800,0.230,0.004
00:04:09.839,RETURNING,16.957,-13.889,1.000,0.00,0.00,140.31,4.087,4.373,4.328,4.362,2.439,0,0,RETURNING,0.000,0.800,0.223,0.002
00:04:10.039,RETURNING,16.834,-13.787,1.000,0.00,0.00,140.33,4.097,4.241,4.107,4.237,2.449,0,0,RETURNING,0.000,0.800,0.212,0.003
00:04:10.239,RETURNING,16.711,-13.685,1.000,0.00,0.00,140.37,3.687,4.008,3.962,4.081,2.407,0,0,RETURNING,0.000,0.800,0.206,0.003
00:04:10.440,RETURNING,16.587,-13.583,1.000,0.00,0.00,140.40,4.050,3.881,3.759,3.857,2.426,0,0,RETURNING,0.000,0.800,0.195,0.005
00:04:10.641,RETURNING,16.464,-13.481,1.000,0.00,0.00,140.47,3.849,3.563,3.500,3.556,2.415,0,0,RETURNING,0.000,0.800,0.173,0.009
00:04:10.844,RETURNING,16.341,-13.379,1.000,0.00,0.00,140.57,3.698,3.332,3.296,3.380,2.408,0,0,RETURNING,0.000,0.800,0.158,0.008
00:04:11.043,RETURNING,16.217,-13.277,1.000,0.00,0.00,140.66,3.485,3.479,3.149,3.420,2.434,0,0,RETURNING,0.000,0.800,0.145,0.008
00:04:11.243,RETURNING,16.093,-13.176,1.000,0.00,0.00,140.75,3.380,3.684,1.900,3.451,2.443,0,0,RETURNING,0.000,0.800,0.145,0.022
00:04:11.443,RETURNING,15.969,-13.075,1.000,0.00,0.00,141.24,3.342,3.757,1.971,3.150,2.442,0,0,RETURNING,0.000,0.800,0.126,0.083
00:04:11.645,RETURNING,15.844,-12.976,1.000,0.00,0.00,142.07,3.301,4.463,2.486,4.439,2.438,0,0,RETURNING,0.000,0.800,0.176,0.034
00:04:11.845,RETURNING,15.717,-12.878,1.000,0.00,0.00,142.39,3.181,4.617,2.642,4.615,2.436,0,0,RETURNING,0.000,0.800,0.217,0.007
00:04:12.046,RETURNING,15.590,-12.780,1.000,0.00,0.00,142.44,3.072,4.458,2.550,4.459,2.446,0,0,RETURNING,0.000,0.800,0.224,-0.003
00:04:12.246,RETURNING,15.464,-12.683,1.000,0.00,0.00,142.40,2.939,4.343,2.390,4.364,2.458,0,0,RETURNING,0.000,0.800,0.218,-0.004
00:04:12.446,RETURNING,15.337,-12.585,1.000,0.00,0.00,142.36,2.825,4.260,2.277,4.262,2.441,0,0,RETURNING,0.000,0.800,0.213,-0.002
00:04:12.647,RETURNING,15.210,-12.488,1.000,0.00,0.00,142.34,2.668,4.189,2.129,4.123,2.443,0,0,RETURNING,0.000,0.800,0.205,0.000
00:04:12.847,RETURNING,15.084,-12.390,1.000,0.00,0.00,142.35,2.469,4.038,1.958,3.961,2.478,0,0,RETURNING,0.000,0.800,0.193,0.003
00:04:13.048,RETURNING,14.957,-12.292,1.000,0.00,0.00,142.39,2.380,3.927,1.827,3.859,2.486,0,0,RETURNING,0.000,0.800,0.179,0.006
00:04:13.249,RETURNING,14.830,-12.195,1.000,0.00,0.00,142.47,2.291,3.798,1.672,3.755,2.481,0,0,RETURNING,0.000,0.800,0.170,0.012
00:04:13.448,RETURNING,14.703,-12.097,1.000,0.00,0.00,142.62,2.224,3.692,1.538,3.651,2.450,0,0,RETURNING,0.000,0.800,0.165,0.017
00:04:13.650,RETURNING,14.576,-12.001,1.000,0.00,0.00,142.83,2.164,3.583,1.419,3.533,2.457,0,0,RETURNING,0.000,0.799,0.156,0.025
00:04:13.850,RETURNING,14.449,-11.904,1.000,0.00,0.00,143.14,2.100,3.428,1.399,3.369,2.470,0,0,RETURNING,0.000,0.799,0.140,0.029
00:04:14.047,RETURNING,14.320,-11.809,1.000,0.00,0.00,143.45,2.045,3.313,1.588,3.259,2.467,0,0,RETURNING,0.000,0.799,0.127,0.014
00:04:14.247,RETURNING,14.192,-11.714,1.000,0.00,0.00,143.56,1.991,3.205,1.749,3.151,2.465,0,0,RETURNING,0.000,0.799,0.113,-0.007
00:04:14.447,RETURNING,14.063,-11.619,1.000,0.00,0.00,143.42,1.937,3.134,1.990,3.103,2.459,0,0,RETURNING,0.000,0.799,0.106,-0.028
00:04:14.648,RETURNING,13.935,-11.523,1.000,0.00,0.00,143.07,1.892,3.107,2.017,3.098,2.465,0,0,RETURNING,0.000,0.799,0.102,-0.038
00:04:14.848,RETURNING,13.808,-11.427,1.000,0.00,0.00,142.63,1.851,3.090,2.022,3.093,2.478,0,0,RETURNING,0.000,0.799,0.098,-0.039
00:04:15.049,RETURNING,13.681,-11.329,1.000,0.00,0.00,142.19,1.823,3.096,2.067,3.098,2.462,0,0,RETURNING,0.000,0.799,0.099,-0.038
00:04:15.249,RETURNING,13.555,-11.231,1.000,0.00,0.00,141.75,1.793,3.101,2.075,3.118,2.453,0,0,RETURNING,0.000,0.800,0.100,-0.037
00:04:15.450,RETURNING,13.430,-11.131,1.000,0.00,0.00,141.33,1.744,3.067,2.071,3.092,2.456,0,0,RETURNING,0.000,0.800,0.103,-0.035
00:04:15.650,RETURNING,13.305,-11.031,1.000,0.00,0.00,140.93,1.600,3.024,2.093,2.983,2.484,0,0,RETURNING,0.000,0.800,0.092,-0.038
00:04:15.852,RETURNING,13.182,-10.930,1.000,0.00,0.00,140.47,1.466,2.975,2.123,2.911,2.466,0,0,RETURNING,0.000,0.800,0.077,-0.047
00:04:16.051,RETURNING,13.059,-10.827,1.000,0.00,0.00,139.92,1.425,5.228,2.096,4.402,2.444,0,0,RETURNING,0.000,0.800,0.121,-0.050
00:04:16.252,RETURNING,12.937,-10.724,1.000,0.00,0.00,139.36,1.408,6.020,2.072,4.638,2.429,0,0,RETURNING,0.000,0.800,0.206,-0.046
00:04:16.454,RETURNING,12.816,-10.619,1.000,0.00,0.00,138.85,1.422,6.010,2.033,4.602,2.455,0,0,RETURNING,0.000,0.800,0.225,-0.039
00:04:16.653,RETURNING,12.696,-10.514,1.000,0.00,0.00,138.43,1.416,6.768,2.022,4.505,2.461,0,0,RETURNING,0.000,0.800,0.224,-0.031
00:04:16.854,RETURNING,12.576,-10.407,1.000,0.00,0.00,138.08,1.419,7.609,2.017,4.392,2.453,0,0,RETURNING,0.000,0.799,0.220,-0.025
00:04:17.055,RETURNING,12.457,-10.300,1.000,0.00,0.00,137.80,1.408,7.446,2.046,4.260,2.428,0,0,RETURNING,0.000,0.799,0.215,-0.023
00:04:17.255,RETURNING,12.339,-10.192,1.000,0.00,0.00,137.55,1.411,7.419,1.975,4.150,2.453,0,0,RETURNING,0.000,0.799,0.206,-0.017
00:04:18.534,RETURNING,12.221,-10.084,1.000,0.00,0.00,137.37,1.409,7.089,2.533,3.958,2.479,0,0,RETURNING,0.000,0.799,0.192,-0.021
00:04:18.737,RETURNING,12.104,-9.976,1.000,0.00,0.00,137.07,1.394,7.297,2.990,3.820,2.486,0,0,RETURNING,0.000,0.799,0.178,-0.041
00:04:18.939,RETURNING,11.988,-9.867,1.000,0.00,0.00,136.59,1.396,7.091,2.992,3.632,2.451,0,0,RETURNING,0.000,0.798,0.166,-0.045
00:04:19.139,RETURNING,11.872,-9.756,1.000,0.00,0.00,136.09,1.412,7.024,2.942,3.496,2.429,0,0,RETURNING,0.000,0.798,0.156,-0.038
00:04:19.340,RETURNING,11.757,-9.645,1.000,0.00,0.00,135.66,2.078,6.900,2.880,3.368,2.451,0,0,RETURNING,0.000,0.797,0.142,-0.016
00:04:19.540,RETURNING,11.644,-9.534,1.000,0.00,0.00,135.62,2.748,6.775,2.847,3.239,2.469,0,0,RETURNING,0.000,0.797,0.127,0.035
00:04:19.740,RETURNING,11.529,-9.423,1.000,0.00,0.00,136.07,2.868,6.695,2.958,3.055,2.469,0,0,RETURNING,0.000,0.797,0.108,0.052
00:04:19.941,RETURNING,11.414,-9.313,1.000,0.00,0.00,136.66,2.817,6.674,3.027,2.900,2.458,0,0,RETURNING,0.000,0.798,0.087,0.049
00:04:20.142,RETURNING,11.297,-9.204,1.000,0.00,0.00,137.21,2.751,6.864,3.034,2.788,2.452,0,0,RETURNING,0.000,0.798,0.070,0.041
00:04:20.342,RETURNING,11.180,-9.096,1.000,0.00,0.00,137.66,2.699,6.832,3.134,2.694,2.471,0,0,RETURNING,0.000,0.798,0.023,0.033
00:04:20.543,RETURNING,11.062,-8.988,1.000,0.00,0.00,138.02,2.691,6.742,3.214,4.844,2.477,0,0,RETURNING,0.000,0.799,0.077,0.026
00:04:20.743,RETURNING,10.943,-8.882,1.000,0.00,0.00,138.29,2.596,6.682,3.260,5.851,2.473,0,0,RETURNING,0.000,0.799,0.224,0.019
00:04:20.944,RETURNING,10.823,-8.776,1.000,0.00,0.00,138.49,2.468,6.574,3.263,5.944,2.454,0,0,RETURNING,0.000,0.799,0.270,0.011
