timestamp,state,x,z,roll_deg,pitch_deg,yaw_deg,left,center,right,top,bottom,cmd_vx,cmd_vz,cmd_roll,cmd_yaw
2026-05-10 20:30:45.604968,SEARCHING,0.000,1.000,0.00,0.00,0.00,10.000,10.000,10.000,10.000,10.000,0.700,0.000,0.000,0.000
2026-05-10 20:30:45.805706,SEARCHING,0.105,1.000,0.00,0.00,0.00,10.000,10.000,10.000,10.000,10.000,0.700,0.000,0.000,0.000
2026-05-10 20:30:46.029986,SEARCHING,0.245,1.000,0.00,0.00,0.00,10.000,10.000,10.000,10.000,10.000,0.700,0.000,0.000,0.000
2026-05-10 20:30:46.260173,INSPECTING,0.378,1.000,0.00,0.00,0.00,4.160,0.826,0.826,0.829,0.826,0.350,0.550,0.552,0.850
2026-05-10 20:30:46.495810,INSPECTING,0.444,1.000,0.00,0.00,9.25,3.945,0.789,0.789,0.792,0.792,0.350,0.550,0.552,0.850
2026-05-10 20:30:46.708778,SEARCHING,0.512,1.000,0.00,0.00,18.51,2.757,4.767,0.650,4.767,2.434,0.700,0.121,0.529,1.058
2026-05-10 20:30:46.915542,SEARCHING,0.637,1.000,0.00,0.00,29.92,2.757,4.767,0.650,4.767,2.434,0.700,0.121,0.529,1.058
2026-05-10 20:30:47.138247,SEARCHING,0.751,1.000,0.00,0.00,42.04,2.757,4.767,0.650,4.767,2.434,0.700,0.121,0.529,1.058
2026-05-10 20:30:47.345324,SEARCHING,0.846,1.000,0.00,0.00,54.17,2.757,4.767,0.650,4.767,2.434,0.700,0.121,0.529,1.058
2026-05-10 20:30:47.569867,SEARCHING,0.916,1.000,0.00,0.00,66.29,1.224,1.486,1.876,1.486,1.486,0.520,0.000,-0.128,-0.256
2026-05-10 20:30:47.786732,SEARCHING,0.958,1.000,0.00,0.00,68.63,1.127,1.308,1.567,1.308,1.308,0.458,0.000,-0.112,-0.224
2026-05-10 20:30:47.979537,SEARCHING,0.995,1.000,0.00,0.00,65.89,1.069,1.257,1.525,1.264,1.264,0.440,0.000,-0.126,-0.252
2026-05-10 20:30:48.191457,SEARCHING,1.032,1.000,0.00,0.00,62.97,0.991,1.192,1.476,1.186,1.186,0.417,0.000,-0.149,-0.299
2026-05-10 20:30:48.413505,SEARCHING,1.073,1.000,0.00,0.00,59.68,0.930,1.133,1.457,1.133,1.127,0.396,0.003,-0.175,-0.350
2026-05-10 20:30:48.626204,SEARCHING,1.115,1.000,0.00,0.00,55.81,0.883,1.105,1.467,1.100,1.100,0.387,0.000,-0.203,-0.405
2026-05-10 20:30:48.830412,SEARCHING,1.161,1.000,0.00,0.00,51.24,0.857,1.090,1.557,1.095,1.095,0.381,0.000,-0.236,-0.472
2026-05-10 20:30:49.043945,SEARCHING,1.211,1.000,0.00,0.00,46.04,0.832,1.105,1.720,1.105,1.105,0.387,0.000,-0.279,-0.559
2026-05-10 20:30:49.263821,SEARCHING,1.268,1.000,0.00,0.00,39.79,0.835,1.162,2.007,1.167,1.162,0.407,0.003,-0.315,-0.629
2026-05-10 20:30:49.465614,SEARCHING,1.333,1.000,0.00,0.00,32.70,0.844,1.204,2.138,1.211,1.211,0.422,0.000,-0.323,-0.645
2026-05-10 20:30:49.691083,SEARCHING,1.408,1.000,0.00,0.00,25.25,0.934,1.600,3.269,1.600,1.589,0.560,0.003,-0.344,-0.688
2026-05-10 20:30:49.896757,SEARCHING,1.509,1.000,0.00,0.00,17.40,0.934,1.600,3.269,1.600,1.589,0.560,0.003,-0.344,-0.688
2026-05-10 20:30:50.108646,SEARCHING,1.622,1.000,0.00,0.00,9.61,1.278,2.460,6.730,2.460,2.384,0.700,0.008,-0.285,-0.570
2026-05-10 20:30:50.328332,SEARCHING,1.761,1.000,0.00,0.00,2.84,1.278,2.460,6.730,2.460,2.384,0.700,0.008,-0.285,-0.570
2026-05-10 20:30:50.546313,SEARCHING,1.901,1.000,0.00,0.00,-3.29,1.733,3.632,4.868,3.691,2.460,0.700,0.081,-0.167,-0.334
2026-05-10 20:30:50.757075,SEARCHING,2.040,1.000,0.00,0.00,-7.12,2.460,6.730,4.086,6.022,2.434,0.700,0.147,-0.073,-0.146
2026-05-10 20:30:50.988554,SEARCHING,2.179,1.000,0.00,0.00,-9.54,2.460,6.730,4.086,6.022,2.434,0.700,0.147,-0.073,-0.146
2026-05-10 20:30:51.192557,SEARCHING,2.316,1.000,0.00,0.00,-11.21,2.860,5.720,3.575,5.720,2.266,0.700,0.160,-0.031,-0.063
2026-05-10 20:30:51.414308,SEARCHING,2.453,1.000,0.00,0.00,-12.20,3.178,5.448,3.467,5.448,2.222,0.700,0.160,-0.012,-0.024
2026-05-10 20:30:51.629446,SEARCHING,2.624,1.000,0.00,0.00,-12.53,3.365,5.085,3.365,5.200,2.288,0.700,0.147,0.000,0.000
2026-05-10 20:30:51.824704,SEARCHING,2.727,1.000,0.00,0.00,-12.56,3.365,5.085,3.365,5.200,2.288,0.700,0.147,0.000,0.000
2026-05-10 20:30:52.068855,SEARCHING,2.898,1.000,0.00,0.00,-12.56,3.691,4.974,3.269,4.974,2.288,0.700,0.142,0.016,0.031
2026-05-10 20:30:52.293797,SEARCHING,3.000,1.000,0.00,0.00,-12.16,6.184,4.767,3.223,4.767,2.384,0.700,0.126,0.067,0.134
2026-05-10 20:30:52.509050,SEARCHING,3.137,1.000,0.00,0.00,-10.64,5.720,4.868,3.316,4.767,2.460,0.700,0.118,0.057,0.114
2026-05-10 20:30:52.722482,SEARCHING,3.275,1.000,0.00,0.00,-9.26,5.720,4.868,3.316,4.767,2.460,0.700,0.118,0.057,0.114
2026-05-10 20:30:52.935701,SEARCHING,3.414,1.000,0.00,0.00,-8.03,4.974,4.974,3.365,4.974,2.434,0.700,0.126,0.043,0.087
2026-05-10 20:30:53.141761,SEARCHING,3.552,1.000,0.00,0.00,-7.04,3.365,5.200,3.467,5.200,2.434,0.700,0.131,-0.004,-0.008
2026-05-10 20:30:53.356602,SEARCHING,3.691,1.000,0.00,0.00,-6.75,3.011,5.321,3.316,5.321,2.460,0.700,0.131,-0.014,-0.028
2026-05-10 20:30:53.564669,SEARCHING,3.830,1.000,0.00,0.00,-6.98,3.011,5.321,3.316,5.321,2.460,0.700,0.131,-0.014,-0.028
2026-05-10 20:30:53.796566,SEARCHING,3.969,1.000,0.00,0.00,-7.30,5.085,4.868,3.051,4.974,2.434,0.700,0.126,0.059,0.118
2026-05-10 20:30:54.009670,SEARCHING,4.108,1.000,0.00,0.00,-6.52,5.085,4.868,2.934,4.868,2.434,0.700,0.123,0.065,0.130
2026-05-10 20:30:54.203970,SEARCHING,4.248,1.000,0.00,0.00,-5.06,5.085,4.868,2.934,4.868,2.434,0.700,0.123,0.065,0.130
2026-05-10 20:30:54.445207,SEARCHING,4.422,1.000,0.00,0.00,-3.20,5.085,4.868,2.934,4.868,2.434,0.700,0.123,0.065,0.130
2026-05-10 20:30:54.647928,SEARCHING,4.527,1.000,0.00,0.00,-2.09,5.085,4.868,2.934,4.868,2.434,0.700,0.123,0.065,0.130
2026-05-10 20:30:54.876062,SEARCHING,4.702,1.000,0.00,0.00,-0.52,4.014,5.448,3.092,5.321,2.487,0.700,0.128,0.033,0.067
2026-05-10 20:30:55.060561,SEARCHING,4.807,1.000,0.00,0.00,0.06,3.691,5.867,3.051,5.720,2.460,0.700,0.139,0.026,0.051
2026-05-10 20:30:55.267343,SEARCHING,4.947,1.000,0.00,0.00,0.69,3.691,5.867,3.051,5.720,2.460,0.700,0.139,0.026,0.051
2026-05-10 20:30:55.469339,SEARCHING,5.087,1.000,0.00,0.00,1.27,3.575,6.934,3.134,6.022,2.460,0.700,0.144,0.018,0.035
2026-05-10 20:30:55.675275,SEARCHING,5.227,1.000,0.00,0.00,1.72,3.575,6.934,3.134,6.022,2.460,0.700,0.144,0.018,0.035
2026-05-10 20:30:55.888350,SEARCHING,5.367,1.000,0.00,0.00,2.13,3.575,6.934,3.092,6.022,2.119,0.700,0.184,0.020,0.039
2026-05-10 20:30:56.118687,SEARCHING,5.507,1.000,0.00,0.00,2.57,3.575,6.934,3.092,6.022,2.119,0.700,0.184,0.020,0.039
2026-05-10 20:30:56.322440,SEARCHING,5.646,1.000,0.00,0.00,3.02,3.575,6.934,3.092,6.022,2.119,0.700,0.184,0.020,0.039
2026-05-10 20:30:56.533193,SEARCHING,5.786,1.000,0.00,0.00,3.47,3.575,6.934,3.092,6.022,2.119,0.700,0.184,0.020,0.039
2026-05-10 20:30:56.751466,SEARCHING,5.926,1.000,0.00,0.00,3.87,3.467,6.730,3.316,5.581,2.460,0.700,0.136,0.006,0.012
2026-05-10 20:30:56.982239,SEARCHING,6.066,1.000,0.00,0.00,4.02,3.415,6.934,3.178,5.581,2.542,0.700,0.128,0.010,0.020
2026-05-10 20:30:57.216840,SEARCHING,6.205,1.000,0.00,0.00,4.25,3.415,6.934,3.178,5.581,2.542,0.700,0.128,0.010,0.020
2026-05-10 20:30:57.424653,SEARCHING,6.345,1.000,0.00,0.00,4.47,3.415,6.934,3.178,5.581,2.542,0.700,0.128,0.010,0.020
2026-05-10 20:30:57.623290,SEARCHING,6.484,1.000,0.00,0.00,4.70,3.415,6.934,3.178,5.581,2.542,0.700,0.128,0.010,0.020
2026-05-10 20:30:57.852386,SEARCHING,6.624,1.000,0.00,0.00,4.92,3.415,6.934,3.178,5.581,2.542,0.700,0.128,0.010,0.020
2026-05-10 20:30:58.050191,SEARCHING,6.763,1.000,0.00,0.00,5.13,3.223,6.184,3.134,4.868,2.384,0.700,0.128,0.004,0.008
2026-05-10 20:30:58.260925,SEARCHING,6.938,1.000,0.00,0.00,5.24,3.223,6.184,3.134,4.868,2.384,0.700,0.128,0.004,0.008
2026-05-10 20:30:58.475695,SEARCHING,7.042,1.000,0.00,0.00,5.31,3.223,6.184,3.134,4.868,2.384,0.700,0.128,0.004,0.008
2026-05-10 20:30:58.695777,SEARCHING,7.182,1.000,0.00,0.00,5.40,3.223,6.184,3.134,4.868,2.384,0.700,0.128,0.004,0.008
2026-05-10 20:30:58.917515,SEARCHING,7.321,1.000,0.00,0.00,5.49,3.223,6.184,3.134,4.868,2.384,0.700,0.128,0.004,0.008
2026-05-10 20:30:59.137664,SEARCHING,7.460,1.000,0.00,0.00,5.58,3.223,6.184,3.134,4.868,2.384,0.700,0.128,0.004,0.008
2026-05-10 20:30:59.337463,SEARCHING,7.600,1.000,0.00,0.00,5.67,3.223,6.184,3.134,4.868,2.384,0.700,0.128,0.004,0.008
2026-05-10 20:30:59.547083,SEARCHING,7.739,1.000,0.00,0.00,5.76,3.011,5.321,4.400,3.814,2.434,0.700,0.089,-0.047,-0.094
2026-05-10 20:30:59.760934,SEARCHING,7.878,1.000,0.00,0.00,5.10,2.972,5.200,4.237,3.520,2.434,0.700,0.076,-0.045,-0.090
2026-05-10 20:30:59.965066,SEARCHING,8.018,1.000,0.00,0.00,4.08,3.011,4.974,4.014,3.520,2.434,0.700,0.076,-0.037,-0.075
2026-05-10 20:31:00.179097,SEARCHING,8.158,1.000,0.00,0.00,3.22,3.051,4.868,4.014,3.520,2.460,0.700,0.073,-0.035,-0.071
2026-05-10 20:31:00.367811,SEARCHING,8.297,1.000,0.00,0.00,2.41,3.051,4.868,4.014,3.520,2.460,0.700,0.073,-0.035,-0.071
2026-05-10 20:31:00.616688,SEARCHING,8.437,1.000,0.00,0.00,1.60,4.670,3.945,3.691,3.134,2.384,0.700,0.060,0.026,0.051
2026-05-10 20:31:00.787725,SEARCHING,8.577,1.000,0.00,0.00,1.69,4.670,3.632,3.415,2.934,2.434,0.700,0.042,0.035,0.071
2026-05-10 20:31:00.992615,SEARCHING,8.717,1.000,0.00,0.00,2.44,4.576,3.520,3.269,2.896,2.288,0.700,0.055,0.039,0.079
2026-05-10 20:31:01.195053,SEARCHING,8.857,1.000,0.00,0.00,3.34,4.487,3.691,3.134,2.724,2.460,0.700,0.024,0.043,0.087
2026-05-10 20:31:01.420672,SEARCHING,8.997,1.000,0.00,0.00,4.32,4.400,3.691,2.972,2.661,2.487,0.700,0.016,0.049,0.098
2026-05-10 20:31:01.625165,SEARCHING,9.136,1.000,0.00,0.00,5.45,4.237,3.365,2.860,2.434,2.434,0.700,0.000,0.051,0.102
2026-05-10 20:31:01.863421,SEARCHING,9.310,1.000,0.00,0.00,6.92,4.160,3.223,2.724,2.335,2.460,0.700,-0.013,0.057,0.114
2026-05-10 20:31:02.057429,SEARCHING,9.414,1.000,0.00,0.00,7.89,4.160,3.223,2.724,2.335,2.460,0.700,-0.013,0.057,0.114
2026-05-10 20:31:02.277349,SEARCHING,9.553,1.000,0.00,0.00,9.21,3.878,3.011,2.514,2.080,2.434,0.700,-0.042,0.063,0.126
2026-05-10 20:31:02.478700,SEARCHING,9.691,1.000,0.00,0.00,10.66,3.691,2.896,2.335,1.956,2.460,0.700,-0.063,0.071,0.142
2026-05-10 20:31:02.713763,SEARCHING,9.828,1.000,0.00,0.00,12.21,3.691,2.896,2.335,1.956,2.460,0.700,-0.063,0.071,0.142
2026-05-10 20:31:02.912844,SEARCHING,9.964,1.000,0.00,0.00,13.84,3.520,2.757,2.243,1.876,2.460,0.700,-0.076,0.073,0.146
2026-05-10 20:31:03.137553,SEARCHING,10.100,1.000,0.00,0.00,15.52,3.316,2.600,2.138,3.520,2.460,0.700,0.073,0.075,0.149
2026-05-10 20:31:03.329146,SEARCHING,10.234,1.000,0.00,0.00,17.24,3.316,2.600,2.138,3.520,2.460,0.700,0.073,0.075,0.149
2026-05-10 20:31:03.548997,SEARCHING,10.367,1.000,0.00,0.00,18.95,3.011,2.460,2.007,3.223,2.434,0.700,0.060,0.075,0.149
2026-05-10 20:31:03.760983,SEARCHING,10.499,1.000,0.00,0.00,20.66,3.011,2.460,2.007,3.223,2.434,0.700,0.060,0.075,0.149
2026-05-10 20:31:03.975260,SEARCHING,10.629,1.000,0.00,0.00,22.38,2.790,2.409,1.860,2.972,2.434,0.700,0.045,0.081,0.161
2026-05-10 20:31:04.213655,SEARCHING,10.758,1.000,0.00,0.00,24.19,2.757,2.335,1.860,2.896,2.434,0.700,0.039,0.079,0.157
2026-05-10 20:31:04.421517,SEARCHING,10.916,1.000,0.00,0.00,26.44,2.757,2.335,1.860,2.896,2.434,0.700,0.039,0.079,0.157
2026-05-10 20:31:04.616818,SEARCHING,11.010,1.000,0.00,0.00,27.80,2.757,2.335,1.860,2.896,2.434,0.700,0.039,0.079,0.157
2026-05-10 20:31:04.839875,SEARCHING,11.163,1.000,0.00,0.00,30.05,2.335,2.080,1.658,2.434,2.061,0.700,0.045,0.079,0.157
2026-05-10 20:31:05.037408,SEARCHING,11.254,1.000,0.00,0.00,31.38,2.288,2.099,1.670,2.359,2.080,0.700,0.034,0.073,0.146
2026-05-10 20:31:05.253828,SEARCHING,11.401,1.000,0.00,0.00,33.58,2.061,2.099,1.589,2.138,2.080,0.700,0.008,0.065,0.130
2026-05-10 20:31:05.458735,SEARCHING,11.517,1.000,0.00,0.00,35.11,2.061,2.099,1.589,2.138,2.080,0.700,0.008,0.065,0.130
2026-05-10 20:31:05.667667,SEARCHING,11.602,1.000,0.00,0.00,36.22,1.860,1.907,1.515,1.891,1.816,0.667,0.013,0.055,0.110
2026-05-10 20:31:05.872711,SEARCHING,11.711,1.000,0.00,0.00,37.56,1.733,1.816,1.670,1.845,1.816,0.636,0.005,0.010,0.020
2026-05-10 20:31:06.070838,SEARCHING,11.812,1.000,0.00,0.00,38.15,1.600,1.747,1.515,1.747,1.747,0.611,0.000,0.016,0.031
2026-05-10 20:31:06.280967,SEARCHING,11.933,1.000,0.00,0.00,38.55,1.536,1.682,1.412,1.682,1.546,0.589,0.031,0.026,0.051
2026-05-10 20:31:06.486022,SEARCHING,12.002,1.000,0.00,0.00,38.97,1.430,1.546,1.278,1.546,1.546,0.541,0.000,0.037,0.075
2026-05-10 20:31:06.697792,SEARCHING,12.089,1.000,0.00,0.00,39.77,1.354,1.395,1.167,1.395,1.412,0.488,-0.005,0.053,0.106
2026-05-10 20:31:06.891774,SEARCHING,12.166,1.000,0.00,0.00,40.98,1.278,1.525,1.054,1.525,1.525,0.534,0.000,0.075,0.149
2026-05-10 20:31:07.113948,SEARCHING,12.245,1.000,0.00,0.00,42.63,1.204,1.430,0.991,1.430,1.430,0.501,0.000,0.081,0.161
2026-05-10 20:31:07.308931,SEARCHING,12.318,1.000,0.00,0.00,44.47,1.186,1.395,0.982,1.404,1.395,0.488,0.003,0.079,0.157
2026-05-10 20:31:07.538107,SEARCHING,12.401,1.000,0.00,0.00,46.46,1.050,1.224,0.949,1.217,1.217,0.428,0.000,0.045,0.090
2026-05-10 20:31:07.735338,SEARCHING,12.445,1.000,0.00,0.00,47.66,0.953,1.100,0.733,1.100,1.100,0.385,0.000,0.142,0.283
2026-05-10 20:31:07.952703,SEARCHING,12.496,1.000,0.00,0.00,51.00,0.897,1.022,1.150,1.017,1.017,0.358,0.000,-0.110,-0.220
2026-05-10 20:31:08.172609,INSPECTING,12.541,1.000,0.00,0.00,50.34,0.835,0.946,1.079,0.946,0.946,0.350,0.550,-0.552,-0.850
2026-05-10 20:31:08.378147,INSPECTING,12.579,1.000,0.00,0.00,42.90,0.797,0.919,0.986,0.915,0.915,0.350,0.550,-0.552,-0.850
2026-05-10 20:31:08.565399,INSPECTING,12.634,1.000,0.00,0.00,33.16,0.758,0.912,0.722,0.915,0.915,0.350,0.550,0.552,0.850
2026-05-10 20:31:08.869592,INSPECTING,12.690,1.000,0.00,0.00,41.93,0.700,0.851,0.650,0.847,0.847,0.350,0.550,0.552,0.850
2026-05-10 20:31:09.024670,INSPECTING,12.749,1.000,0.00,0.00,54.11,0.630,0.722,0.841,0.722,0.722,0.350,0.550,-0.552,-0.850
2026-05-10 20:31:09.282746,INSPECTING,12.791,1.000,0.00,0.00,48.26,0.572,0.639,0.724,0.641,0.641,0.350,0.550,-0.552,-0.850
2026-05-10 20:31:09.582921,INSPECTING,12.828,1.000,0.00,0.00,40.96,0.535,0.617,0.726,0.618,0.617,0.350,0.550,-0.552,-0.850
2026-05-10 20:31:09.861991,INSPECTING,12.884,1.000,0.00,0.00,31.22,0.480,0.601,0.803,0.601,0.601,0.350,0.550,-0.552,-0.850
2026-05-10 20:31:10.152674,INSPECTING,12.980,1.000,0.00,0.00,16.61,0.466,0.632,0.591,0.630,0.540,0.350,0.550,-0.552,-0.850
2026-05-10 20:31:10.342855,TURNING,13.014,1.000,0.00,0.00,11.74,0.466,0.632,0.591,0.630,0.540,0.000,0.000,0.000,0.000
2026-05-10 20:31:10.511734,TURNING,13.083,1.000,0.00,0.00,2.00,0.466,0.632,0.591,0.630,0.540,0.000,0.000,0.000,-0.800
2026-05-10 20:31:11.639313,TURNING,13.142,1.000,0.00,0.00,-14.08,0.466,0.632,0.591,0.630,0.540,0.000,0.000,0.000,-0.800
2026-05-10 20:31:13.206479,TURNING,13.142,1.000,0.00,0.00,-23.24,0.466,0.632,0.591,0.630,0.540,0.000,0.000,0.000,-0.800
2026-05-10 20:31:13.278944,TURNING,13.142,1.000,0.00,0.00,-27.83,0.466,0.632,0.591,0.630,0.540,0.000,0.000,0.000,-0.800
2026-05-10 20:31:13.434466,TURNING,13.142,1.000,0.00,0.00,-41.58,0.466,0.632,0.591,0.630,0.540,0.000,0.000,0.000,-0.800
2026-05-10 20:31:13.648049,TURNING,13.142,1.000,0.00,0.00,-66.79,0.466,0.632,0.591,0.630,0.540,0.000,0.000,0.000,-0.800
2026-05-10 20:31:13.865682,TURNING,13.142,1.000,0.00,0.00,-75.96,0.466,0.632,0.591,0.630,0.540,0.000,0.000,0.000,-0.800
2026-05-10 20:31:14.073119,TURNING,13.142,1.000,0.00,0.00,-82.83,0.466,0.632,0.591,0.630,0.540,0.000,0.000,0.000,-0.800
2026-05-10 20:31:14.288987,TURNING,13.142,1.000,0.00,0.00,-92.00,0.245,1.362,1.315,2.600,0.505,0.000,0.000,0.000,-0.800
2026-05-10 20:31:14.511018,TURNING,13.142,1.000,0.00,0.00,-103.46,0.245,1.362,1.315,2.600,0.505,0.000,0.000,0.000,-0.800
2026-05-10 20:31:14.754901,TURNING,13.142,1.000,0.00,0.00,-110.33,1.330,1.338,4.086,4.160,0.863,0.000,0.000,0.000,-0.800
2026-05-10 20:31:14.916885,TURNING,13.142,1.000,0.00,0.00,-121.79,1.330,1.338,4.086,4.160,0.863,0.000,0.000,0.000,-0.800
2026-05-10 20:31:15.135214,TURNING,13.142,1.000,0.00,0.00,-130.89,1.439,4.086,4.868,2.007,2.460,0.000,0.000,0.000,-0.652
2026-05-10 20:31:15.334034,TURNING,13.142,1.000,0.00,0.00,-136.68,1.439,4.086,4.868,2.007,2.460,0.000,0.000,0.000,-0.551
2026-05-10 20:31:15.540817,TURNING,13.142,1.000,0.00,0.00,-144.79,3.751,4.487,7.151,2.007,2.460,0.000,0.000,0.000,-0.410
2026-05-10 20:31:15.740114,TURNING,13.142,1.000,0.00,0.00,-149.56,3.751,4.487,7.151,2.007,2.460,0.000,0.000,0.000,-0.326
2026-05-10 20:31:15.977286,TURNING,13.142,1.000,0.00,0.00,-152.49,4.014,6.022,1.486,5.867,2.434,0.000,0.000,0.000,-0.300
2026-05-10 20:31:16.184740,TURNING,13.142,1.000,0.00,0.00,-156.85,4.014,6.022,1.486,5.867,2.434,0.000,0.000,0.000,-0.300
2026-05-10 20:31:16.387566,TURNING,13.142,1.000,0.00,0.00,-159.43,4.014,6.022,1.486,5.867,2.434,0.000,0.000,0.000,-0.300
2026-05-10 20:31:16.631491,RETURNING,13.142,1.000,0.00,0.00,-162.86,4.237,1.760,1.476,1.670,1.747,0.000,0.000,0.000,0.000
2026-05-10 20:31:16.783630,RETURNING,13.109,1.000,0.00,0.00,-163.68,4.237,1.760,1.476,1.670,1.747,0.500,-0.013,0.000,0.353
2026-05-10 20:31:17.031369,RETURNING,13.014,1.000,0.00,0.00,-159.63,4.576,1.567,1.439,1.567,1.557,0.500,0.002,0.000,0.381
2026-05-10 20:31:17.224849,RETURNING,12.921,1.000,0.00,0.00,-155.32,4.576,1.567,1.439,1.567,1.557,0.500,0.002,0.000,0.381
2026-05-10 20:31:17.440109,RETURNING,12.832,1.000,0.00,0.00,-150.94,3.751,6.934,1.271,6.022,2.434,0.500,0.122,0.000,0.416
2026-05-10 20:31:17.631517,RETURNING,12.746,1.000,0.00,0.00,-146.17,3.751,6.934,1.271,6.022,2.434,0.500,0.122,0.000,0.416
2026-05-10 20:31:17.863059,RETURNING,12.665,1.000,0.00,0.00,-141.40,3.575,4.767,2.630,4.767,2.460,0.500,0.098,0.000,0.080
2026-05-10 20:31:18.068728,RETURNING,12.589,1.000,0.00,0.00,-138.75,3.520,4.576,7.627,4.576,2.487,0.500,0.092,0.000,-0.122
2026-05-10 20:31:18.289814,RETURNING,12.513,1.000,0.00,0.00,-140.04,3.316,4.086,6.934,4.014,2.460,0.500,0.079,0.000,-0.126
2026-05-10 20:31:18.497585,RETURNING,12.436,1.000,0.00,0.00,-141.46,3.316,4.086,6.934,4.014,2.460,0.500,0.079,0.000,-0.126
2026-05-10 20:31:18.711328,RETURNING,12.357,1.000,0.00,0.00,-142.90,3.316,4.237,6.934,4.237,2.460,0.500,0.085,0.000,-0.126
2026-05-10 20:31:18.916985,RETURNING,12.276,1.000,0.00,0.00,-144.34,3.316,4.237,6.934,4.237,2.460,0.500,0.085,0.000,-0.126
2026-05-10 20:31:19.124798,RETURNING,12.195,1.000,0.00,0.00,-145.78,3.316,4.237,6.934,4.237,2.460,0.500,0.085,0.000,-0.126
2026-05-10 20:31:19.351110,RETURNING,12.111,1.000,0.00,0.00,-147.23,3.092,4.487,7.627,4.400,2.434,0.500,0.092,0.000,-0.154
2026-05-10 20:31:19.540557,RETURNING,12.026,1.000,0.00,0.00,-148.91,3.092,4.487,7.627,4.400,2.434,0.500,0.092,0.000,-0.154
2026-05-10 20:31:19.765017,RETURNING,11.940,1.000,0.00,0.00,-150.63,2.896,4.576,4.014,4.576,2.359,0.500,0.103,0.000,-0.077
2026-05-10 20:31:19.994035,RETURNING,11.853,1.000,0.00,0.00,-151.51,2.934,4.868,4.160,4.868,2.460,0.500,0.101,0.000,-0.080
2026-05-10 20:31:20.214540,RETURNING,11.764,1.000,0.00,0.00,-152.43,2.896,4.974,4.237,4.974,2.661,0.500,0.087,0.000,-0.087
2026-05-10 20:31:20.434827,RETURNING,11.653,1.000,0.00,0.00,-153.68,2.896,4.974,4.237,4.974,2.661,0.500,0.087,0.000,-0.087
2026-05-10 20:31:20.614640,RETURNING,11.586,1.000,0.00,0.00,-154.43,3.011,5.321,4.014,5.321,2.434,0.500,0.111,0.000,-0.066
2026-05-10 20:31:20.855556,RETURNING,11.495,1.000,0.00,0.00,-155.23,3.011,5.581,3.878,5.581,2.409,0.500,0.118,0.000,-0.059
2026-05-10 20:31:21.016400,RETURNING,11.404,1.000,0.00,0.00,-155.95,3.011,5.581,3.751,5.581,2.409,0.500,0.118,0.000,-0.052
2026-05-10 20:31:21.245263,RETURNING,11.313,1.000,0.00,0.00,-156.55,3.092,5.867,3.691,5.867,2.434,0.500,0.120,0.000,-0.042
2026-05-10 20:31:21.446694,RETURNING,11.221,1.000,0.00,0.00,-157.08,3.092,5.867,3.691,5.867,2.434,0.500,0.120,0.000,-0.042
2026-05-10 20:31:21.683419,RETURNING,11.128,1.000,0.00,0.00,-157.55,3.092,6.022,3.520,5.867,2.434,0.500,0.120,0.000,-0.031
2026-05-10 20:31:21.870443,RETURNING,11.036,1.000,0.00,0.00,-157.93,3.051,6.022,3.520,5.867,2.434,0.500,0.120,0.000,-0.035
2026-05-10 20:31:22.092094,RETURNING,10.943,1.000,0.00,0.00,-158.33,3.011,6.022,3.415,6.022,2.384,0.500,0.127,0.000,-0.031
2026-05-10 20:31:22.296910,RETURNING,10.850,1.000,0.00,0.00,-158.71,3.011,6.022,3.415,6.022,2.384,0.500,0.127,0.000,-0.031
2026-05-10 20:31:22.520636,RETURNING,10.757,1.000,0.00,0.00,-159.07,3.011,6.022,3.415,6.022,2.384,0.500,0.127,0.000,-0.031
2026-05-10 20:31:22.710625,RETURNING,10.663,1.000,0.00,0.00,-159.43,3.011,6.022,3.269,5.867,2.460,0.500,0.118,0.000,-0.021
2026-05-10 20:31:22.912092,RETURNING,10.570,1.000,0.00,0.00,-159.67,2.972,6.022,3.223,6.022,2.487,0.500,0.118,0.000,-0.021
2026-05-10 20:31:23.118637,RETURNING,10.452,1.000,0.00,0.00,-159.91,3.011,5.867,3.134,5.867,2.434,0.500,0.120,0.000,-0.010
2026-05-10 20:31:23.333336,RETURNING,10.358,1.000,0.00,0.00,-160.03,3.011,5.867,3.134,5.867,2.434,0.500,0.120,0.000,-0.010
2026-05-10 20:31:23.548018,RETURNING,10.288,1.000,0.00,0.00,-160.12,3.011,6.022,3.011,5.867,2.514,0.500,0.114,0.000,0.000
2026-05-10 20:31:23.748018,RETURNING,10.194,1.000,0.00,0.00,-160.13,3.011,6.022,3.011,5.867,2.514,0.500,0.114,0.000,0.000
2026-05-10 20:31:23.981177,RETURNING,10.076,1.000,0.00,0.00,-160.13,2.972,5.867,3.691,5.867,2.409,0.500,0.122,0.000,-0.052
2026-05-10 20:31:24.159580,RETURNING,10.006,1.000,0.00,0.00,-160.40,2.972,5.867,3.691,5.867,2.409,0.500,0.122,0.000,-0.052
2026-05-10 20:31:24.373557,RETURNING,9.911,1.000,0.00,0.00,-161.01,2.972,5.720,3.945,5.720,2.460,0.500,0.116,0.000,-0.066
2026-05-10 20:31:24.576544,RETURNING,9.817,1.000,0.00,0.00,-161.77,2.972,5.720,3.945,5.720,2.460,0.500,0.116,0.000,-0.066
2026-05-10 20:31:24.794868,RETURNING,9.721,1.000,0.00,0.00,-162.53,3.051,6.022,3.751,5.867,2.460,0.500,0.118,0.000,-0.049
2026-05-10 20:31:25.006501,RETURNING,9.602,1.000,0.00,0.00,-163.31,3.092,6.184,3.751,5.867,2.409,0.500,0.122,0.000,-0.045
2026-05-10 20:31:25.198250,RETURNING,9.530,1.000,0.00,0.00,-163.70,3.223,0.366,0.364,0.366,2.434,0.122,-0.400,0.000,0.600
2026-05-10 20:31:25.426070,RETURNING,9.474,1.000,0.00,0.00,-160.15,3.223,0.366,0.364,0.366,2.434,0.122,-0.400,0.000,0.600
2026-05-10 20:31:25.640005,RETURNING,9.452,1.000,0.00,0.00,-153.28,2.571,4.576,5.867,4.670,2.434,0.500,0.098,0.000,-0.175
2026-05-10 20:31:25.853407,RETURNING,9.379,1.000,0.00,0.00,-150.96,2.409,4.317,6.184,4.400,2.460,0.500,0.090,0.000,-0.203
2026-05-10 20:31:26.050405,RETURNING,9.313,1.000,0.00,0.00,-152.71,2.311,4.086,5.867,4.086,2.243,0.500,0.101,0.000,-0.210
2026-05-10 20:31:26.265257,RETURNING,9.223,1.000,0.00,0.00,-155.07,2.359,4.160,6.022,4.237,2.434,0.500,0.087,0.000,-0.206
2026-05-10 20:31:26.449486,RETURNING,9.132,1.000,0.00,0.00,-157.43,2.487,4.576,6.184,4.487,2.243,0.500,0.111,0.000,-0.192
2026-05-10 20:31:26.704158,RETURNING,9.039,1.000,0.00,0.00,-159.64,2.542,4.576,5.720,4.576,2.460,0.500,0.094,0.000,-0.175
2026-05-10 20:31:26.865977,RETURNING,8.945,1.000,0.00,0.00,-161.64,2.825,5.085,5.720,5.085,2.359,0.500,0.114,0.000,-0.143
2026-05-10 20:31:27.098840,RETURNING,8.825,1.000,0.00,0.00,-163.78,3.092,5.085,5.448,5.085,2.542,0.500,0.098,0.000,-0.112
2026-05-10 20:31:27.288426,RETURNING,8.753,1.000,0.00,0.00,-164.75,3.134,5.448,5.085,5.448,2.434,0.500,0.114,0.000,-0.098
2026-05-10 20:31:27.520681,RETURNING,8.632,1.000,0.00,0.00,-166.23,3.134,5.720,4.576,5.581,2.434,0.500,0.116,0.000,-0.080
2026-05-10 20:31:27.714553,RETURNING,8.535,1.000,0.00,0.00,-167.21,3.134,5.720,4.576,5.581,2.434,0.500,0.116,0.000,-0.080
2026-05-10 20:31:27.926297,RETURNING,8.462,1.000,0.00,0.00,-167.90,3.269,5.720,4.237,5.720,2.460,0.500,0.116,0.000,-0.056
2026-05-10 20:31:28.148939,RETURNING,8.339,1.000,0.00,0.00,-168.86,3.223,5.720,4.160,5.720,2.460,0.500,0.116,0.000,-0.056
2026-05-10 20:31:28.321931,RETURNING,8.265,1.000,0.00,0.00,-169.34,3.223,5.720,4.014,5.581,2.460,0.500,0.114,0.000,-0.049
2026-05-10 20:31:28.547571,RETURNING,8.167,1.000,0.00,0.00,-169.90,3.316,4.317,3.814,5.581,2.434,0.500,0.116,0.000,-0.031
2026-05-10 20:31:28.736943,RETURNING,8.069,1.000,0.00,0.00,-170.29,3.316,4.317,3.814,5.581,2.434,0.500,0.116,0.000,-0.031
2026-05-10 20:31:28.977706,RETURNING,7.970,1.000,0.00,0.00,-170.65,3.467,4.868,3.751,4.317,2.384,0.500,0.094,0.000,-0.017
2026-05-10 20:31:29.201251,RETURNING,7.847,1.000,0.00,0.00,-170.90,3.467,4.868,3.751,4.317,2.384,0.500,0.094,0.000,-0.017
2026-05-10 20:31:29.399226,RETURNING,7.773,1.000,0.00,0.00,-171.04,3.415,4.086,3.691,5.581,2.335,0.500,0.125,0.000,-0.017
2026-05-10 20:31:29.601482,RETURNING,7.674,1.000,0.00,0.00,-171.23,3.415,4.086,3.691,5.581,2.335,0.500,0.125,0.000,-0.017
2026-05-10 20:31:29.834391,RETURNING,7.550,1.000,0.00,0.00,-171.48,3.467,4.086,3.751,4.160,2.434,0.500,0.085,0.000,-0.017
2026-05-10 20:31:30.026960,RETURNING,7.451,1.000,0.00,0.00,-171.68,3.415,4.086,3.691,4.237,2.514,0.500,0.081,0.000,-0.017
2026-05-10 20:31:30.223754,RETURNING,7.377,1.000,0.00,0.00,-171.83,3.365,4.086,3.751,4.160,2.460,0.500,0.083,0.000,-0.024
2026-05-10 20:31:30.448531,RETURNING,7.278,1.000,0.00,0.00,-172.09,3.365,4.086,3.751,4.160,2.359,0.500,0.092,0.000,-0.024
2026-05-10 20:31:30.661170,RETURNING,7.179,1.000,0.00,0.00,-172.37,3.365,4.086,3.632,4.086,2.460,0.500,0.081,0.000,-0.017
2026-05-10 20:31:30.976519,RETURNING,7.005,1.000,0.00,0.00,-172.84,3.269,4.086,3.632,4.086,2.434,0.500,0.083,0.000,-0.024
2026-05-10 20:31:31.186871,RETURNING,6.931,1.000,0.00,0.00,-173.06,3.316,4.086,3.575,4.086,2.460,0.500,0.081,0.000,-0.017
2026-05-10 20:31:31.380986,RETURNING,6.832,1.000,0.00,0.00,-173.28,3.316,0.246,3.575,0.247,2.434,0.082,-0.400,0.000,-0.017
2026-05-10 20:31:31.604452,RETURNING,6.749,1.000,0.00,0.00,-173.54,3.365,4.086,3.575,4.160,2.434,0.500,0.085,0.000,-0.014
2026-05-10 20:31:31.856042,RETURNING,6.658,1.000,0.00,0.00,-173.71,3.365,4.086,3.575,4.237,2.434,0.500,0.087,0.000,-0.014
2026-05-10 20:31:32.033446,RETURNING,6.608,1.000,0.00,0.00,-173.82,3.365,4.086,3.575,4.237,2.434,0.500,0.087,0.000,-0.014
2026-05-10 20:31:32.268333,RETURNING,6.509,1.000,0.00,0.00,-173.97,3.415,4.237,3.520,4.237,2.311,0.500,0.098,0.000,-0.007
2026-05-10 20:31:32.456944,RETURNING,6.410,1.000,0.00,0.00,-174.03,3.415,4.237,3.520,4.237,2.311,0.500,0.098,0.000,-0.007
2026-05-10 20:31:32.698238,RETURNING,6.311,1.000,0.00,0.00,-174.12,3.467,4.487,3.467,4.400,2.409,0.500,0.094,0.000,0.000
2026-05-10 20:31:32.880317,RETURNING,6.261,1.000,0.00,0.00,-174.13,3.415,4.487,3.520,4.400,2.661,0.500,0.074,0.000,-0.007
2026-05-10 20:31:33.090996,RETURNING,6.162,1.000,0.00,0.00,-174.20,3.467,4.317,3.467,4.237,2.409,0.500,0.090,0.000,0.000
2026-05-10 20:31:33.304377,RETURNING,6.062,1.000,0.00,0.00,-174.22,3.415,4.317,3.415,4.237,2.460,0.500,0.085,0.000,0.000
2026-05-10 20:31:33.530303,RETURNING,5.938,1.000,0.00,0.00,-174.22,3.365,4.237,3.415,4.160,2.460,0.500,0.083,0.000,-0.003
2026-05-10 20:31:33.720378,RETURNING,5.863,1.000,0.00,0.00,-174.25,3.223,4.160,3.415,4.160,2.434,0.500,0.085,0.000,-0.014
2026-05-10 20:31:33.936043,RETURNING,5.764,1.000,0.00,0.00,-174.41,3.269,3.945,3.365,3.945,2.434,0.500,0.079,0.000,-0.007
2026-05-10 20:31:34.193597,RETURNING,5.639,1.000,0.00,0.00,-174.50,3.178,3.814,3.316,3.814,2.434,0.500,0.074,0.000,-0.010
2026-05-10 20:31:34.349679,RETURNING,5.540,1.000,0.00,0.00,-174.59,3.178,3.632,3.365,3.575,2.460,0.500,0.063,0.000,-0.014
2026-05-10 20:31:34.558922,RETURNING,5.465,1.000,0.00,0.00,-174.70,3.178,3.632,3.365,3.632,2.460,0.500,0.066,0.000,-0.014
2026-05-10 20:31:34.798367,RETURNING,5.366,1.000,0.00,0.00,-174.83,3.223,3.632,3.316,3.632,2.460,0.500,0.066,0.000,-0.007
2026-05-10 20:31:35.007412,RETURNING,5.241,1.000,0.00,0.00,-174.93,3.178,3.467,3.269,3.467,2.434,0.500,0.061,0.000,-0.007
2026-05-10 20:31:35.198096,RETURNING,5.166,1.000,0.00,0.00,-174.99,3.178,3.365,3.178,3.365,2.434,0.500,0.057,0.000,0.000
2026-05-10 20:31:35.391281,RETURNING,5.067,1.000,0.00,0.00,-175.01,3.223,3.365,3.223,3.316,2.359,0.500,0.061,0.000,0.000
2026-05-10 20:31:35.586613,RETURNING,4.967,1.000,0.00,0.00,-175.03,2.972,3.178,3.223,3.223,2.222,0.500,0.070,0.000,-0.021
2026-05-10 20:31:35.808665,RETURNING,4.867,1.000,0.00,0.00,-175.26,2.896,3.011,3.178,2.972,2.409,0.500,0.039,0.000,-0.024
2026-05-10 20:31:36.021044,RETURNING,4.768,1.000,0.00,0.00,-175.50,2.600,3.092,3.178,3.092,2.359,0.500,0.050,0.000,-0.056
2026-05-10 20:31:36.225563,RETURNING,4.668,1.000,0.00,0.00,-176.11,2.757,2.860,3.092,2.860,2.409,0.500,0.033,0.000,-0.031
2026-05-10 20:31:36.432731,RETURNING,4.568,1.000,0.00,0.00,-176.48,2.661,2.757,3.011,2.790,2.359,0.500,0.033,0.000,-0.035
2026-05-10 20:31:36.650883,RETURNING,4.468,1.000,0.00,0.00,-176.88,2.661,2.692,2.934,2.724,2.487,0.500,0.017,0.000,-0.028
2026-05-10 20:31:36.865712,RETURNING,4.369,1.000,0.00,0.00,-177.24,2.514,2.757,2.934,2.757,2.460,0.500,0.022,0.000,-0.045
2026-05-10 20:31:37.068589,RETURNING,4.269,1.000,0.00,0.00,-177.74,2.359,2.661,2.860,2.661,2.460,0.500,0.015,0.000,-0.059
2026-05-10 20:31:37.279539,RETURNING,4.169,1.000,0.00,0.00,-178.39,2.266,2.630,2.790,2.600,2.460,0.500,0.011,0.000,-0.066
2026-05-10 20:31:37.517772,RETURNING,4.044,1.000,0.00,0.00,-179.34,2.243,2.571,2.757,2.600,2.487,0.500,0.009,0.000,-0.066
2026-05-10 20:31:37.700861,RETURNING,3.969,1.000,0.00,0.00,-179.91,2.179,2.514,2.692,2.571,2.460,0.500,0.009,0.000,-0.070
2026-05-10 20:31:37.900121,RETURNING,3.869,1.000,-0.00,0.00,179.29,1.973,10.000,2.630,10.000,2.460,0.500,0.153,0.000,-0.101
2026-05-10 20:31:38.102652,RETURNING,3.771,1.000,-0.00,0.00,178.27,1.990,10.000,2.542,10.000,0.778,0.259,0.400,0.000,-0.087
2026-05-10 20:31:38.283455,RETURNING,3.719,1.000,-0.00,0.00,177.27,1.876,10.000,2.409,10.000,2.460,0.500,0.153,0.000,-0.094
2026-05-10 20:31:38.530093,RETURNING,3.641,1.000,-0.00,0.00,176.22,1.816,10.000,2.359,10.000,2.460,0.500,0.153,0.000,-0.101
2026-05-10 20:31:38.716203,RETURNING,3.541,1.000,-0.00,0.00,175.08,1.695,10.000,2.243,10.000,2.460,0.500,0.153,0.000,-0.115
2026-05-10 20:31:38.967828,RETURNING,3.442,1.000,-0.00,0.00,173.80,1.600,10.000,2.222,10.000,2.460,0.500,0.153,0.000,-0.140
2026-05-10 20:31:39.134246,RETURNING,3.318,1.000,-0.00,0.00,171.91,1.525,10.000,2.119,10.000,2.434,0.500,0.155,0.000,-0.147
2026-05-10 20:31:39.338865,RETURNING,3.219,1.000,-0.00,0.00,170.47,1.682,10.000,2.007,10.000,1.939,0.500,0.208,0.000,-0.077
2026-05-10 20:31:39.567957,RETURNING,3.145,1.000,-0.00,0.00,169.81,1.589,2.860,1.923,2.860,2.409,0.500,0.033,0.000,-0.087
2026-05-10 20:31:39.743465,RETURNING,3.047,1.000,-0.00,0.00,169.20,10.000,2.757,1.845,2.825,2.384,0.500,0.033,0.000,0.354
2026-05-10 20:31:39.974128,RETURNING,2.948,1.000,-0.00,0.00,173.20,10.000,10.000,1.876,10.000,2.335,0.500,0.164,0.000,0.347
2026-05-10 20:31:40.221415,RETURNING,2.848,1.000,-0.00,0.00,176.36,1.439,10.000,2.025,10.000,2.222,0.500,0.175,0.000,-0.161
2026-05-10 20:31:40.412521,RETURNING,2.749,1.000,-0.00,0.00,174.54,10.000,10.000,1.956,10.000,2.080,0.500,0.190,0.000,0.329
2026-05-10 20:31:40.630478,RETURNING,2.649,1.000,-0.00,0.00,175.07,10.000,10.000,1.845,10.000,2.138,0.500,0.184,0.000,0.354
2026-05-10 20:31:40.838603,RETURNING,2.549,1.000,-0.00,0.00,179.03,10.000,10.000,2.043,10.000,3.051,0.500,0.114,0.000,0.312
2026-05-10 20:31:41.028180,RETURNING,2.449,1.000,0.00,0.00,-177.26,10.000,10.000,10.000,10.000,2.571,0.500,0.144,0.000,0.000
2026-05-10 20:31:41.243181,RETURNING,2.350,1.000,0.00,0.00,-175.62,1.022,10.000,10.000,10.000,3.011,0.500,0.116,0.000,-0.600
2026-05-10 20:31:41.460359,RETURNING,2.250,1.000,0.00,0.00,-178.71,10.000,10.000,10.000,10.000,2.288,0.500,0.169,0.000,0.000
2026-05-10 20:31:41.640203,RETURNING,2.159,1.000,0.00,0.00,-179.05,10.000,10.000,10.000,10.000,2.630,0.500,0.140,0.000,0.000
2026-05-10 20:31:41.850461,RETURNING,2.086,1.000,0.00,0.00,-179.05,10.000,10.000,10.000,10.000,2.600,0.500,0.142,0.000,0.000
2026-05-10 20:31:42.051516,RETURNING,1.986,1.000,0.00,0.00,-179.05,10.000,10.000,10.000,10.000,2.692,0.500,0.136,0.000,0.000
2026-05-10 20:31:42.280184,RETURNING,1.886,1.000,0.00,0.00,-179.05,10.000,10.000,10.000,10.000,0.487,0.162,0.400,0.000,0.000
2026-05-10 20:31:42.468410,RETURNING,1.817,1.000,0.00,0.00,-179.05,10.000,10.000,10.000,10.000,0.495,0.165,0.400,0.000,0.000
2026-05-10 20:31:42.698946,RETURNING,1.784,1.000,0.00,0.00,-179.05,10.000,10.000,10.000,10.000,2.434,0.500,0.155,0.000,0.000
2026-05-10 20:31:42.874937,RETURNING,1.688,1.000,0.00,0.00,-179.05,10.000,10.000,10.000,10.000,2.384,0.500,0.160,0.000,0.000
2026-05-10 20:31:44.057269,RETURNING,1.563,1.000,0.00,0.00,-179.05,10.000,10.000,10.000,10.000,1.956,0.500,0.206,0.000,0.000
2026-05-10 20:31:45.632124,RETURNING,1.413,1.000,0.00,0.00,-179.05,10.000,10.000,10.000,10.000,1.012,0.337,0.400,0.000,0.000
2026-05-10 20:31:45.837944,RETURNING,1.288,1.000,0.00,0.00,-179.05,10.000,10.000,10.000,10.000,2.790,0.500,0.129,0.000,0.000
2026-05-10 20:31:46.033483,RETURNING,1.146,1.000,0.00,0.00,-179.05,10.000,10.000,10.000,10.000,10.000,0.500,0.000,0.000,0.000
2026-05-10 20:31:46.241438,RETURNING,1.030,1.000,0.00,0.00,-179.05,10.000,10.000,10.000,10.000,10.000,0.500,0.000,0.000,0.000
2026-05-10 20:31:46.430560,RETURNING,0.880,1.000,0.00,0.00,-179.05,10.000,10.000,10.000,10.000,10.000,0.500,0.000,0.000,0.000
2026-05-10 20:31:46.618848,RETURNING,0.780,1.000,0.00,0.00,-179.05,10.000,10.000,10.000,10.000,10.000,0.500,0.000,0.000,0.000
2026-05-10 20:31:46.837308,RETURNING,0.680,1.000,-0.00,0.00,179.50,10.000,10.000,10.000,10.000,10.000,0.500,0.000,0.000,0.000
2026-05-10 20:31:47.046311,RETURNING,0.580,1.000,-0.00,0.00,179.50,10.000,10.000,10.000,10.000,10.000,0.500,0.000,0.000,0.000
2026-05-10 20:31:47.271725,RETURNING,0.480,1.000,-0.00,0.00,179.50,10.000,10.000,10.000,10.000,10.000,0.500,0.000,0.000,0.000
2026-05-10 20:31:47.446058,RETURNING,0.380,1.000,-0.00,0.00,179.50,10.000,10.000,10.000,10.000,10.000,0.500,0.000,0.000,0.000
2026-05-10 20:31:47.704996,RETURNING,0.255,1.000,-0.00,0.00,179.50,10.000,10.000,10.000,10.000,10.000,0.500,0.000,0.000,0.000
2026-05-10 20:31:47.859190,RETURNING,0.155,1.000,-0.00,0.00,179.50,10.000,10.000,10.000,10.000,10.000,0.500,0.000,0.000,0.000
2026-05-10 20:31:48.071856,COMPLETED,0.055,1.000,-0.00,0.00,179.50,10.000,2.179,10.000,10.000,10.000,0.000,0.000,0.000,0.000
2026-05-10 20:31:48.234959,COMPLETED,0.025,1.000,-0.00,0.00,179.50,10.000,10.000,10.000,10.000,10.000,0.000,0.000,0.000,0.000
2026-05-10 20:31:48.448861,COMPLETED,0.025,1.000,-0.00,0.00,179.50,10.000,10.000,10.000,10.000,10.000,0.000,0.000,0.000,0.000
2026-05-10 20:31:48.651761,COMPLETED,0.025,1.000,-0.00,0.00,179.50,10.000,10.000,10.000,10.000,10.000,0.000,0.000,0.000,0.000
2026-05-10 20:31:48.841707,COMPLETED,0.025,1.000,-0.00,0.00,179.50,10.000,10.000,10.000,10.000,10.000,0.000,0.000,0.000,0.000
2026-05-10 20:31:49.060916,COMPLETED,0.025,1.000,-0.00,0.00,179.50,10.000,10.000,10.000,10.000,10.000,0.000,0.000,0.000,0.000
2026-05-10 20:31:49.262555,COMPLETED,0.025,1.000,-0.00,0.00,179.50,10.000,10.000,10.000,10.000,10.000,0.000,0.000,0.000,0.000
2026-05-10 20:31:49.479370,COMPLETED,0.025,1.000,-0.00,0.00,179.50,10.000,10.000,10.000,10.000,10.000,0.000,0.000,0.000,0.000
2026-05-10 20:31:49.675435,COMPLETED,0.025,1.000,-0.00,0.00,179.50,10.000,10.000,10.000,10.000,10.000,0.000,0.000,0.000,0.000
2026-05-10 20:31:49.875573,COMPLETED,0.025,1.000,-0.00,0.00,179.50,10.000,10.000,10.000,10.000,10.000,0.000,0.000,0.000,0.000
2026-05-10 20:31:50.084886,COMPLETED,0.025,1.000,-0.00,0.00,179.50,10.000,10.000,10.000,10.000,10.000,0.000,0.000,0.000,0.000
2026-05-10 20:31:50.279539,COMPLETED,0.025,1.000,-0.00,0.00,179.50,10.000,10.000,10.000,10.000,10.000,0.000,0.000,0.000,0.000
2026-05-10 20:31:50.487653,COMPLETED,0.025,1.000,-0.00,0.00,179.50,10.000,10.000,10.000,10.000,10.000,0.000,0.000,0.000,0.000
2026-05-10 20:31:50.678516,COMPLETED,0.025,1.000,-0.00,0.00,179.50,10.000,10.000,10.000,10.000,10.000,0.000,0.000,0.000,0.000
2026-05-10 20:31:50.907571,COMPLETED,0.025,1.000,-0.00,0.00,179.50,10.000,10.000,10.000,10.000,10.000,0.000,0.000,0.000,0.000
2026-05-10 20:31:51.104508,COMPLETED,0.025,1.000,-0.00,0.00,179.50,10.000,10.000,10.000,10.000,10.000,0.000,0.000,0.000,0.000
2026-05-10 20:31:51.301911,COMPLETED,0.025,1.000,-0.00,0.00,179.50,10.000,10.000,10.000,10.000,10.000,0.000,0.000,0.000,0.000
2026-05-10 20:31:51.499571,COMPLETED,0.025,1.000,-0.00,0.00,179.50,10.000,10.000,10.000,10.000,10.000,0.000,0.000,0.000,0.000
2026-05-10 20:31:51.703838,COMPLETED,0.025,1.000,-0.00,0.00,179.50,10.000,10.000,10.000,10.000,10.000,0.000,0.000,0.000,0.000
2026-05-10 20:31:51.922313,COMPLETED,0.025,1.000,-0.00,0.00,179.50,10.000,10.000,10.000,10.000,10.000,0.000,0.000,0.000,0.000
2026-05-10 20:31:52.119856,COMPLETED,0.025,1.000,-0.00,0.00,179.50,10.000,10.000,10.000,10.000,10.000,0.000,0.000,0.000,0.000
2026-05-10 20:31:52.320747,COMPLETED,0.025,1.000,-0.00,0.00,179.50,10.000,10.000,10.000,10.000,10.000,0.000,0.000,0.000,0.000
2026-05-10 20:31:52.541002,COMPLETED,0.025,1.000,-0.00,0.00,179.50,10.000,10.000,10.000,10.000,10.000,0.000,0.000,0.000,0.000
2026-05-10 20:31:52.730122,COMPLETED,0.025,1.000,-0.00,0.00,179.50,10.000,10.000,10.000,10.000,10.000,0.000,0.000,0.000,0.000
2026-05-10 20:31:52.939756,COMPLETED,0.025,1.000,-0.00,0.00,179.50,10.000,10.000,10.000,10.000,10.000,0.000,0.000,0.000,0.000
2026-05-10 20:31:53.139571,COMPLETED,0.025,1.000,-0.00,0.00,179.50,10.000,10.000,10.000,10.000,10.000,0.000,0.000,0.000,0.000
2026-05-10 20:31:53.351118,COMPLETED,0.025,1.000,-0.00,0.00,179.50,10.000,10.000,10.000,10.000,10.000,0.000,0.000,0.000,0.000
2026-05-10 20:31:53.543181,COMPLETED,0.025,1.000,-0.00,0.00,179.50,10.000,10.000,10.000,10.000,10.000,0.000,0.000,0.000,0.000
2026-05-10 20:31:53.746458,COMPLETED,0.025,1.000,-0.00,0.00,179.50,10.000,10.000,10.000,10.000,10.000,0.000,0.000,0.000,0.000
2026-05-10 20:31:53.966620,COMPLETED,0.025,1.000,-0.00,0.00,179.50,10.000,10.000,10.000,10.000,10.000,0.000,0.000,0.000,0.000
2026-05-10 20:31:54.168266,COMPLETED,0.025,1.000,-0.00,0.00,179.50,10.000,10.000,10.000,10.000,10.000,0.000,0.000,0.000,0.000
2026-05-10 20:31:54.389565,COMPLETED,0.025,1.000,-0.00,0.00,179.50,10.000,10.000,10.000,10.000,10.000,0.000,0.000,0.000,0.000
2026-05-10 20:31:54.592182,COMPLETED,0.025,1.000,-0.00,0.00,179.50,10.000,10.000,10.000,10.000,10.000,0.000,0.000,0.000,0.000
2026-05-10 20:31:54.793244,COMPLETED,0.025,1.000,-0.00,0.00,179.50,10.000,10.000,10.000,10.000,10.000,0.000,0.000,0.000,0.000
2026-05-10 20:31:55.009603,COMPLETED,0.025,1.000,-0.00,0.00,179.50,10.000,10.000,10.000,10.000,10.000,0.000,0.000,0.000,0.000
2026-05-10 20:31:55.207639,COMPLETED,0.025,1.000,-0.00,0.00,179.50,10.000,10.000,10.000,10.000,10.000,0.000,0.000,0.000,0.000
2026-05-10 20:31:55.419143,COMPLETED,0.025,1.000,-0.00,0.00,179.50,10.000,10.000,10.000,10.000,10.000,0.000,0.000,0.000,0.000
2026-05-10 20:31:55.630512,COMPLETED,0.025,1.000,-0.00,0.00,179.50,10.000,10.000,10.000,10.000,10.000,0.000,0.000,0.000,0.000
2026-05-10 20:31:55.849158,COMPLETED,0.025,1.000,-0.00,0.00,179.50,10.000,10.000,10.000,10.000,10.000,0.000,0.000,0.000,0.000
2026-05-10 20:31:56.046603,COMPLETED,0.025,1.000,-0.00,0.00,179.50,10.000,10.000,10.000,10.000,10.000,0.000,0.000,0.000,0.000
