timestamp,state,x,y,z,roll_deg,pitch_deg,yaw_deg,dist_left,dist_center,dist_right,dist_top,dist_bottom,dtof_alert,collision_event,best_dir,max_space,cmd_vx,cmd_vz,cmd_yaw
22:57:04.322,SEARCHING,0.024,0.000,1.000,0.00,0.00,0.00,10.000,10.000,10.000,10.000,10.000,0,0,SEARCHING,0.000,0.526,0.000,0.000
22:57:04.524,SEARCHING,0.144,-0.000,1.000,0.00,0.00,-0.03,2.645,6.117,4.093,6.020,4.575,0,0,SEARCHING,0.000,0.734,0.019,-0.039
22:57:04.725,SEARCHING,0.236,-0.000,1.009,0.00,0.00,-0.77,1.285,5.282,3.031,5.262,2.952,0,0,SEARCHING,0.000,0.784,0.110,-0.215
22:57:04.926,SEARCHING,0.331,-0.003,1.033,0.00,0.00,-2.83,2.787,4.924,2.760,4.908,3.466,0,0,SEARCHING,0.000,0.796,0.119,-0.239
22:57:05.126,SEARCHING,0.426,-0.008,1.055,0.00,0.00,-3.43,6.282,4.620,2.638,4.636,3.268,0,0,SEARCHING,0.000,0.799,0.097,0.048
22:57:05.327,SEARCHING,0.522,-0.014,1.075,0.00,0.00,-2.67,6.562,4.582,2.654,4.583,3.457,0,0,SEARCHING,0.000,0.800,0.101,0.148
22:57:05.527,SEARCHING,0.618,-0.017,1.095,0.00,0.00,-1.56,6.502,4.653,2.750,4.696,3.312,0,0,SEARCHING,0.000,0.800,0.097,0.167
22:57:05.727,SEARCHING,0.714,-0.019,1.113,0.00,0.00,-0.42,6.373,4.784,2.914,4.737,3.617,0,0,SEARCHING,0.000,0.800,0.083,0.159
22:57:05.928,SEARCHING,0.810,-0.019,1.130,0.00,0.00,0.62,6.349,4.813,3.062,4.815,3.566,0,0,SEARCHING,0.000,0.800,0.088,0.144
22:57:06.129,SEARCHING,0.906,-0.017,1.148,0.00,0.00,1.58,6.155,4.794,3.048,4.817,3.563,0,0,SEARCHING,0.000,0.800,0.094,0.135
22:57:06.329,SEARCHING,1.002,-0.014,1.167,0.00,0.00,2.50,5.999,4.814,2.944,4.885,3.452,0,0,SEARCHING,0.000,0.800,0.093,0.136
22:57:06.529,SEARCHING,1.098,-0.009,1.187,0.00,0.00,3.45,5.831,4.935,2.878,4.951,3.743,0,0,SEARCHING,0.000,0.800,0.101,0.139
22:57:06.730,SEARCHING,1.194,-0.003,1.206,0.00,0.00,4.40,5.561,4.981,2.875,5.028,3.548,0,0,SEARCHING,0.000,0.800,0.097,0.137
22:57:06.930,SEARCHING,1.289,0.005,1.227,0.00,0.00,5.33,5.335,5.065,2.912,5.078,3.592,0,0,SEARCHING,0.000,0.800,0.108,0.131
22:57:07.131,SEARCHING,1.385,0.015,1.248,0.00,0.00,6.21,5.165,5.212,2.942,5.178,3.739,0,0,SEARCHING,0.000,0.800,0.106,0.123
22:57:07.331,SEARCHING,1.480,0.026,1.268,0.00,0.00,7.03,5.061,5.392,2.993,5.198,3.670,0,0,SEARCHING,0.000,0.800,0.093,0.115
22:57:07.532,SEARCHING,1.575,0.038,1.286,0.00,0.00,7.79,4.942,5.691,3.038,5.213,3.603,0,0,SEARCHING,0.000,0.800,0.089,0.107
22:57:07.733,SEARCHING,1.670,0.051,1.305,0.00,0.00,8.51,4.890,5.964,3.063,5.150,3.471,0,0,SEARCHING,0.000,0.800,0.107,0.102
22:57:07.934,SEARCHING,1.765,0.066,1.327,0.00,0.00,9.19,4.782,6.202,3.131,5.207,4.416,0,0,SEARCHING,0.000,0.800,0.074,0.094
22:57:08.134,SEARCHING,1.860,0.082,1.337,0.00,0.00,9.81,4.705,6.338,3.184,5.240,3.817,0,0,SEARCHING,0.000,0.800,0.043,0.086
22:57:08.336,SEARCHING,1.955,0.099,1.347,0.00,0.00,10.38,4.674,6.354,3.287,5.359,5.048,0,0,SEARCHING,0.000,0.800,0.039,0.078
22:57:08.539,SEARCHING,2.049,0.116,1.354,0.00,0.00,10.89,4.588,6.204,3.325,5.302,4.152,0,0,SEARCHING,0.000,0.800,0.046,0.070
22:57:08.741,SEARCHING,2.143,0.135,1.364,0.00,0.00,11.35,4.503,6.068,3.305,5.323,4.025,0,0,SEARCHING,0.000,0.800,0.059,0.066
22:57:08.940,SEARCHING,2.237,0.154,1.374,0.00,0.00,11.80,4.450,5.958,3.307,5.285,4.066,0,0,SEARCHING,0.000,0.800,0.042,0.064
22:57:09.141,SEARCHING,2.331,0.174,1.384,0.00,0.00,12.23,4.343,5.886,3.276,5.272,4.067,0,0,SEARCHING,0.000,0.800,0.058,0.061
22:57:09.342,SEARCHING,2.425,0.195,1.396,0.00,0.00,12.65,4.260,5.817,3.290,5.254,3.910,0,0,SEARCHING,0.000,0.800,0.065,0.059
22:57:09.542,SEARCHING,2.518,0.216,1.410,0.00,0.00,13.04,4.206,5.739,3.260,5.182,3.684,0,0,SEARCHING,0.000,0.800,0.081,0.056
22:57:09.743,SEARCHING,2.612,0.238,1.426,0.00,0.00,13.42,4.119,5.723,3.230,5.139,4.494,0,0,SEARCHING,0.000,0.800,0.057,0.054
22:57:09.944,SEARCHING,2.705,0.260,1.438,0.00,0.00,13.78,4.039,5.690,3.241,5.097,3.771,0,0,SEARCHING,0.000,0.800,0.078,0.051
22:57:10.145,SEARCHING,2.798,0.283,1.453,0.00,0.00,14.12,3.945,5.681,3.251,5.116,4.024,0,0,SEARCHING,0.000,0.800,0.073,0.047
22:57:10.345,SEARCHING,2.891,0.307,1.467,0.00,0.00,14.42,3.867,5.760,3.257,5.106,3.916,0,0,SEARCHING,0.000,0.800,0.065,0.042
22:57:10.546,SEARCHING,2.984,0.331,1.480,0.00,0.00,14.70,3.820,5.880,3.238,5.087,3.955,0,0,SEARCHING,0.000,0.800,0.068,0.038
22:57:10.746,SEARCHING,3.077,0.356,1.492,0.00,0.00,14.96,3.759,5.989,3.235,5.054,4.212,0,0,SEARCHING,0.000,0.800,0.023,0.037
22:57:10.946,SEARCHING,3.170,0.381,1.497,0.00,0.00,15.19,3.699,6.029,3.235,5.019,4.342,0,0,SEARCHING,0.000,0.800,0.026,0.032
22:57:11.145,SEARCHING,3.263,0.406,1.500,0.00,0.00,15.41,3.656,6.046,3.244,4.985,4.098,0,0,SEARCHING,0.000,0.800,0.022,0.029
22:57:11.343,SEARCHING,3.355,0.431,1.505,0.00,0.00,15.60,3.600,5.967,3.210,4.942,4.074,0,0,SEARCHING,0.000,0.800,0.026,0.027
22:57:11.543,SEARCHING,3.447,0.457,1.511,0.00,0.00,15.78,3.597,5.914,3.301,4.882,4.000,0,0,SEARCHING,0.000,0.800,0.046,0.024
22:57:11.744,SEARCHING,3.540,0.484,1.521,0.00,0.00,15.91,3.557,5.820,3.437,4.924,4.081,0,0,SEARCHING,0.000,0.800,0.050,0.013
22:57:11.945,SEARCHING,3.632,0.510,1.530,0.00,0.00,15.98,3.536,5.847,3.423,4.883,4.131,0,0,SEARCHING,0.000,0.800,0.017,0.008
22:57:12.145,SEARCHING,3.755,0.545,1.531,0.00,0.00,16.02,3.506,5.802,3.808,4.870,4.111,0,0,SEARCHING,0.000,0.800,0.004,-0.007
22:57:12.346,SEARCHING,3.909,0.589,1.531,0.00,0.00,15.90,3.488,5.631,3.970,4.869,4.116,0,0,SEARCHING,0.000,0.800,0.001,-0.020
22:57:12.546,SEARCHING,4.063,0.633,1.531,0.00,0.00,15.65,3.469,5.470,3.962,4.868,4.177,0,0,SEARCHING,0.000,0.800,0.000,-0.027
22:57:12.746,SEARCHING,4.217,0.676,1.531,0.00,0.00,15.33,3.435,5.345,3.851,4.868,4.140,0,0,SEARCHING,0.000,0.800,0.000,-0.027
22:57:12.947,SEARCHING,4.372,0.718,1.531,0.00,0.00,15.03,3.395,5.136,3.702,4.779,4.149,0,0,SEARCHING,0.000,0.800,0.000,-0.023
22:57:13.148,SEARCHING,4.526,0.759,1.531,0.00,0.00,14.78,3.270,5.044,3.577,4.799,4.201,0,0,SEARCHING,0.000,0.800,0.000,-0.021
22:57:13.348,SEARCHING,4.681,0.799,1.531,0.00,0.00,14.54,3.072,4.881,3.460,4.771,4.187,0,0,SEARCHING,0.000,0.800,0.000,-0.025
22:57:13.548,SEARCHING,4.836,0.839,1.531,0.00,0.00,14.23,2.927,4.751,3.332,4.753,4.144,0,0,SEARCHING,0.000,0.800,0.000,-0.030
22:57:13.749,SEARCHING,4.991,0.878,1.531,0.00,0.00,13.88,2.801,4.632,3.154,4.652,4.089,0,0,SEARCHING,0.000,0.800,0.000,-0.032
22:57:13.949,SEARCHING,5.147,0.916,1.531,0.00,0.00,13.51,2.691,4.504,2.981,4.531,4.194,0,0,SEARCHING,0.000,0.800,0.000,-0.031
22:57:14.150,SEARCHING,5.302,0.953,1.531,0.00,0.00,13.17,2.652,4.417,2.858,4.435,4.101,0,0,SEARCHING,0.000,0.800,0.000,-0.026
22:57:14.350,SEARCHING,5.458,0.989,1.531,0.00,0.00,12.90,2.724,4.292,2.718,4.311,3.964,0,0,SEARCHING,0.000,0.800,0.000,-0.013
22:57:14.551,SEARCHING,5.614,1.025,1.531,0.00,0.00,12.81,2.822,4.136,2.544,4.172,4.017,0,0,SEARCHING,0.000,0.800,0.000,0.011
22:57:14.751,SEARCHING,5.770,1.060,1.531,0.00,0.00,13.03,2.900,4.032,2.394,4.044,3.942,0,0,SEARCHING,0.000,0.800,0.000,0.040
22:57:14.952,SEARCHING,5.926,1.097,1.531,0.00,0.00,13.56,2.895,3.948,2.231,3.933,3.931,0,0,SEARCHING,0.000,0.800,0.000,0.064
22:57:15.153,SEARCHING,6.081,1.135,1.531,0.00,0.00,14.37,2.862,3.942,2.097,3.920,3.933,0,0,SEARCHING,0.000,0.800,0.000,0.089
22:57:15.353,SEARCHING,6.236,1.176,1.531,0.00,0.00,15.42,2.773,4.053,2.093,4.009,3.979,0,0,SEARCHING,0.000,0.800,0.000,0.095
22:57:15.554,SEARCHING,6.390,1.220,1.531,0.00,0.00,16.50,2.682,4.158,2.114,4.162,4.032,0,0,SEARCHING,0.000,0.800,0.000,0.088
22:57:15.755,SEARCHING,6.543,1.267,1.531,0.00,0.00,17.46,2.571,4.286,2.158,4.337,4.016,0,0,SEARCHING,0.000,0.800,0.000,0.072
22:57:15.955,SEARCHING,6.695,1.316,1.531,0.00,0.00,18.24,2.519,4.359,2.182,4.389,3.997,0,0,SEARCHING,0.000,0.800,0.000,0.056
22:57:16.156,SEARCHING,6.847,1.367,1.531,0.00,0.00,18.85,2.495,4.332,2.204,4.332,4.137,0,0,SEARCHING,0.000,0.800,0.000,0.047
22:57:16.356,SEARCHING,6.998,1.419,1.531,0.00,0.00,19.37,2.527,4.295,2.241,4.295,4.098,0,0,SEARCHING,0.000,0.800,0.000,0.041
22:57:16.557,SEARCHING,7.149,1.473,1.531,0.00,0.00,19.86,2.677,4.198,2.267,4.209,4.104,0,0,SEARCHING,0.000,0.800,0.000,0.049
22:57:16.761,SEARCHING,7.299,1.528,1.531,0.00,0.00,20.45,2.771,4.142,2.254,4.162,4.062,0,0,SEARCHING,0.000,0.800,0.000,0.060
22:57:16.962,SEARCHING,7.449,1.584,1.531,0.00,0.00,21.17,2.762,4.158,2.235,4.151,3.936,0,0,SEARCHING,0.000,0.800,0.000,0.067
22:57:17.162,SEARCHING,7.597,1.643,1.531,0.00,0.00,21.93,2.716,4.183,2.222,4.137,4.031,0,0,SEARCHING,0.000,0.800,0.000,0.066
22:57:17.363,SEARCHING,7.745,1.704,1.531,0.00,0.00,22.68,2.660,4.169,2.255,4.093,4.024,0,0,SEARCHING,0.000,0.800,0.000,0.060
22:57:17.565,SEARCHING,7.893,1.766,1.531,0.00,0.00,23.34,2.608,4.188,2.280,4.018,4.015,0,0,SEARCHING,0.000,0.800,0.000,0.050
22:57:17.765,SEARCHING,8.039,1.830,1.531,0.00,0.00,23.89,2.540,4.164,2.269,3.652,4.014,0,0,SEARCHING,0.000,0.800,0.000,0.042
22:57:17.965,SEARCHING,8.185,1.896,1.531,0.00,0.00,24.35,2.469,4.115,2.289,3.657,4.027,0,0,SEARCHING,0.000,0.800,0.000,0.034
22:57:18.166,SEARCHING,8.331,1.962,1.531,0.00,0.00,24.69,2.568,4.064,2.285,3.451,3.737,0,0,SEARCHING,0.000,0.800,0.000,0.024
22:57:18.366,SEARCHING,8.476,2.029,1.531,0.00,0.00,25.07,2.956,3.917,2.307,3.465,3.845,0,0,SEARCHING,0.000,0.800,0.000,0.059
22:57:18.568,SEARCHING,8.592,2.084,1.529,0.00,0.00,25.65,3.022,5.339,2.324,3.110,3.466,0,0,SEARCHING,0.000,0.800,-0.018,0.073
22:57:18.769,SEARCHING,8.678,2.126,1.524,0.00,0.00,26.19,3.247,5.955,2.310,2.989,3.496,0,0,SEARCHING,0.000,0.800,-0.044,0.089
22:57:18.969,SEARCHING,8.764,2.169,1.517,0.00,0.00,26.84,3.227,6.390,2.271,2.938,3.725,0,0,SEARCHING,0.000,0.800,-0.042,0.099
22:57:19.167,SEARCHING,8.850,2.212,1.505,0.00,0.00,27.53,3.021,6.824,2.245,2.835,4.810,0,0,SEARCHING,0.000,0.800,-0.108,0.097
22:57:19.366,SEARCHING,8.935,2.257,1.479,0.00,0.00,28.18,2.954,6.860,2.242,2.723,4.055,0,0,SEARCHING,0.000,0.800,-0.148,0.090
22:57:19.566,SEARCHING,9.019,2.303,1.448,0.00,0.00,28.78,2.881,6.925,2.233,2.653,4.304,0,0,SEARCHING,0.000,0.800,-0.176,0.083
22:57:19.767,SEARCHING,9.103,2.349,1.414,0.00,0.00,29.33,2.843,6.933,2.247,2.599,4.257,0,0,SEARCHING,0.000,0.800,-0.164,0.078
22:57:19.968,SEARCHING,9.186,2.397,1.378,0.00,0.00,29.85,2.813,6.934,2.252,2.528,4.100,0,0,SEARCHING,0.000,0.800,-0.194,0.074
22:57:20.168,SEARCHING,9.270,2.445,1.338,0.00,0.00,30.35,4.291,6.924,2.270,2.432,4.282,0,0,SEARCHING,0.000,0.800,-0.217,0.099
22:57:20.369,SEARCHING,9.352,2.494,1.295,0.00,0.00,31.37,4.032,6.836,2.280,2.366,4.982,0,0,SEARCHING,0.000,0.800,-0.227,0.169
22:57:20.569,SEARCHING,9.434,2.544,1.247,0.00,0.00,32.37,2.764,6.844,2.314,2.217,4.672,0,0,SEARCHING,0.000,0.800,-0.266,0.106
22:57:20.770,SEARCHING,9.514,2.596,1.192,0.00,0.00,32.90,3.877,6.923,2.358,2.134,4.580,0,0,SEARCHING,0.000,0.800,-0.293,0.084
22:57:20.971,SEARCHING,9.595,2.649,1.132,0.00,0.00,33.64,6.949,6.973,2.388,2.111,4.755,0,0,SEARCHING,0.000,0.800,-0.313,0.147
22:57:21.171,SEARCHING,9.674,2.703,1.069,0.00,0.00,34.73,4.739,7.103,2.382,2.115,4.744,0,0,SEARCHING,0.000,0.800,-0.316,0.155
22:57:21.372,SEARCHING,9.753,2.758,1.014,0.00,0.00,35.66,2.865,7.320,3.941,5.589,4.976,0,0,SEARCHING,0.000,0.800,-0.127,0.056
22:57:21.572,SEARCHING,9.831,2.814,1.002,0.00,0.00,35.75,6.065,7.288,4.513,6.230,3.454,0,0,SEARCHING,0.000,0.800,0.068,0.020
22:57:23.025,SEARCHING,9.909,2.870,1.022,0.00,0.00,36.02,8.607,7.332,4.578,6.283,3.896,0,0,SEARCHING,0.000,0.800,0.124,0.062
22:57:23.035,SEARCHING,9.960,2.908,1.045,0.00,0.00,36.33,8.665,7.347,4.606,6.254,4.582,0,0,SEARCHING,0.000,0.800,0.088,0.077
22:57:23.132,SEARCHING,10.025,2.955,1.061,0.00,0.00,36.79,9.079,7.425,4.641,6.184,4.088,0,0,SEARCHING,0.000,0.800,0.083,0.081
22:57:23.318,SEARCHING,10.101,3.013,1.081,0.00,0.00,37.35,8.733,7.573,4.657,6.093,4.884,0,0,SEARCHING,0.000,0.800,0.088,0.081
22:57:23.517,SEARCHING,10.177,3.072,1.095,0.00,0.00,37.91,8.946,7.596,4.657,6.018,4.892,0,0,SEARCHING,0.000,0.800,0.040,0.083
22:57:23.717,SEARCHING,10.253,3.131,1.101,0.00,0.00,38.48,8.400,7.940,4.645,5.935,3.900,0,0,SEARCHING,0.000,0.800,0.041,0.082
22:57:23.918,SEARCHING,10.328,3.191,1.112,0.00,0.00,39.05,8.543,8.160,4.662,5.910,3.770,0,0,SEARCHING,0.000,0.800,0.081,0.081
22:57:24.118,SEARCHING,10.402,3.252,1.129,0.00,0.00,39.60,9.309,8.461,4.627,5.923,5.964,0,0,SEARCHING,0.000,0.800,0.057,0.084
22:57:24.320,SEARCHING,10.476,3.313,1.136,0.00,0.00,40.19,9.437,8.468,4.665,5.906,5.952,0,0,SEARCHING,0.000,0.800,0.014,0.086
22:57:24.520,SEARCHING,10.573,3.397,1.138,0.00,0.00,40.97,9.481,8.786,4.731,5.888,5.953,0,0,SEARCHING,0.000,0.800,0.003,0.084
22:57:24.722,SEARCHING,10.669,3.481,1.141,0.00,0.00,41.73,8.903,8.849,4.763,5.892,4.170,0,0,SEARCHING,0.000,0.800,0.059,0.080
22:57:24.922,SEARCHING,10.741,3.545,1.151,0.00,0.00,42.28,9.360,9.065,4.727,5.870,5.688,0,0,SEARCHING,0.000,0.800,0.023,0.082
22:57:25.126,SEARCHING,10.811,3.610,1.154,0.00,0.00,42.85,9.251,9.328,4.677,5.822,6.114,0,0,SEARCHING,0.000,0.800,0.005,0.084
22:57:25.328,SEARCHING,10.928,3.720,1.154,0.00,0.00,43.81,8.967,9.236,4.700,5.784,4.917,0,0,SEARCHING,0.000,0.800,0.001,0.082
22:57:25.528,SEARCHING,11.042,3.831,1.154,0.00,0.00,44.75,8.562,9.128,4.759,5.873,4.150,0,0,SEARCHING,0.000,0.800,0.026,0.079
22:57:25.729,SEARCHING,11.110,3.899,1.164,0.00,0.00,45.27,8.439,8.983,4.766,5.779,4.022,0,0,SEARCHING,0.000,0.800,0.082,0.075
22:57:25.929,SEARCHING,11.178,3.968,1.180,0.00,0.00,45.78,8.695,9.341,4.752,5.765,7.195,0,0,SEARCHING,0.000,0.800,0.057,0.075
22:57:26.130,SEARCHING,11.244,4.037,1.190,0.00,0.00,46.31,8.811,9.377,4.758,5.845,6.296,0,0,SEARCHING,0.000,0.800,0.033,0.077
22:57:26.330,SEARCHING,11.310,4.106,1.193,0.00,0.00,46.83,8.741,9.354,4.787,5.723,6.713,0,0,SEARCHING,0.000,0.800,-0.012,0.075
22:57:26.532,SEARCHING,11.376,4.177,1.189,0.00,0.00,47.34,8.286,9.196,4.879,5.801,5.272,0,0,SEARCHING,0.000,0.800,-0.021,0.071
22:57:26.731,SEARCHING,11.441,4.248,1.190,0.00,0.00,47.82,8.430,8.998,4.935,5.740,5.318,0,0,SEARCHING,0.000,0.800,0.031,0.068
22:57:26.932,SEARCHING,11.505,4.319,1.194,0.00,0.00,48.28,8.349,9.098,5.118,5.745,4.160,0,0,SEARCHING,0.000,0.800,0.031,0.065
22:57:27.133,SEARCHING,11.568,4.391,1.203,0.00,0.00,48.71,8.533,9.015,5.366,5.754,4.694,0,0,SEARCHING,0.000,0.800,0.039,0.060
22:57:27.334,SEARCHING,11.632,4.463,1.211,0.00,0.00,49.10,8.358,9.083,5.834,5.790,4.986,0,0,SEARCHING,0.000,0.800,0.038,0.050
22:57:27.534,SEARCHING,11.694,4.536,1.216,0.00,0.00,49.40,8.452,8.913,6.274,5.640,4.270,0,0,SEARCHING,0.000,0.800,0.030,0.038
22:57:27.735,SEARCHING,11.757,4.609,1.222,0.00,0.00,49.65,8.532,8.842,6.216,5.640,4.845,0,0,SEARCHING,0.000,0.800,0.014,0.035
22:57:27.935,SEARCHING,11.819,4.682,1.228,0.00,0.00,49.89,8.076,8.656,6.200,5.679,4.557,0,0,SEARCHING,0.000,0.800,0.056,0.033
22:57:28.135,SEARCHING,11.880,4.756,1.237,0.00,0.00,50.10,7.991,8.784,6.086,5.579,5.242,0,0,SEARCHING,0.000,0.800,0.019,0.030
22:57:28.336,SEARCHING,11.962,4.854,1.239,0.00,0.00,50.36,7.069,8.544,6.005,5.571,3.909,0,0,SEARCHING,0.000,0.800,0.032,0.023
22:57:28.532,SEARCHING,12.023,4.928,1.246,0.00,0.00,50.53,7.827,8.483,5.964,5.573,4.519,0,0,SEARCHING,0.000,0.800,0.032,0.029
22:57:28.732,SEARCHING,12.084,5.002,1.251,0.00,0.00,50.74,7.061,8.454,5.952,5.551,4.931,0,0,SEARCHING,0.000,0.800,0.013,0.028
22:57:28.933,SEARCHING,12.165,5.101,1.253,0.00,0.00,50.97,7.460,8.158,6.013,5.603,5.574,0,0,SEARCHING,0.000,0.800,0.003,0.025
22:57:29.134,SEARCHING,12.266,5.226,1.253,0.00,0.00,51.26,7.226,8.007,6.021,5.537,5.020,0,0,SEARCHING,0.000,0.800,0.001,0.024
22:57:29.334,SEARCHING,12.366,5.351,1.253,0.00,0.00,51.54,7.524,7.933,5.975,5.573,5.655,0,0,SEARCHING,0.000,0.800,0.000,0.026
22:57:29.535,SEARCHING,12.465,5.476,1.253,0.00,0.00,51.84,7.339,7.909,5.914,5.550,5.712,0,0,SEARCHING,0.000,0.800,0.000,0.025
22:57:29.735,SEARCHING,12.544,5.577,1.255,0.00,0.00,52.06,7.440,7.754,5.946,5.498,3.578,0,0,SEARCHING,0.000,0.800,0.062,0.026
22:57:29.936,SEARCHING,12.603,5.653,1.269,0.00,0.00,52.24,7.320,7.642,5.909,5.484,4.360,0,0,SEARCHING,0.000,0.800,0.064,0.026
22:57:30.136,SEARCHING,12.661,5.729,1.282,0.00,0.00,52.42,7.374,7.412,5.974,5.485,4.053,0,0,SEARCHING,0.000,0.800,0.071,0.026
22:57:30.337,SEARCHING,12.720,5.805,1.294,0.00,0.00,52.59,7.380,7.354,6.099,5.456,4.252,0,0,SEARCHING,0.000,0.800,0.044,0.024
22:57:30.537,SEARCHING,12.778,5.881,1.305,0.00,0.00,52.76,7.263,7.378,6.206,5.458,4.832,0,0,SEARCHING,0.000,0.800,0.051,0.022
22:57:30.738,SEARCHING,12.836,5.958,1.312,0.00,0.00,52.89,7.233,7.177,6.300,5.432,4.461,0,0,SEARCHING,0.000,0.800,0.012,0.019
22:57:30.938,SEARCHING,12.913,6.060,1.313,0.00,0.00,53.05,7.126,7.170,6.349,5.443,4.579,0,0,SEARCHING,0.000,0.800,0.003,0.016
22:57:31.138,SEARCHING,13.009,6.188,1.313,0.00,0.00,53.23,6.983,7.056,6.433,5.378,5.005,0,0,SEARCHING,0.000,0.800,0.001,0.012
22:57:31.339,SEARCHING,13.105,6.316,1.313,0.00,0.00,53.36,6.940,6.948,6.498,5.322,4.545,0,0,SEARCHING,0.000,0.800,0.000,0.010
22:57:31.540,SEARCHING,13.181,6.419,1.315,0.00,0.00,53.45,6.862,6.781,6.514,5.359,3.616,0,0,SEARCHING,0.000,0.800,0.060,0.008
22:57:31.740,SEARCHING,13.238,6.496,1.330,0.00,0.00,53.50,6.832,6.678,6.417,5.386,3.367,0,0,SEARCHING,0.000,0.800,0.096,0.008
22:57:31.940,SEARCHING,13.295,6.573,1.347,0.00,0.00,53.55,6.876,6.473,6.217,5.320,4.799,0,0,SEARCHING,0.000,0.800,0.037,0.009
22:57:32.141,SEARCHING,13.352,6.651,1.352,0.00,0.00,53.62,6.790,6.370,6.327,5.336,4.480,0,0,SEARCHING,0.000,0.800,0.009,0.009
22:57:32.342,SEARCHING,13.428,6.754,1.355,0.00,0.00,53.70,6.737,6.345,6.335,5.361,3.639,0,0,SEARCHING,0.000,0.800,0.065,0.008
22:57:32.544,SEARCHING,13.485,6.831,1.370,0.00,0.00,53.76,6.372,6.246,6.170,5.298,4.080,0,0,SEARCHING,0.000,0.800,0.077,0.007
22:57:32.743,SEARCHING,13.542,6.909,1.386,0.00,0.00,53.80,6.604,6.192,6.322,5.280,3.915,0,0,SEARCHING,0.000,0.800,0.082,0.005
22:57:32.943,SEARCHING,13.598,6.986,1.401,0.00,0.00,53.83,6.586,6.042,6.182,5.240,3.832,0,0,SEARCHING,0.000,0.800,0.074,0.006
22:57:33.144,SEARCHING,13.655,7.064,1.416,0.00,0.00,53.87,6.543,5.895,6.323,5.170,3.742,0,0,SEARCHING,0.000,0.800,0.083,0.005
22:57:33.344,SEARCHING,13.712,7.141,1.433,0.00,0.00,53.90,6.570,5.759,6.352,5.156,3.984,0,0,SEARCHING,0.000,0.800,0.075,0.004
22:57:33.545,SEARCHING,13.768,7.219,1.448,0.00,0.00,53.93,6.473,5.619,6.356,5.032,3.904,0,0,SEARCHING,0.000,0.800,0.074,0.003
22:57:33.745,SEARCHING,13.825,7.296,1.463,0.00,0.00,53.95,6.394,5.585,6.308,5.029,4.002,0,0,SEARCHING,0.000,0.800,0.077,0.003
22:57:33.946,SEARCHING,13.881,7.374,1.478,0.00,0.00,53.97,6.412,5.480,6.304,5.031,4.424,0,0,SEARCHING,0.000,0.800,0.046,0.003
22:57:34.147,SEARCHING,13.938,7.452,1.484,0.00,0.00,53.99,6.417,5.382,6.254,4.990,4.022,0,0,SEARCHING,0.000,0.800,0.028,0.002
22:57:34.347,SEARCHING,13.994,7.529,1.492,0.00,0.00,54.01,6.581,5.328,6.293,5.002,4.408,0,0,SEARCHING,0.000,0.800,0.037,0.004
22:57:34.549,SEARCHING,14.050,7.607,1.497,0.00,0.00,54.04,6.423,5.224,6.231,4.892,4.126,0,0,SEARCHING,0.000,0.800,0.009,0.005
22:57:34.753,SEARCHING,14.144,7.737,1.497,0.00,0.00,54.09,6.555,5.107,6.121,4.890,4.023,0,0,SEARCHING,0.000,0.800,0.018,0.006
22:57:34.954,SEARCHING,14.201,7.814,1.502,0.00,0.00,54.14,6.430,5.015,6.049,4.891,4.055,0,0,SEARCHING,0.000,0.800,0.044,0.007
22:57:35.154,SEARCHING,14.257,7.892,1.510,0.00,0.00,54.19,6.485,4.953,5.947,4.848,4.085,0,0,SEARCHING,0.000,0.800,0.016,0.009
22:57:35.355,SEARCHING,14.313,7.970,1.514,0.00,0.00,54.26,6.165,4.817,6.063,4.821,4.101,0,0,SEARCHING,0.000,0.800,0.022,0.007
22:57:35.555,SEARCHING,14.369,8.048,1.517,0.00,0.00,54.27,5.616,4.744,5.974,4.797,4.121,0,0,SEARCHING,0.000,0.800,0.005,-0.003
22:57:35.755,SEARCHING,14.462,8.178,1.517,0.00,0.00,54.22,5.400,4.621,5.855,4.635,4.173,0,0,SEARCHING,0.000,0.800,0.001,-0.008
22:57:35.958,SEARCHING,14.556,8.308,1.517,0.00,0.00,54.12,5.134,4.463,5.761,4.524,4.244,0,0,SEARCHING,0.000,0.800,0.000,-0.013
22:57:36.158,SEARCHING,14.650,8.437,1.517,0.00,0.00,53.95,4.966,4.282,5.541,4.320,4.063,0,0,SEARCHING,0.000,0.800,0.000,-0.016
22:57:36.358,SEARCHING,14.744,8.566,1.517,0.00,0.00,53.76,4.554,4.126,5.367,4.196,4.033,0,0,SEARCHING,0.000,0.800,0.000,-0.021
22:57:36.554,SEARCHING,14.839,8.695,1.517,0.00,0.00,53.50,4.274,3.957,5.235,4.025,3.946,0,0,SEARCHING,0.000,0.800,0.000,-0.029
22:57:36.755,SEARCHING,14.935,8.824,1.517,0.00,0.00,53.14,4.043,3.791,5.085,3.828,3.762,0,0,SEARCHING,0.000,0.800,0.000,-0.036
22:57:36.955,SEARCHING,15.031,8.951,1.517,0.00,0.00,52.71,3.906,3.603,4.918,3.684,3.627,0,0,SEARCHING,0.000,0.800,0.000,-0.040
22:57:37.156,SEARCHING,15.128,9.078,1.517,0.00,0.00,52.24,3.606,3.355,4.808,3.504,3.503,0,0,SEARCHING,0.000,0.800,0.000,-0.048
22:57:37.357,SEARCHING,15.227,9.204,1.517,0.00,0.00,51.65,3.389,3.237,4.708,3.351,3.355,0,0,SEARCHING,0.000,0.800,0.000,-0.059
22:57:37.557,SEARCHING,15.327,9.329,1.517,0.00,0.00,50.94,3.193,3.046,4.576,3.221,3.189,0,0,SEARCHING,0.000,0.800,0.000,-0.069
22:57:37.757,SEARCHING,15.429,9.453,1.517,0.00,0.00,50.12,2.968,3.010,4.453,3.089,3.056,0,0,SEARCHING,0.000,0.800,0.000,-0.081
22:57:37.958,SEARCHING,15.532,9.575,1.517,0.00,0.00,49.16,2.819,2.858,4.343,2.969,2.937,0,0,SEARCHING,0.000,0.800,0.000,-0.092
22:57:38.158,SEARCHING,15.638,9.695,1.517,0.00,0.00,48.08,2.666,2.741,4.211,2.889,2.826,0,0,SEARCHING,0.000,0.800,0.000,-0.102
22:57:38.359,SEARCHING,15.746,9.813,1.517,0.00,0.00,46.86,2.484,6.134,4.112,4.199,3.106,0,0,SEARCHING,0.000,0.800,0.030,-0.116
22:57:38.559,SEARCHING,15.812,9.883,1.527,0.00,0.00,46.02,2.358,6.191,4.005,4.849,3.334,0,0,SEARCHING,0.000,0.800,0.090,-0.131
22:57:38.760,SEARCHING,15.879,9.951,1.547,0.00,0.00,45.08,2.247,5.952,3.922,4.824,3.250,0,0,SEARCHING,0.000,0.800,0.112,-0.143
22:57:38.962,SEARCHING,15.947,10.019,1.570,0.00,0.00,44.05,2.112,5.582,3.861,4.758,3.169,0,0,SEARCHING,0.000,0.800,0.122,-0.159
22:57:39.161,SEARCHING,16.017,10.085,1.595,0.00,0.00,42.90,2.014,5.282,3.787,4.766,3.103,0,0,SEARCHING,0.000,0.800,0.130,-0.176
22:57:39.361,SEARCHING,16.088,10.150,1.621,0.00,0.00,41.65,1.944,4.996,3.705,4.714,3.045,0,0,SEARCHING,0.000,0.800,0.136,-0.188
22:57:39.562,SEARCHING,16.160,10.213,1.649,0.00,0.00,40.33,1.891,4.770,3.644,4.612,2.961,0,0,SEARCHING,0.000,0.800,0.142,-0.198
22:57:39.762,SEARCHING,16.234,10.274,1.677,0.00,0.00,38.94,1.813,4.533,3.596,4.482,2.892,0,0,SEARCHING,0.000,0.800,0.145,-0.209
22:57:39.963,SEARCHING,16.309,10.334,1.707,0.00,0.00,37.91,8.024,4.337,3.547,4.294,2.837,0,0,SEARCHING,0.000,0.800,0.145,-0.022
22:57:40.164,SEARCHING,16.385,10.393,1.735,0.00,0.00,38.28,9.768,4.210,3.479,4.158,2.836,0,0,SEARCHING,0.000,0.800,0.140,0.103
22:57:40.364,SEARCHING,16.460,10.453,1.763,0.00,0.00,39.14,9.973,4.211,3.375,4.189,2.842,0,0,SEARCHING,0.000,0.800,0.137,0.141
22:57:40.564,SEARCHING,16.534,10.514,1.790,0.00,0.00,40.17,9.997,4.271,3.240,4.219,2.847,0,0,SEARCHING,0.000,0.800,0.137,0.158
22:57:40.765,SEARCHING,16.606,10.577,1.818,0.00,0.00,41.29,10.000,4.312,3.119,4.247,2.906,0,0,SEARCHING,0.000,0.800,0.135,0.170
22:57:40.966,SEARCHING,16.678,10.640,1.844,0.00,0.00,42.50,10.000,4.439,2.982,4.214,2.956,0,0,SEARCHING,0.000,0.800,0.126,0.181
22:57:41.167,SEARCHING,16.748,10.706,1.869,0.00,0.00,43.77,10.000,4.558,2.872,4.147,3.028,0,0,SEARCHING,0.000,0.800,0.116,0.191
22:57:41.368,SEARCHING,16.817,10.773,1.891,0.00,0.00,45.12,10.000,4.771,2.789,4.084,3.093,0,0,SEARCHING,0.000,0.800,0.102,0.201
22:57:41.568,SEARCHING,16.884,10.842,1.911,0.00,0.00,46.51,9.985,5.011,2.818,3.985,3.130,0,0,SEARCHING,0.000,0.800,0.089,0.204
22:57:41.768,SEARCHING,16.949,10.912,1.928,0.00,0.00,47.91,9.770,5.692,2.846,3.926,3.170,0,0,SEARCHING,0.000,0.800,0.079,0.202
22:57:41.968,SEARCHING,17.013,10.984,1.943,0.00,0.00,49.28,9.151,6.564,2.888,3.871,3.205,0,0,SEARCHING,0.000,0.800,0.071,0.195
22:57:42.169,SEARCHING,17.075,11.057,1.957,0.00,0.00,50.60,8.917,7.217,2.958,3.833,3.230,0,0,SEARCHING,0.000,0.800,0.063,0.187
22:57:42.369,SEARCHING,17.135,11.132,1.969,0.00,0.00,51.86,8.709,7.683,2.989,3.819,3.237,0,0,SEARCHING,0.000,0.800,0.059,0.180
22:57:42.571,SEARCHING,17.194,11.208,1.981,0.00,0.00,53.07,8.377,8.186,3.036,3.771,3.339,0,0,SEARCHING,0.000,0.800,0.038,0.172
22:57:42.771,SEARCHING,17.251,11.285,1.986,0.00,0.00,54.22,7.914,8.875,3.142,3.772,3.953,0,0,SEARCHING,0.000,0.800,0.009,0.162
22:57:42.976,SEARCHING,17.342,11.416,1.986,0.00,0.00,56.03,7.339,9.809,3.289,3.749,4.262,0,0,SEARCHING,0.000,0.800,0.002,0.146
22:57:43.176,SEARCHING,17.430,11.550,1.986,0.00,0.00,57.65,6.685,9.946,3.508,3.729,4.282,0,0,SEARCHING,0.000,0.800,0.001,0.124
22:57:43.377,SEARCHING,17.514,11.686,1.986,0.00,0.00,59.01,6.233,9.948,3.632,3.724,4.374,0,0,SEARCHING,0.000,0.800,0.000,0.104
22:57:43.577,SEARCHING,17.579,11.797,1.984,0.00,0.00,59.91,5.962,9.921,3.954,3.765,4.631,0,0,SEARCHING,0.000,0.800,-0.037,0.083
22:57:43.778,SEARCHING,17.627,11.880,1.975,0.00,0.00,60.42,5.852,9.777,4.309,3.734,4.724,0,0,SEARCHING,0.000,0.800,-0.060,0.062
22:57:43.979,SEARCHING,17.674,11.963,1.962,0.00,0.00,60.78,5.660,9.699,4.616,3.755,4.693,0,0,SEARCHING,0.000,0.800,-0.064,0.043
22:57:44.181,SEARCHING,17.721,12.047,1.949,0.00,0.00,61.04,5.632,9.535,4.737,3.772,4.604,0,0,SEARCHING,0.000,0.800,-0.061,0.032
22:57:44.380,SEARCHING,17.767,12.131,1.938,0.00,0.00,61.24,5.587,9.534,4.778,3.828,4.608,0,0,SEARCHING,0.000,0.800,-0.056,0.027
22:57:44.577,SEARCHING,17.813,12.216,1.927,0.00,0.00,61.41,5.488,9.415,4.871,3.856,4.580,0,0,SEARCHING,0.000,0.800,-0.038,0.022
22:57:44.778,SEARCHING,17.859,12.300,1.921,0.00,0.00,61.55,5.550,9.230,4.962,3.899,4.550,0,0,SEARCHING,0.000,0.800,-0.009,0.019
22:57:44.979,SEARCHING,17.935,12.441,1.921,0.00,0.00,61.75,5.571,9.138,5.105,3.905,4.540,0,0,SEARCHING,0.000,0.800,-0.002,0.015
22:57:45.178,SEARCHING,18.011,12.582,1.921,0.00,0.00,61.91,5.483,8.883,5.233,3.905,4.545,0,0,SEARCHING,0.000,0.800,-0.001,0.010
22:57:45.379,SEARCHING,18.086,12.723,1.921,0.00,0.00,62.02,5.569,8.810,5.275,3.922,4.705,0,0,SEARCHING,0.000,0.800,-0.015,0.008
22:57:45.580,SEARCHING,18.131,12.808,1.916,0.00,0.00,62.08,5.525,8.704,5.316,3.931,4.705,0,0,SEARCHING,0.000,0.800,-0.043,0.007
22:57:45.780,SEARCHING,18.176,12.893,1.909,0.00,0.00,62.12,5.507,8.675,5.312,3.958,4.669,0,0,SEARCHING,0.000,0.800,-0.016,0.006
22:57:45.981,SEARCHING,18.236,13.006,1.907,0.00,0.00,62.18,5.558,8.359,5.320,3.949,4.741,0,0,SEARCHING,0.000,0.800,-0.019,0.006
22:57:46.181,SEARCHING,18.280,13.091,1.902,0.00,0.00,62.22,5.569,8.461,5.296,3.984,4.750,0,0,SEARCHING,0.000,0.800,-0.028,0.006
22:57:46.382,SEARCHING,18.325,13.176,1.898,0.00,0.00,62.27,5.609,8.159,5.310,3.989,4.714,0,0,SEARCHING,0.000,0.800,-0.007,0.008
22:57:46.582,SEARCHING,18.400,13.317,1.898,0.00,0.00,62.35,5.647,8.129,5.315,3.992,4.714,0,0,SEARCHING,0.000,0.800,-0.002,0.008
22:57:46.782,SEARCHING,18.474,13.459,1.898,0.00,0.00,62.44,5.568,7.877,5.360,4.017,4.689,0,0,SEARCHING,0.000,0.800,-0.000,0.007
22:57:46.983,SEARCHING,18.548,13.601,1.898,0.00,0.00,62.52,5.792,7.736,5.370,4.030,4.672,0,0,SEARCHING,0.000,0.800,-0.000,0.009
22:57:47.184,SEARCHING,18.621,13.743,1.898,0.00,0.00,62.63,5.824,7.706,5.439,4.017,4.734,0,0,SEARCHING,0.000,0.800,-0.000,0.009
22:57:47.385,SEARCHING,18.695,13.885,1.898,0.00,0.00,62.74,5.985,7.468,5.447,4.010,4.751,0,0,SEARCHING,0.000,0.800,-0.000,0.011
22:57:47.586,SEARCHING,18.768,14.028,1.898,0.00,0.00,62.87,5.947,7.216,5.455,3.994,4.801,0,0,SEARCHING,0.000,0.800,-0.015,0.012
22:57:47.786,SEARCHING,18.812,14.113,1.895,0.00,0.00,62.95,5.927,7.158,5.449,4.010,4.776,0,0,SEARCHING,0.000,0.800,-0.009,0.012
22:57:47.985,SEARCHING,18.884,14.256,1.895,0.00,0.00,63.08,5.944,6.987,5.695,4.039,4.835,0,0,SEARCHING,0.000,0.800,-0.002,0.009
22:57:48.188,SEARCHING,18.957,14.398,1.895,0.00,0.00,63.17,5.989,6.775,5.967,3.996,4.819,0,0,SEARCHING,0.000,0.800,-0.016,0.004
22:57:48.386,SEARCHING,19.000,14.484,1.891,0.00,0.00,63.18,5.980,6.735,6.167,4.082,4.847,0,0,SEARCHING,0.000,0.800,-0.009,-0.001
22:57:48.587,SEARCHING,19.058,14.598,1.889,0.00,0.00,63.15,5.825,6.682,6.697,4.055,4.915,0,0,SEARCHING,0.000,0.800,-0.036,-0.011
22:57:48.787,SEARCHING,19.101,14.684,1.883,0.00,0.00,63.05,5.803,6.555,6.866,4.066,4.882,0,0,SEARCHING,0.000,0.800,-0.014,-0.018
22:57:48.988,SEARCHING,19.159,14.798,1.881,0.00,0.00,62.87,5.657,6.402,6.756,4.047,4.840,0,0,SEARCHING,0.000,0.800,-0.003,-0.022
22:57:49.189,SEARCHING,19.232,14.940,1.881,0.00,0.00,62.61,5.474,6.267,6.675,4.071,4.786,0,0,SEARCHING,0.000,0.800,-0.001,-0.024
22:57:49.389,SEARCHING,19.306,15.082,1.881,0.00,0.00,62.32,5.278,5.992,6.383,4.055,4.785,0,0,SEARCHING,0.000,0.800,-0.000,-0.026
22:57:49.590,SEARCHING,19.381,15.223,1.881,0.00,0.00,62.03,5.193,5.807,6.026,4.016,4.776,0,0,SEARCHING,0.000,0.800,-0.000,-0.024
22:57:49.791,SEARCHING,19.456,15.365,1.881,0.00,0.00,61.76,5.141,5.679,5.886,4.045,4.860,0,0,SEARCHING,0.000,0.800,-0.000,-0.021
22:57:49.991,SEARCHING,19.517,15.477,1.880,0.00,0.00,61.57,5.091,5.505,5.711,4.063,4.905,0,0,SEARCHING,0.000,0.800,-0.033,-0.020
22:57:50.192,SEARCHING,19.563,15.562,1.874,0.00,0.00,61.45,5.052,5.377,5.712,4.036,4.873,0,0,SEARCHING,0.000,0.800,-0.028,-0.018
22:57:50.392,SEARCHING,19.609,15.646,1.868,0.00,0.00,61.32,5.065,5.305,5.708,4.059,4.848,0,0,SEARCHING,0.000,0.800,-0.012,-0.018
22:57:50.593,SEARCHING,19.670,15.758,1.867,0.00,0.00,61.16,5.022,5.160,5.545,4.116,4.866,0,0,SEARCHING,0.000,0.800,-0.003,-0.017
22:57:50.793,SEARCHING,19.748,15.898,1.867,0.00,0.00,60.98,4.980,5.029,5.232,4.078,4.863,0,0,SEARCHING,0.000,0.800,-0.001,-0.012
22:57:50.994,SEARCHING,19.826,16.038,1.867,0.00,0.00,60.86,4.970,4.826,5.012,4.085,4.806,0,0,SEARCHING,0.000,0.800,-0.000,-0.006
22:57:51.197,SEARCHING,19.904,16.178,1.867,0.00,0.00,60.80,4.926,4.665,4.826,4.060,4.793,0,0,SEARCHING,0.000,0.800,-0.000,0.000
22:57:51.399,SEARCHING,19.982,16.317,1.867,0.00,0.00,60.81,4.883,4.565,4.737,4.089,4.759,0,0,SEARCHING,0.000,0.800,-0.000,0.003
22:57:51.599,SEARCHING,20.060,16.457,1.867,0.00,0.00,60.87,4.834,4.361,4.379,4.065,4.818,0,0,SEARCHING,0.000,0.800,-0.000,0.011
22:57:51.800,SEARCHING,20.137,16.597,1.867,0.00,0.00,61.02,4.775,4.222,4.203,4.021,4.821,0,0,SEARCHING,0.000,0.800,-0.000,0.019
22:57:52.000,SEARCHING,20.215,16.737,1.867,0.00,0.00,61.25,4.768,4.097,4.084,4.042,4.783,0,0,SEARCHING,0.000,0.800,-0.000,0.024
22:57:52.201,SEARCHING,20.276,16.849,1.866,0.00,0.00,61.49,4.728,3.977,3.939,3.965,4.822,0,0,SEARCHING,0.000,0.800,-0.035,0.030
22:57:52.402,SEARCHING,20.322,16.934,1.857,0.00,0.00,61.71,4.711,3.875,3.728,3.860,4.781,0,0,SEARCHING,0.000,0.800,-0.052,0.038
22:57:52.599,SEARCHING,20.367,17.018,1.846,0.00,0.00,62.00,4.675,3.768,3.588,3.773,4.779,0,0,SEARCHING,0.000,0.800,-0.062,0.047
22:57:52.799,SEARCHING,20.412,17.103,1.833,0.00,0.00,62.34,4.598,3.600,3.538,3.699,4.695,0,0,SEARCHING,0.000,0.800,-0.067,0.051
22:57:53.000,SEARCHING,20.456,17.188,1.820,0.00,0.00,62.70,4.551,3.539,3.492,3.588,4.684,0,0,SEARCHING,0.000,0.800,-0.073,0.052
22:57:53.200,SEARCHING,20.500,17.274,1.805,0.00,0.00,63.06,4.522,3.516,3.417,3.524,4.690,0,0,SEARCHING,0.000,0.800,-0.081,0.054
22:57:53.400,SEARCHING,20.543,17.360,1.788,0.00,0.00,63.44,4.453,3.635,3.325,3.425,4.644,0,0,SEARCHING,0.000,0.800,-0.087,0.057
22:57:53.601,SEARCHING,20.586,17.446,1.770,0.00,0.00,63.85,4.381,3.754,3.217,3.364,4.589,0,0,SEARCHING,0.000,0.800,-0.092,0.062
22:57:53.803,SEARCHING,20.628,17.532,1.752,0.00,0.00,64.30,4.308,7.056,2.990,3.285,4.559,0,0,SEARCHING,0.000,0.800,-0.098,0.072
22:57:54.002,SEARCHING,20.669,17.619,1.732,0.00,0.00,64.82,4.246,7.720,2.914,3.467,4.540,0,0,SEARCHING,0.000,0.800,-0.093,0.080
22:57:54.203,SEARCHING,20.710,17.706,1.717,0.00,0.00,65.39,4.188,7.871,2.845,4.313,4.467,0,0,SEARCHING,0.000,0.800,-0.031,0.087
22:57:54.403,SEARCHING,20.749,17.793,1.713,0.00,0.00,66.01,4.129,7.516,2.778,4.440,4.450,0,0,SEARCHING,0.000,0.800,-0.007,0.092
22:57:54.604,SEARCHING,20.813,17.940,1.713,0.00,0.00,67.07,3.929,7.312,2.598,4.457,4.438,0,0,SEARCHING,0.000,0.800,-0.002,0.098
22:57:54.804,SEARCHING,20.874,18.088,1.713,0.00,0.00,68.23,3.768,7.170,2.370,4.481,4.414,0,0,SEARCHING,0.000,0.800,-0.000,0.112
22:57:55.007,SEARCHING,20.932,18.237,1.713,0.00,0.00,69.56,3.616,6.785,2.268,4.472,4.384,0,0,SEARCHING,0.000,0.800,-0.000,0.125
22:57:55.206,SEARCHING,20.986,18.387,1.713,0.00,0.00,71.02,3.411,6.584,2.140,4.452,4.444,0,0,SEARCHING,0.000,0.800,-0.000,0.134
22:57:56.585,SEARCHING,21.037,18.539,1.713,0.00,0.00,72.57,3.387,6.416,2.119,4.470,4.448,0,0,SEARCHING,0.000,0.800,-0.000,0.139
22:57:56.618,SEARCHING,21.083,18.693,1.713,0.00,0.00,74.17,3.387,6.416,2.119,4.470,4.448,0,0,SEARCHING,0.000,0.800,-0.000,0.141
22:57:56.780,SEARCHING,21.124,18.847,1.713,0.00,0.00,75.30,2.974,6.192,7.374,4.473,4.409,0,0,SEARCHING,0.000,0.800,-0.000,-0.048
22:57:56.974,SEARCHING,21.166,19.002,1.713,0.00,0.00,74.40,2.917,5.888,7.695,4.686,4.401,0,0,SEARCHING,0.000,0.800,-0.000,-0.140
22:57:57.173,SEARCHING,21.211,19.155,1.713,0.00,0.00,72.71,3.053,5.702,7.561,4.682,4.400,0,0,SEARCHING,0.000,0.800,-0.000,-0.157
22:57:57.374,SEARCHING,21.260,19.307,1.713,0.00,0.00,70.93,3.181,5.617,7.211,4.685,4.310,0,0,SEARCHING,0.000,0.800,-0.000,-0.148
22:57:57.575,SEARCHING,21.315,19.458,1.713,0.00,0.00,69.26,3.301,5.706,7.093,4.558,4.223,0,0,SEARCHING,0.000,0.800,-0.000,-0.137
22:57:57.776,SEARCHING,21.373,19.607,1.713,0.00,0.00,67.73,3.550,5.848,6.902,4.504,4.423,0,0,SEARCHING,0.000,0.800,-0.000,-0.122
22:57:57.976,SEARCHING,21.435,19.754,1.713,0.00,0.00,66.38,3.752,5.966,6.750,4.426,4.479,0,0,SEARCHING,0.000,0.800,-0.000,-0.105
22:57:58.177,SEARCHING,21.501,19.900,1.713,0.00,0.00,65.22,4.012,6.135,6.692,4.429,4.486,0,0,SEARCHING,0.000,0.800,-0.000,-0.091
22:57:58.377,SEARCHING,21.569,20.045,1.713,0.00,0.00,64.24,4.443,6.069,6.565,4.412,4.487,0,0,SEARCHING,0.000,0.800,-0.000,-0.069
22:57:58.578,SEARCHING,21.640,20.188,1.713,0.00,0.00,63.48,4.366,5.987,6.389,4.427,4.487,0,0,SEARCHING,0.000,0.800,-0.000,-0.060
22:57:58.779,SEARCHING,21.712,20.331,1.713,0.00,0.00,62.79,4.224,5.972,6.249,4.486,4.487,0,0,SEARCHING,0.000,0.800,-0.000,-0.060
22:57:58.979,SEARCHING,21.786,20.473,1.713,0.00,0.00,62.09,4.002,5.866,6.143,4.426,4.487,0,0,SEARCHING,0.000,0.800,-0.000,-0.065
22:57:59.180,SEARCHING,21.861,20.614,1.713,0.00,0.00,61.32,3.845,5.845,6.056,4.479,4.487,0,0,SEARCHING,0.000,0.800,-0.000,-0.073
22:57:59.382,SEARCHING,21.939,20.754,1.713,0.00,0.00,60.47,3.707,5.865,5.908,4.522,4.487,0,0,SEARCHING,0.000,0.800,-0.000,-0.078
22:57:59.584,SEARCHING,22.019,20.892,1.713,0.00,0.00,59.57,3.711,5.836,5.776,4.500,4.456,0,0,SEARCHING,0.000,0.800,-0.000,-0.079
22:57:59.787,SEARCHING,22.101,21.030,1.713,0.00,0.00,58.67,3.720,5.984,5.621,4.488,4.474,0,0,SEARCHING,0.000,0.800,-0.000,-0.076
22:57:59.986,SEARCHING,22.185,21.166,1.713,0.00,0.00,57.82,3.711,6.184,5.475,4.418,4.485,0,0,SEARCHING,0.000,0.800,-0.000,-0.072
22:58:00.188,SEARCHING,22.271,21.301,1.713,0.00,0.00,57.00,3.702,6.362,5.352,4.430,4.486,0,0,SEARCHING,0.000,0.800,-0.000,-0.069
22:58:00.387,SEARCHING,22.359,21.434,1.713,0.00,0.00,56.23,3.727,6.321,5.239,4.404,4.487,0,0,SEARCHING,0.000,0.800,-0.000,-0.065
22:58:00.588,SEARCHING,22.449,21.567,1.713,0.00,0.00,55.50,3.748,6.209,5.109,4.427,4.487,0,0,SEARCHING,0.000,0.800,-0.000,-0.060
22:58:00.788,SEARCHING,22.540,21.698,1.713,0.00,0.00,54.83,3.766,6.052,4.996,4.467,4.487,0,0,SEARCHING,0.000,0.800,-0.000,-0.056
22:58:00.989,SEARCHING,22.633,21.829,1.713,0.00,0.00,54.21,3.815,5.864,4.853,4.472,4.487,0,0,SEARCHING,0.000,0.800,-0.000,-0.049
22:58:01.190,SEARCHING,22.727,21.958,1.713,0.00,0.00,53.66,3.713,5.706,4.748,4.605,4.448,0,0,SEARCHING,0.000,0.800,-0.000,-0.046
22:58:01.391,SEARCHING,22.822,22.087,1.713,0.00,0.00,53.13,3.620,5.508,4.631,4.645,4.406,0,0,SEARCHING,0.000,0.800,-0.000,-0.047
22:58:01.591,SEARCHING,22.919,22.214,1.713,0.00,0.00,52.58,3.581,5.391,4.515,4.629,4.401,0,0,SEARCHING,0.000,0.800,-0.000,-0.047
22:58:01.789,SEARCHING,23.017,22.341,1.713,0.00,0.00,52.05,3.546,5.167,4.370,4.554,4.388,0,0,SEARCHING,0.000,0.800,-0.000,-0.045
22:58:01.988,SEARCHING,23.116,22.467,1.713,0.00,0.00,51.54,3.525,5.018,4.274,4.504,4.455,0,0,SEARCHING,0.000,0.800,-0.000,-0.042
22:58:02.188,SEARCHING,23.216,22.591,1.713,0.00,0.00,51.07,3.499,4.840,4.140,4.413,4.497,0,0,SEARCHING,0.000,0.800,-0.000,-0.038
22:58:02.389,SEARCHING,23.317,22.716,1.713,0.00,0.00,50.64,3.486,4.712,3.994,4.441,4.488,0,0,SEARCHING,0.000,0.800,-0.000,-0.033
22:58:02.589,SEARCHING,23.418,22.839,1.713,0.00,0.00,50.28,3.456,4.551,3.867,4.405,4.487,0,0,SEARCHING,0.000,0.800,-0.000,-0.028
22:58:02.789,SEARCHING,23.521,22.962,1.713,0.00,0.00,49.98,3.430,4.438,3.719,4.382,4.417,0,0,SEARCHING,0.000,0.800,-0.000,-0.022
22:58:02.990,SEARCHING,23.624,23.084,1.713,0.00,0.00,49.75,3.426,4.295,3.579,4.272,4.281,0,0,SEARCHING,0.000,0.800,-0.000,-0.014
22:58:03.191,SEARCHING,23.728,23.206,1.713,0.00,0.00,49.60,3.338,4.158,3.483,4.155,4.156,0,0,SEARCHING,0.000,0.800,-0.000,-0.010
22:58:03.392,SEARCHING,23.831,23.328,1.713,0.00,0.00,49.49,3.254,4.014,3.394,3.985,4.019,0,0,SEARCHING,0.000,0.800,-0.000,-0.009
22:58:03.591,SEARCHING,23.936,23.449,1.713,0.00,0.00,49.38,3.328,3.855,3.283,3.848,3.846,0,0,SEARCHING,0.000,0.800,-0.000,-0.006
22:58:03.792,SEARCHING,24.040,23.571,1.713,0.00,0.00,49.37,3.554,3.700,3.142,3.695,3.722,0,0,SEARCHING,0.000,0.800,-0.000,0.014
22:58:03.993,SEARCHING,24.144,23.692,1.713,0.00,0.00,49.59,3.597,3.597,3.024,3.561,3.583,0,0,SEARCHING,0.000,0.800,-0.000,0.033
22:58:04.194,SEARCHING,24.247,23.815,1.713,0.00,0.00,50.00,3.479,3.455,2.887,3.454,3.457,0,0,SEARCHING,0.000,0.800,-0.000,0.043
22:58:04.394,SEARCHING,24.349,23.937,1.713,0.00,0.00,50.50,3.367,3.322,2.780,3.329,3.320,0,0,SEARCHING,0.000,0.800,-0.000,0.048
22:58:04.594,SEARCHING,24.451,24.061,1.713,0.00,0.00,51.06,3.203,3.194,2.681,3.191,3.178,0,0,SEARCHING,0.000,0.800,-0.000,0.049
22:58:04.795,SEARCHING,24.551,24.186,1.713,0.00,0.00,51.62,3.050,3.023,2.554,3.040,3.039,0,0,SEARCHING,0.000,0.800,-0.000,0.050
22:58:04.996,SEARCHING,24.649,24.312,1.713,0.00,0.00,52.20,2.893,2.892,2.437,2.901,2.905,0,0,SEARCHING,0.000,0.800,-0.000,0.051
22:58:05.196,SEARCHING,24.747,24.439,1.713,0.00,0.00,52.78,2.765,2.787,2.333,2.795,2.803,0,0,SEARCHING,0.000,0.800,-0.000,0.052
22:58:05.397,SEARCHING,24.843,24.567,1.713,0.00,0.00,53.39,2.643,2.669,2.226,2.683,2.682,0,0,SEARCHING,0.000,0.800,-0.000,0.055
22:58:05.597,SEARCHING,24.938,24.696,1.713,0.00,0.00,54.02,2.470,2.542,2.104,2.555,2.552,0,0,SEARCHING,0.000,0.800,-0.000,0.056
22:58:05.799,SEARCHING,25.031,24.826,1.713,0.00,0.00,54.66,2.329,2.420,1.996,2.423,2.412,0,0,SEARCHING,0.000,0.800,-0.000,0.056
22:58:05.998,SEARCHING,25.123,24.957,1.713,0.00,0.00,55.31,2.187,2.314,1.884,2.310,2.307,0,0,SEARCHING,0.000,0.800,-0.000,0.058
22:58:06.199,SEARCHING,25.214,25.089,1.713,0.00,0.00,55.98,2.039,2.183,1.771,2.176,2.181,0,0,SEARCHING,0.000,0.800,-0.000,0.059
22:58:06.400,SEARCHING,25.302,25.222,1.713,0.00,0.00,56.65,1.895,2.052,1.664,2.053,2.052,0,0,SEARCHING,0.000,0.794,-0.000,0.059
22:58:06.601,SEARCHING,25.388,25.353,1.713,0.00,0.00,57.33,1.721,1.908,1.539,1.903,1.913,0,0,SEARCHING,0.000,0.735,-0.000,0.057
22:58:06.801,SEARCHING,25.464,25.474,1.713,0.00,0.00,57.98,1.605,1.809,1.455,1.809,1.809,0,0,SEARCHING,0.000,0.657,-0.000,0.054
22:58:07.002,SEARCHING,25.531,25.582,1.713,0.00,0.00,58.59,1.496,1.705,1.365,1.701,1.701,0,0,SEARCHING,0.000,0.583,-0.000,0.052
22:58:07.202,SEARCHING,25.590,25.679,1.713,0.00,0.00,59.18,1.414,1.609,1.286,1.606,1.606,0,0,SEARCHING,0.000,0.517,-0.000,0.054
22:58:07.402,SEARCHING,25.641,25.765,1.713,0.00,0.00,59.82,1.340,1.526,1.217,1.526,1.524,0,0,SEARCHING,0.000,0.463,-0.000,0.058
22:58:07.603,SEARCHING,25.686,25.843,1.713,0.00,0.00,60.49,1.278,1.452,1.158,1.450,1.451,0,0,SEARCHING,0.000,0.415,-0.000,0.061
22:58:07.803,SEARCHING,25.725,25.914,1.713,0.00,0.00,61.21,1.213,1.395,1.101,1.394,1.398,0,0,SEARCHING,0.000,0.379,-0.000,0.066
22:58:08.005,SEARCHING,25.760,25.979,1.713,0.00,0.00,61.97,1.159,1.341,1.054,1.342,1.343,0,0,SEARCHING,0.000,0.349,-0.000,0.067
22:58:08.205,SEARCHING,25.792,26.040,1.713,0.00,0.00,62.74,1.104,1.295,1.013,1.296,1.296,0,0,SEARCHING,0.000,0.323,-0.000,0.066
22:58:08.405,SEARCHING,25.821,26.096,1.713,0.00,0.00,63.49,1.053,1.254,0.973,1.253,1.249,0,0,SEARCHING,0.000,0.301,-0.000,0.065
22:58:08.605,SEARCHING,25.847,26.149,1.713,0.00,0.00,64.22,1.001,1.209,0.930,1.204,1.208,0,0,SEARCHING,0.000,0.281,-0.000,0.061
22:58:08.806,SEARCHING,25.871,26.199,1.713,0.00,0.00,64.92,0.966,1.179,0.904,1.178,1.177,0,0,SEARCHING,0.000,0.264,-0.000,0.059
22:58:09.009,SEARCHING,25.893,26.247,1.713,0.00,0.00,65.58,0.928,1.143,0.875,1.146,1.146,0,0,SEARCHING,0.000,0.254,-0.000,0.055
22:58:09.211,SEARCHING,25.913,26.293,1.713,0.00,0.00,66.19,0.889,1.112,0.849,1.109,1.114,0,0,SEARCHING,0.000,0.251,-0.000,0.048
22:58:09.412,SEARCHING,25.933,26.339,1.713,0.00,0.00,66.72,0.852,1.073,0.820,1.072,1.077,0,0,SEARCHING,0.000,0.250,-0.000,0.041
22:58:09.612,SEARCHING,25.953,26.385,1.713,0.00,0.00,67.18,0.815,1.026,0.791,1.024,1.028,0,0,SEARCHING,0.000,0.250,-0.000,0.035
22:58:09.811,SEARCHING,25.972,26.431,1.713,0.00,0.00,67.56,0.778,0.978,0.763,0.975,0.978,0,0,SEARCHING,0.000,0.250,-0.000,0.027
22:58:10.011,SEARCHING,25.991,26.477,1.713,0.00,0.00,67.84,0.737,0.922,0.729,0.922,0.925,0,0,SEARCHING,0.000,0.250,-0.000,0.019
22:58:10.211,SEARCHING,26.010,26.523,1.713,0.00,0.00,68.03,0.708,0.884,0.704,0.883,0.887,0,0,SEARCHING,0.000,0.250,-0.000,0.010
22:58:10.412,SEARCHING,26.029,26.570,1.713,0.00,0.00,68.13,0.671,0.838,0.674,0.838,0.840,0,0,SEARCHING,0.000,0.250,-0.000,0.003
22:58:10.676,INSPECTING,26.047,26.616,1.713,0.00,0.00,68.14,0.637,0.793,0.641,0.795,0.795,0,0,SEARCHING,0.000,0.175,-0.000,-0.004
22:58:10.814,INSPECTING,26.051,26.625,1.736,0.00,0.00,68.13,0.618,0.769,0.624,0.770,0.770,0,0,INSPECT_TOP,0.000,0.160,0.304,-0.001
22:58:11.013,INSPECTING,26.058,26.643,1.803,0.00,0.00,68.13,0.606,0.756,0.615,0.755,0.756,0,0,INSPECT_TOP,0.000,0.154,0.377,-0.000
22:58:11.215,INSPECTING,26.065,26.660,1.880,0.00,0.00,68.13,0.593,0.740,0.607,0.739,0.739,0,0,INSPECT_TOP,0.000,0.150,0.394,-0.000
22:58:11.415,INSPECTING,26.071,26.676,1.959,0.00,0.00,68.13,0.582,0.725,0.594,0.726,0.724,0,0,INSPECT_TOP,0.000,0.147,0.399,-0.000
22:58:11.617,INSPECTING,26.078,26.692,2.039,0.00,0.00,68.13,0.569,0.709,0.582,0.708,0.708,0,0,INSPECT_TOP,0.000,0.144,0.400,-0.000
22:58:11.817,INSPECTING,26.084,26.708,2.119,0.00,0.00,68.13,0.554,0.691,0.567,0.690,0.692,0,0,INSPECT_TOP,0.000,0.140,0.400,-0.000
22:58:12.016,INSPECTING,26.090,26.724,2.199,0.00,0.00,68.13,0.544,0.676,0.559,0.677,0.679,0,0,INSPECT_TOP,0.000,0.137,0.400,-0.000
22:58:12.217,INSPECTING,26.097,26.739,2.279,0.00,0.00,68.13,0.533,0.662,0.549,0.663,0.664,0,0,INSPECT_TOP,0.000,0.135,0.400,-0.000
22:58:12.417,INSPECTING,26.102,26.754,2.359,0.00,0.00,68.13,0.522,0.648,0.542,0.649,0.649,0,0,INSPECT_TOP,0.000,0.132,0.400,-0.000
22:58:12.619,INSPECTING,26.108,26.768,2.439,0.00,0.00,68.13,0.511,0.636,0.532,0.635,0.636,0,0,INSPECT_TOP,0.000,0.129,0.400,-0.000
22:58:12.819,INSPECTING,26.114,26.783,2.519,0.00,0.00,68.13,0.500,0.622,0.521,0.622,0.622,0,0,INSPECT_TOP,0.000,0.126,0.400,-0.000
22:58:13.020,INSPECTING,26.120,26.796,2.599,0.00,0.00,68.13,0.488,0.609,0.510,0.609,0.609,0,0,INSPECT_TOP,0.000,0.124,0.400,-0.000
22:58:13.220,INSPECTING,26.125,26.810,2.679,0.00,0.00,68.13,0.478,0.596,0.499,0.595,0.596,0,0,INSPECT_TOP,0.000,0.121,0.400,-0.000
22:58:13.420,INSPECTING,26.130,26.823,2.759,0.00,0.00,68.13,0.468,0.583,0.489,0.582,0.583,0,0,INSPECT_TOP,0.000,0.118,0.400,-0.000
22:58:13.621,INSPECTING,26.136,26.836,2.839,0.00,0.00,68.13,0.458,0.569,0.483,0.569,0.571,0,0,INSPECT_TOP,0.000,0.116,0.400,-0.000
22:58:13.822,INSPECTING,26.141,26.849,2.919,0.00,0.00,68.13,0.447,0.558,0.475,0.559,0.558,0,0,INSPECT_TOP,0.000,0.113,0.400,-0.000
22:58:14.023,INSPECTING,26.146,26.862,2.999,0.00,0.00,68.13,0.439,0.546,0.468,0.547,0.544,0,0,INSPECT_TOP,0.000,0.111,0.400,-0.000
22:58:14.223,INSPECTING,26.151,26.874,3.079,0.00,0.00,68.13,0.429,0.537,0.613,0.537,0.536,0,0,INSPECT_TOP,0.000,0.109,0.400,-0.000
22:58:14.424,INSPECTING,26.156,26.887,3.146,0.00,0.00,67.25,0.421,0.526,0.686,0.526,0.526,0,0,INSPECT_RIGHT,0.000,0.126,0.137,-0.329
22:58:14.623,INSPECTING,26.162,26.901,3.164,0.00,0.00,64.43,0.415,0.523,0.710,0.522,0.521,0,0,INSPECT_RIGHT,0.000,0.137,0.033,-0.459
22:58:14.824,INSPECTING,26.170,26.916,3.168,0.00,0.00,61.14,0.414,0.532,0.746,0.533,0.532,0,0,INSPECT_RIGHT,0.000,0.144,0.008,-0.490
22:58:15.025,INSPECTING,26.185,26.941,3.168,0.00,0.00,55.49,0.415,0.552,0.825,0.551,0.526,0,0,INSPECT_RIGHT,0.000,0.156,0.002,-0.498
22:58:15.226,INSPECTING,26.205,26.967,3.168,0.00,0.00,49.78,0.422,0.587,0.954,0.588,0.517,0,0,INSPECT_RIGHT,0.000,0.175,0.000,-0.499
22:58:15.427,INSPECTING,26.229,26.993,3.168,0.00,0.00,44.06,0.437,0.640,5.620,0.640,0.514,0,0,INSPECT_RIGHT,0.000,0.256,0.000,-0.500
22:58:15.627,INSPECTING,26.273,27.032,3.168,0.00,0.00,38.33,0.457,0.714,9.485,0.713,0.487,0,0,INSPECT_RIGHT,0.000,0.365,0.000,-0.500
22:58:15.827,INSPECTING,26.334,27.076,3.168,0.00,0.00,32.60,0.481,0.810,9.797,0.741,0.789,0,0,INSPECT_RIGHT,0.000,0.392,0.000,-0.500
22:58:16.028,SEARCHING,26.402,27.115,3.168,0.00,0.00,26.87,0.523,5.026,8.855,0.770,4.984,0,0,INSPECT_RIGHT,0.000,0.398,0.000,-0.500
22:58:16.229,SEARCHING,26.467,27.145,3.128,0.00,0.00,21.79,0.598,8.797,9.064,5.479,9.028,0,0,SEARCHING,0.000,0.703,-0.348,-0.880
22:58:16.430,SEARCHING,26.552,27.174,3.076,0.00,0.00,15.35,3.460,9.798,9.843,9.240,9.837,0,0,SEARCHING,0.000,0.777,-0.092,-0.716
22:58:16.630,SEARCHING,26.643,27.197,3.064,0.00,0.00,12.51,9.231,9.976,9.981,9.911,9.981,0,0,SEARCHING,0.000,0.794,-0.022,-0.197
22:58:16.831,SEARCHING,26.737,27.217,3.061,0.00,0.00,11.79,9.937,9.998,9.998,9.993,9.998,0,0,SEARCHING,0.000,0.799,-0.005,-0.049
22:58:17.032,SEARCHING,26.893,27.249,3.061,0.00,0.00,11.37,4.740,10.000,10.000,9.999,10.000,0,0,SEARCHING,0.000,0.800,-0.001,-0.038
22:58:17.233,SEARCHING,27.050,27.280,3.061,0.00,0.00,10.89,9.381,9.568,10.000,10.000,9.568,0,0,SEARCHING,0.000,0.800,-0.000,-0.030
22:58:17.435,SEARCHING,27.208,27.310,3.061,0.00,0.00,10.62,9.896,9.927,10.000,10.000,9.927,0,0,SEARCHING,0.000,0.800,-0.000,-0.009
22:58:17.636,SEARCHING,27.365,27.339,3.061,0.00,0.00,10.55,9.991,9.994,10.000,10.000,9.994,0,0,SEARCHING,0.000,0.800,-0.000,-0.002
22:58:17.834,SEARCHING,27.522,27.368,3.061,0.00,0.00,10.53,9.999,9.999,10.000,10.000,9.999,0,0,SEARCHING,0.000,0.800,-0.000,-0.001
22:58:18.035,SEARCHING,27.679,27.398,3.061,0.00,0.00,10.52,10.000,10.000,10.000,10.000,10.000,0,0,SEARCHING,0.000,0.800,-0.000,-0.000
22:58:18.235,SEARCHING,27.837,27.427,3.061,0.00,0.00,10.52,10.000,10.000,10.000,10.000,10.000,0,0,SEARCHING,0.000,0.800,-0.000,-0.000
22:58:18.435,SEARCHING,27.994,27.456,3.061,0.00,0.00,10.52,10.000,10.000,10.000,10.000,10.000,0,0,SEARCHING,0.000,0.800,-0.000,-0.000
22:58:18.635,SEARCHING,28.151,27.485,3.061,0.00,0.00,10.52,10.000,10.000,10.000,10.000,10.000,0,0,SEARCHING,0.000,0.800,-0.000,-0.000
22:58:18.835,SEARCHING,28.309,27.515,3.061,0.00,0.00,10.52,10.000,10.000,10.000,10.000,10.000,0,0,SEARCHING,0.000,0.800,-0.000,-0.000
22:58:19.036,SEARCHING,28.466,27.544,3.061,0.00,0.00,10.52,8.200,6.997,6.547,10.000,6.115,0,0,SEARCHING,0.000,0.800,0.023,0.007
22:58:19.236,SEARCHING,28.560,27.561,3.070,0.00,0.00,10.65,9.788,9.029,9.162,10.000,8.926,0,0,SEARCHING,0.000,0.800,0.048,0.019
22:58:19.437,SEARCHING,28.655,27.579,3.077,0.00,0.00,10.73,9.975,9.886,9.901,10.000,9.874,0,0,SEARCHING,0.000,0.800,0.012,0.006
22:58:19.637,SEARCHING,28.780,27.603,3.078,0.00,0.00,10.76,9.996,9.981,9.983,10.000,9.979,0,0,SEARCHING,0.000,0.800,0.003,0.002
22:58:19.838,SEARCHING,28.938,27.633,3.078,0.00,0.00,10.77,10.000,9.998,9.998,10.000,9.998,0,0,SEARCHING,0.000,0.800,0.001,0.000
22:58:20.039,SEARCHING,29.095,27.663,3.078,0.00,0.00,10.78,10.000,10.000,10.000,10.000,10.000,0,0,SEARCHING,0.000,0.800,0.000,0.000
22:58:20.240,SEARCHING,29.252,27.693,3.078,0.00,0.00,10.78,10.000,10.000,10.000,10.000,10.000,0,0,SEARCHING,0.000,0.800,0.000,0.000
22:58:20.440,SEARCHING,29.409,27.723,3.078,0.00,0.00,10.78,10.000,10.000,10.000,10.000,10.000,0,0,SEARCHING,0.000,0.800,0.000,0.000
22:58:20.641,SEARCHING,29.566,27.753,3.078,0.00,0.00,10.78,10.000,10.000,10.000,10.000,10.000,0,0,SEARCHING,0.000,0.800,0.000,0.000
22:58:20.840,SEARCHING,29.724,27.783,3.078,0.00,0.00,10.78,10.000,10.000,10.000,10.000,10.000,0,0,SEARCHING,0.000,0.800,0.000,0.000
22:58:21.042,SEARCHING,29.881,27.812,3.078,0.00,0.00,10.78,10.000,10.000,10.000,10.000,10.000,0,0,SEARCHING,0.000,0.800,0.000,0.000
22:58:21.241,SEARCHING,30.038,27.842,3.078,0.00,0.00,10.78,10.000,10.000,10.000,10.000,10.000,0,0,SEARCHING,0.000,0.800,0.000,0.000
22:58:21.442,SEARCHING,30.195,27.872,3.078,0.00,0.00,10.78,10.000,10.000,10.000,10.000,10.000,0,0,SEARCHING,0.000,0.800,0.000,0.000
22:58:21.643,SEARCHING,30.352,27.902,3.078,0.00,0.00,10.78,10.000,10.000,10.000,10.000,10.000,0,0,SEARCHING,0.000,0.800,0.000,0.000
22:58:21.843,SEARCHING,30.509,27.932,3.078,0.00,0.00,10.78,10.000,10.000,10.000,10.000,10.000,0,0,SEARCHING,0.000,0.800,0.000,0.000
22:58:22.044,SEARCHING,30.667,27.962,3.078,0.00,0.00,10.78,10.000,10.000,10.000,10.000,10.000,0,0,SEARCHING,0.000,0.800,0.000,0.000
22:58:22.246,SEARCHING,30.824,27.992,3.078,0.00,0.00,10.78,10.000,10.000,10.000,10.000,10.000,0,0,SEARCHING,0.000,0.800,0.000,0.000
22:58:22.446,SEARCHING,30.981,28.022,3.078,0.00,0.00,10.78,10.000,10.000,10.000,10.000,10.000,0,0,SEARCHING,0.000,0.800,0.000,0.000
22:58:22.646,SEARCHING,31.138,28.052,3.078,0.00,0.00,10.78,10.000,10.000,10.000,10.000,10.000,0,0,SEARCHING,0.000,0.800,0.000,0.000
22:58:22.846,SEARCHING,31.295,28.082,3.078,0.00,0.00,10.78,10.000,10.000,10.000,10.000,10.000,0,0,SEARCHING,0.000,0.800,0.000,0.000
22:58:23.046,SEARCHING,31.452,28.112,3.078,0.00,0.00,10.78,10.000,10.000,10.000,10.000,10.000,0,0,SEARCHING,0.000,0.800,0.000,0.000
22:58:23.247,SEARCHING,31.610,28.142,3.078,0.00,0.00,10.78,10.000,10.000,10.000,10.000,10.000,0,0,SEARCHING,0.000,0.800,0.000,0.000
22:58:23.448,SEARCHING,31.767,28.172,3.078,0.00,0.00,10.78,10.000,10.000,10.000,10.000,10.000,0,0,SEARCHING,0.000,0.800,0.000,0.000
22:58:23.647,SEARCHING,31.924,28.202,3.078,0.00,0.00,10.78,10.000,10.000,10.000,10.000,10.000,0,0,SEARCHING,0.000,0.800,0.000,0.000
22:58:23.849,SEARCHING,32.081,28.231,3.078,0.00,0.00,10.78,10.000,10.000,10.000,10.000,10.000,0,0,SEARCHING,0.000,0.800,0.000,0.000
22:58:24.048,SEARCHING,32.238,28.261,3.078,0.00,0.00,10.78,10.000,10.000,10.000,10.000,10.000,0,0,SEARCHING,0.000,0.800,0.000,0.000
22:58:24.249,SEARCHING,32.396,28.291,3.078,0.00,0.00,10.78,10.000,10.000,10.000,10.000,10.000,0,0,SEARCHING,0.000,0.800,0.000,0.000
22:58:24.450,SEARCHING,32.553,28.321,3.078,0.00,0.00,10.78,10.000,10.000,10.000,10.000,10.000,0,0,SEARCHING,0.000,0.800,0.000,0.000
22:58:24.650,SEARCHING,32.710,28.351,3.078,0.00,0.00,10.78,10.000,10.000,10.000,10.000,10.000,0,0,SEARCHING,0.000,0.800,0.000,0.000
22:58:24.851,SEARCHING,32.867,28.381,3.078,0.00,0.00,10.78,10.000,10.000,10.000,10.000,10.000,0,0,SEARCHING,0.000,0.800,0.000,0.000
22:58:25.051,SEARCHING,33.024,28.411,3.078,0.00,0.00,10.78,10.000,10.000,10.000,10.000,10.000,0,0,SEARCHING,0.000,0.800,0.000,0.000
22:58:25.251,SEARCHING,33.181,28.441,3.078,0.00,0.00,10.78,10.000,10.000,10.000,10.000,10.000,0,0,SEARCHING,0.000,0.800,0.000,0.000
22:58:25.454,SEARCHING,33.339,28.471,3.078,0.00,0.00,10.78,10.000,10.000,10.000,10.000,10.000,0,0,SEARCHING,0.000,0.800,0.000,0.000
22:58:25.656,SEARCHING,33.496,28.501,3.078,0.00,0.00,10.78,10.000,10.000,10.000,10.000,10.000,0,0,SEARCHING,0.000,0.800,0.000,0.000
22:58:25.855,SEARCHING,33.653,28.531,3.078,0.00,0.00,10.78,10.000,10.000,10.000,10.000,10.000,0,0,SEARCHING,0.000,0.800,0.000,0.000
22:58:26.055,SEARCHING,33.810,28.561,3.078,0.00,0.00,10.78,10.000,10.000,10.000,10.000,10.000,0,0,SEARCHING,0.000,0.800,0.000,0.000
22:58:26.255,SEARCHING,33.967,28.591,3.078,0.00,0.00,10.78,10.000,10.000,10.000,10.000,10.000,0,0,SEARCHING,0.000,0.800,0.000,0.000
22:58:26.456,SEARCHING,34.124,28.620,3.078,0.00,0.00,10.78,10.000,10.000,10.000,10.000,9.758,0,0,SEARCHING,0.000,0.800,0.000,0.000
22:58:26.657,SEARCHING,34.282,28.650,3.078,0.00,0.00,10.78,10.000,10.000,10.000,10.000,9.972,0,0,SEARCHING,0.000,0.800,0.000,0.000
22:58:26.856,SEARCHING,34.439,28.680,3.078,0.00,0.00,10.78,10.000,10.000,10.000,10.000,9.997,0,0,SEARCHING,0.000,0.800,0.000,0.000
22:58:27.058,SEARCHING,34.596,28.710,3.078,0.00,0.00,10.78,10.000,10.000,10.000,10.000,10.000,0,0,SEARCHING,0.000,0.800,0.000,0.000
22:58:27.258,SEARCHING,34.753,28.740,3.078,0.00,0.00,10.78,10.000,10.000,10.000,10.000,10.000,0,0,SEARCHING,0.000,0.800,0.000,0.000
22:58:27.458,SEARCHING,34.910,28.770,3.078,0.00,0.00,10.78,10.000,10.000,10.000,10.000,10.000,0,0,SEARCHING,0.000,0.800,0.000,0.000
22:58:27.658,SEARCHING,35.068,28.800,3.078,0.00,0.00,10.78,10.000,10.000,10.000,10.000,10.000,0,0,SEARCHING,0.000,0.800,0.000,0.000
22:58:27.860,SEARCHING,35.225,28.830,3.078,0.00,0.00,10.78,10.000,10.000,10.000,10.000,10.000,0,0,SEARCHING,0.000,0.800,0.000,0.000
22:58:28.060,SEARCHING,35.382,28.860,3.078,0.00,0.00,10.78,10.000,10.000,10.000,10.000,10.000,0,0,SEARCHING,0.000,0.800,0.000,0.000
22:58:28.261,SEARCHING,35.539,28.890,3.078,0.00,0.00,10.78,10.000,10.000,10.000,10.000,10.000,0,0,SEARCHING,0.000,0.800,0.000,0.000
22:58:28.461,SEARCHING,35.696,28.920,3.078,0.00,0.00,10.78,10.000,10.000,10.000,10.000,10.000,0,0,SEARCHING,0.000,0.800,0.000,0.000
22:58:28.661,SEARCHING,35.853,28.950,3.078,0.00,0.00,10.78,10.000,10.000,10.000,10.000,10.000,0,0,SEARCHING,0.000,0.800,0.000,0.000
22:58:30.140,SEARCHING,36.011,28.980,3.078,0.00,0.00,10.78,10.000,10.000,10.000,10.000,9.985,0,0,SEARCHING,0.000,0.800,0.000,0.000
22:58:30.147,SEARCHING,36.168,29.009,3.078,0.00,0.00,10.78,10.000,10.000,10.000,10.000,9.985,0,0,SEARCHING,0.000,0.800,0.000,0.000
22:58:30.257,SEARCHING,36.325,29.039,3.078,0.00,0.00,10.78,10.000,10.000,10.000,10.000,9.996,0,0,SEARCHING,0.000,0.800,0.000,0.000
22:58:30.444,SEARCHING,36.482,29.069,3.078,0.00,0.00,10.78,10.000,10.000,10.000,10.000,9.093,0,0,SEARCHING,0.000,0.800,0.000,0.000
22:58:30.642,SEARCHING,36.639,29.099,3.078,0.00,0.00,10.78,10.000,10.000,10.000,10.000,8.860,0,0,SEARCHING,0.000,0.800,0.000,0.000
22:58:30.843,SEARCHING,36.796,29.129,3.078,0.00,0.00,10.78,10.000,10.000,10.000,10.000,9.503,0,0,SEARCHING,0.000,0.800,0.000,0.000
22:58:31.043,SEARCHING,36.954,29.159,3.078,0.00,0.00,10.78,10.000,10.000,10.000,10.000,9.199,0,0,SEARCHING,0.000,0.800,0.000,0.000
22:58:31.244,SEARCHING,37.111,29.189,3.078,0.00,0.00,10.78,10.000,10.000,10.000,10.000,9.616,0,0,SEARCHING,0.000,0.800,0.000,0.000
22:58:31.445,SEARCHING,37.268,29.219,3.078,0.00,0.00,10.78,10.000,10.000,10.000,10.000,8.801,0,0,SEARCHING,0.000,0.800,0.000,0.000
22:58:31.645,SEARCHING,37.425,29.249,3.078,0.00,0.00,10.78,10.000,10.000,10.000,10.000,8.400,0,0,SEARCHING,0.000,0.800,0.000,0.000
22:58:31.845,SEARCHING,37.582,29.279,3.078,0.00,0.00,10.78,10.000,10.000,10.000,10.000,8.428,0,0,SEARCHING,0.000,0.800,0.000,0.000
22:58:32.046,SEARCHING,37.740,29.309,3.078,0.00,0.00,10.78,10.000,10.000,10.000,10.000,8.423,0,0,SEARCHING,0.000,0.800,0.000,0.000
22:58:32.246,SEARCHING,37.897,29.339,3.078,0.00,0.00,10.78,10.000,10.000,10.000,10.000,7.081,0,0,SEARCHING,0.000,0.800,0.000,0.000
22:58:32.447,SEARCHING,38.054,29.369,3.078,0.00,0.00,10.78,10.000,10.000,10.000,10.000,7.058,0,0,SEARCHING,0.000,0.800,0.015,0.000
22:58:32.648,SEARCHING,38.148,29.387,3.084,0.00,0.00,10.78,10.000,10.000,10.000,10.000,6.309,0,0,SEARCHING,0.000,0.800,0.057,0.000
22:58:32.848,SEARCHING,38.243,29.404,3.094,0.00,0.00,10.78,10.000,10.000,10.000,10.000,8.546,0,0,SEARCHING,0.000,0.800,0.021,0.000
22:58:33.050,SEARCHING,38.337,29.422,3.098,0.00,0.00,10.78,10.000,10.000,10.000,10.000,7.314,0,0,SEARCHING,0.000,0.800,0.024,0.000
22:58:33.249,SEARCHING,38.431,29.440,3.104,0.00,0.00,10.78,10.000,10.000,10.000,10.000,6.247,0,0,SEARCHING,0.000,0.800,0.052,0.000
22:58:33.449,SEARCHING,38.525,29.458,3.116,0.00,0.00,10.78,10.000,10.000,10.000,10.000,6.527,0,0,SEARCHING,0.000,0.800,0.069,0.000
22:58:33.652,SEARCHING,38.620,29.476,3.130,0.00,0.00,10.78,10.000,10.000,10.000,10.000,5.557,0,0,SEARCHING,0.000,0.800,0.083,0.000
22:58:33.855,SEARCHING,38.714,29.494,3.144,0.00,0.00,10.78,10.000,10.000,10.000,10.000,6.732,0,0,SEARCHING,0.000,0.800,0.047,0.000
22:58:34.054,SEARCHING,38.808,29.512,3.155,0.00,0.00,10.78,10.000,10.000,10.000,10.000,6.967,0,0,SEARCHING,0.000,0.800,0.056,0.000
22:58:34.256,SEARCHING,38.903,29.530,3.166,0.00,0.00,10.78,10.000,10.000,10.000,10.000,5.832,0,0,SEARCHING,0.000,0.800,0.063,0.000
22:58:34.457,SEARCHING,38.997,29.548,3.180,0.00,0.00,10.78,10.000,10.000,10.000,10.000,5.416,0,0,SEARCHING,0.000,0.800,0.090,0.000
22:58:34.657,SEARCHING,39.091,29.566,3.196,0.00,0.00,10.78,10.000,10.000,10.000,10.000,7.724,0,0,SEARCHING,0.000,0.800,0.032,0.000
22:58:34.857,SEARCHING,39.186,29.584,3.202,0.00,0.00,10.78,10.000,10.000,10.000,10.000,5.995,0,0,SEARCHING,0.000,0.800,0.058,0.000
22:58:35.058,SEARCHING,39.280,29.602,3.215,0.00,0.00,10.78,10.000,10.000,10.000,10.000,6.141,0,0,SEARCHING,0.000,0.800,0.073,0.000
22:58:35.255,SEARCHING,39.374,29.620,3.231,0.00,0.00,10.78,10.000,10.000,10.000,10.000,5.850,0,0,SEARCHING,0.000,0.800,0.083,0.000
22:58:35.455,SEARCHING,39.468,29.638,3.248,0.00,0.00,10.78,10.000,10.000,10.000,10.000,5.891,0,0,SEARCHING,0.000,0.800,0.087,0.000
22:58:35.655,SEARCHING,39.563,29.656,3.265,0.00,0.00,10.78,10.000,10.000,10.000,10.000,6.136,0,0,SEARCHING,0.000,0.800,0.081,0.000
22:58:35.856,SEARCHING,39.657,29.674,3.281,0.00,0.00,10.78,10.000,10.000,10.000,10.000,5.601,0,0,SEARCHING,0.000,0.800,0.084,0.000
22:58:36.057,SEARCHING,39.751,29.692,3.298,0.00,0.00,10.78,10.000,10.000,10.000,10.000,5.690,0,0,SEARCHING,0.000,0.800,0.086,0.000
22:58:36.258,SEARCHING,39.846,29.710,3.315,0.00,0.00,10.78,10.000,10.000,10.000,10.000,5.515,0,0,SEARCHING,0.000,0.800,0.091,0.000
22:58:36.457,SEARCHING,39.940,29.728,3.334,0.00,0.00,10.78,10.000,10.000,10.000,10.000,5.745,0,0,SEARCHING,0.000,0.800,0.092,0.000
22:58:36.657,SEARCHING,40.034,29.746,3.352,0.00,0.00,10.78,10.000,10.000,10.000,10.000,5.935,0,0,SEARCHING,0.000,0.800,0.086,0.000
22:58:36.858,SEARCHING,40.129,29.764,3.369,0.00,0.00,10.78,10.000,10.000,10.000,10.000,6.186,0,0,SEARCHING,0.000,0.800,0.080,0.000
22:58:37.059,SEARCHING,40.223,29.782,3.384,0.00,0.00,10.78,10.000,10.000,10.000,10.000,6.654,0,0,SEARCHING,0.000,0.800,0.066,0.000
22:58:37.259,SEARCHING,40.317,29.799,3.397,0.00,0.00,10.78,10.000,10.000,10.000,10.000,7.583,0,0,SEARCHING,0.000,0.800,0.041,0.000
22:58:37.459,SEARCHING,40.412,29.817,3.400,0.00,0.00,10.78,10.000,10.000,10.000,10.000,6.519,0,0,SEARCHING,0.000,0.800,0.048,0.000
22:58:37.660,SEARCHING,40.506,29.835,3.401,0.00,0.00,10.78,10.000,10.000,10.000,10.000,6.030,0,0,SEARCHING,0.000,0.800,0.064,0.000
22:58:37.860,SEARCHING,40.600,29.853,3.401,0.00,0.00,10.78,10.000,10.000,10.000,10.000,6.131,0,0,SEARCHING,0.000,0.800,0.077,0.000
22:58:38.060,SEARCHING,40.694,29.871,3.401,0.00,0.00,10.78,10.000,10.000,10.000,10.000,5.769,0,0,SEARCHING,0.000,0.800,0.083,0.000
22:58:38.261,SEARCHING,40.789,29.889,3.401,0.00,0.00,10.78,10.000,10.000,10.000,10.000,5.471,0,0,SEARCHING,0.000,0.800,0.091,0.000
22:58:38.461,SEARCHING,40.883,29.907,3.401,0.00,0.00,10.78,10.000,10.000,10.000,10.000,5.677,0,0,SEARCHING,0.000,0.800,0.093,0.000
