timestamp,state,x,y,z,roll_deg,pitch_deg,yaw_deg,dist_left,dist_center,dist_right,dist_top,dist_bottom,dtof_alert,collision_event,best_dir,max_space,cmd_vx,cmd_vz,cmd_yaw
20:18:02.658,SEARCHING,0.048,0.000,1.001,0.00,0.00,0.00,10.000,10.000,10.000,10.000,10.000,0,0,SEARCHING,10.000,0.800,0.016,0.000
20:18:02.862,SEARCHING,0.117,0.000,1.003,0.00,0.00,1.85,2.692,1.064,1.079,1.064,1.059,0,0,SEARCHING,1.059,0.341,0.007,0.555
20:18:03.062,SEARCHING,0.157,0.003,1.003,0.00,0.00,5.59,2.200,1.008,1.008,1.012,1.004,0,0,SEARCHING,1.004,0.323,0.013,0.538
20:18:03.263,SEARCHING,0.196,0.007,1.024,0.00,0.00,9.31,2.007,1.150,0.953,1.150,1.257,0,0,SEARCHING,0.953,0.368,-0.111,0.551
20:18:03.463,SEARCHING,0.264,0.021,0.998,0.00,0.00,13.15,1.845,3.467,0.873,3.467,2.434,0,0,SEARCHING,0.873,0.800,0.184,0.603
20:18:03.664,SEARCHING,0.357,0.046,1.035,0.00,0.00,17.49,1.682,3.092,0.753,3.134,2.514,0,0,SEARCHING,0.753,0.800,0.118,0.734
20:18:03.864,SEARCHING,0.447,0.078,1.049,0.00,0.00,22.57,1.515,2.288,0.923,2.288,2.311,0,0,SEARCHING,0.923,0.732,-0.007,0.424
20:18:04.064,SEARCHING,0.526,0.113,1.048,0.00,0.00,25.44,1.404,2.007,3.878,2.025,2.025,0,0,SEARCHING,1.404,0.642,0.000,-0.455
20:18:04.265,SEARCHING,0.596,0.144,1.048,0.00,0.00,22.28,1.395,2.061,4.317,2.061,2.080,0,0,SEARCHING,1.395,0.660,-0.007,-0.485
20:18:04.465,SEARCHING,0.672,0.173,1.047,0.00,0.00,18.93,1.430,2.288,4.868,2.460,2.384,0,0,SEARCHING,1.430,0.732,0.020,-0.494
20:18:04.666,SEARCHING,0.760,0.201,1.051,0.00,0.00,15.53,1.457,2.790,5.200,2.825,2.571,0,0,SEARCHING,1.457,0.800,0.052,-0.494
20:18:04.867,SEARCHING,0.853,0.224,1.063,0.00,0.00,12.14,1.515,2.825,6.022,2.860,2.600,0,0,SEARCHING,1.515,0.800,0.052,-0.494
20:18:05.067,SEARCHING,0.947,0.242,1.074,0.00,0.00,8.80,1.578,3.051,6.730,3.011,2.661,0,0,SEARCHING,1.578,0.800,0.066,-0.485
20:18:05.268,SEARCHING,1.042,0.254,1.092,0.00,0.00,5.50,1.923,3.415,7.381,3.415,2.661,0,0,SEARCHING,1.923,0.800,0.125,-0.385
20:18:05.468,SEARCHING,1.138,0.262,1.120,0.00,0.00,3.12,2.119,3.814,6.730,3.878,2.757,0,0,SEARCHING,2.119,0.800,0.157,-0.323
20:18:05.669,SEARCHING,1.234,0.265,1.153,0.00,0.00,0.92,2.243,4.237,6.022,4.237,2.825,0,0,SEARCHING,2.243,0.800,0.177,-0.280
20:18:05.869,SEARCHING,1.330,0.266,1.187,0.00,0.00,-0.95,2.200,4.487,4.670,4.487,2.972,0,0,SEARCHING,2.200,0.800,0.170,-0.240
20:18:06.071,SEARCHING,1.426,0.263,1.222,0.00,0.00,-2.54,2.179,4.670,3.945,4.670,3.011,0,0,SEARCHING,2.179,0.800,0.177,-0.205
20:18:06.271,SEARCHING,1.522,0.258,1.257,0.00,0.00,-3.89,2.266,4.868,3.814,4.868,3.134,0,0,SEARCHING,2.266,0.800,0.170,-0.179
20:18:06.471,SEARCHING,1.617,0.250,1.291,0.00,0.00,-5.03,2.384,4.974,3.575,4.974,3.223,0,0,SEARCHING,2.384,0.800,0.164,-0.140
20:18:06.672,SEARCHING,1.713,0.241,1.325,0.00,0.00,-5.96,2.487,5.085,3.467,5.085,3.269,0,0,SEARCHING,2.487,0.800,0.164,-0.114
20:18:06.872,SEARCHING,1.808,0.231,1.356,0.00,0.00,-6.73,2.542,5.200,3.365,5.085,3.365,0,0,SEARCHING,2.542,0.800,0.151,-0.096
20:18:07.072,SEARCHING,1.904,0.219,1.386,0.00,0.00,-7.36,2.661,5.321,3.269,5.085,3.415,0,0,SEARCHING,2.661,0.800,0.144,-0.070
20:18:07.273,SEARCHING,1.999,0.206,1.413,0.00,0.00,-7.83,2.661,5.581,3.223,4.974,3.520,0,0,SEARCHING,2.661,0.800,0.125,-0.066
20:18:07.474,SEARCHING,2.094,0.193,1.438,0.00,0.00,-8.05,2.724,5.720,3.178,4.868,3.520,0,0,SEARCHING,2.724,0.800,0.118,-0.052
20:18:07.674,SEARCHING,2.189,0.179,1.461,0.00,0.00,-8.23,2.757,5.720,3.178,4.767,3.575,0,0,SEARCHING,2.757,0.800,0.105,0.000
20:18:07.874,SEARCHING,2.284,0.166,1.481,0.00,0.00,-8.41,2.790,5.720,3.178,4.767,3.691,0,0,SEARCHING,2.790,0.800,0.092,0.000
20:18:08.075,SEARCHING,2.379,0.152,1.499,0.00,0.00,-8.41,2.724,5.867,3.134,4.767,3.751,0,0,SEARCHING,2.724,0.800,0.085,0.000
20:18:08.276,SEARCHING,2.474,0.138,1.515,0.00,0.00,-8.41,2.757,5.720,3.223,4.670,3.751,0,0,SEARCHING,2.757,0.800,0.079,-0.052
20:18:08.477,SEARCHING,2.569,0.123,1.535,0.00,0.00,-8.80,2.724,5.720,3.316,4.576,3.814,0,0,SEARCHING,2.724,0.800,0.066,-0.066
20:18:08.677,SEARCHING,2.664,0.108,1.548,0.00,0.00,-9.24,2.757,5.720,3.415,4.670,3.878,0,0,SEARCHING,2.757,0.800,0.066,-0.070
20:18:08.877,SEARCHING,2.758,0.092,1.561,0.00,0.00,-9.71,2.790,5.720,3.467,4.576,3.878,0,0,SEARCHING,2.790,0.800,0.059,-0.070
20:18:09.077,SEARCHING,2.853,0.076,1.572,0.00,0.00,-10.19,2.790,5.867,3.520,4.576,3.878,0,0,SEARCHING,2.790,0.800,0.059,-0.074
20:18:09.278,SEARCHING,2.947,0.059,1.583,0.00,0.00,-10.68,2.825,5.867,3.467,4.487,4.086,0,0,SEARCHING,2.825,0.800,0.033,-0.066
20:18:09.478,SEARCHING,3.042,0.041,1.591,0.00,0.00,-11.12,2.860,5.867,3.415,4.487,4.014,0,0,SEARCHING,2.860,0.800,0.039,-0.057
20:18:09.679,SEARCHING,3.136,0.022,1.598,0.00,0.00,-11.51,2.896,6.022,3.365,4.487,4.014,0,0,SEARCHING,2.896,0.800,0.039,0.000
20:18:09.880,SEARCHING,3.230,0.003,1.605,0.00,0.00,-11.51,2.860,6.022,3.316,4.400,4.014,0,0,SEARCHING,2.860,0.800,0.033,0.000
20:18:10.081,SEARCHING,3.324,-0.017,1.612,0.00,0.00,-11.51,2.860,5.867,3.316,4.400,4.086,0,0,SEARCHING,2.860,0.800,0.026,0.000
20:18:10.281,SEARCHING,3.418,-0.036,1.617,0.00,0.00,-11.51,2.860,5.867,3.316,4.400,4.014,0,0,SEARCHING,2.860,0.800,0.033,0.000
20:18:10.482,SEARCHING,3.512,-0.055,1.625,0.00,0.00,-11.51,2.790,5.581,3.269,4.400,4.014,0,0,SEARCHING,2.790,0.800,0.033,-0.052
20:18:10.683,SEARCHING,3.606,-0.074,1.631,0.00,0.00,-11.87,2.790,5.720,3.316,4.400,4.086,0,0,SEARCHING,2.790,0.800,0.026,-0.057
20:18:10.884,SEARCHING,3.700,-0.094,1.636,0.00,0.00,-12.26,2.790,5.867,3.269,4.317,4.086,0,0,SEARCHING,2.790,0.800,0.020,-0.052
20:18:11.084,SEARCHING,3.794,-0.115,1.641,0.00,0.00,-12.62,2.757,5.867,3.223,4.317,3.878,0,0,SEARCHING,2.757,0.800,0.039,-0.052
20:18:11.285,SEARCHING,3.887,-0.136,1.647,0.00,0.00,-13.00,2.757,5.720,3.178,4.317,4.086,0,0,SEARCHING,2.757,0.800,0.020,0.000
20:18:11.485,SEARCHING,3.981,-0.158,1.651,0.00,0.00,-13.00,2.757,5.581,3.092,4.317,4.160,0,0,SEARCHING,2.757,0.800,0.013,0.000
20:18:11.686,SEARCHING,4.074,-0.179,1.654,0.00,0.00,-13.00,2.790,5.867,3.134,4.317,4.160,0,0,SEARCHING,2.790,0.800,0.013,0.000
20:18:11.886,SEARCHING,4.168,-0.201,1.658,0.00,0.00,-13.00,2.757,5.867,3.178,4.317,4.237,0,0,SEARCHING,2.757,0.800,0.007,0.000
20:18:12.086,SEARCHING,4.262,-0.223,1.659,0.00,0.00,-13.18,2.757,5.581,3.134,4.317,4.160,0,0,SEARCHING,2.757,0.800,0.013,0.000
20:18:12.287,SEARCHING,4.355,-0.244,1.662,0.00,0.00,-13.36,2.825,5.720,3.134,4.400,4.160,0,0,SEARCHING,2.825,0.800,0.020,0.000
20:18:12.488,SEARCHING,4.448,-0.267,1.665,0.00,0.00,-13.36,2.825,5.720,3.134,4.317,4.160,0,0,SEARCHING,2.825,0.800,0.013,0.000
20:18:12.689,SEARCHING,4.542,-0.289,1.668,0.00,0.00,-13.36,2.790,5.321,3.092,4.317,4.160,0,0,SEARCHING,2.790,0.800,0.013,0.000
20:18:12.888,SEARCHING,4.635,-0.311,1.671,0.00,0.00,-13.36,2.790,5.321,3.092,4.317,4.160,0,0,SEARCHING,2.790,0.800,0.013,0.000
20:18:13.089,SEARCHING,4.729,-0.333,1.675,0.00,0.00,-13.36,2.790,5.321,3.051,4.317,4.160,0,0,SEARCHING,2.790,0.800,0.013,0.000
20:18:13.290,SEARCHING,4.822,-0.355,1.678,0.00,0.00,-13.36,2.825,5.867,3.092,4.317,4.014,0,0,SEARCHING,2.825,0.800,0.026,0.000
20:18:13.490,SEARCHING,4.915,-0.378,1.683,0.00,0.00,-13.36,2.790,5.867,3.092,4.317,3.945,0,0,SEARCHING,2.790,0.800,0.033,0.000
20:18:13.691,SEARCHING,5.009,-0.400,1.687,0.00,0.00,-13.36,2.790,5.720,3.092,4.317,4.160,0,0,SEARCHING,2.790,0.800,0.013,0.000
20:18:13.893,SEARCHING,5.102,-0.422,1.688,0.00,0.00,-13.36,2.790,6.356,3.134,4.317,3.878,0,0,SEARCHING,2.790,0.800,0.039,0.000
20:18:14.093,SEARCHING,5.196,-0.444,1.693,0.00,0.00,-13.36,2.790,6.356,3.134,4.317,4.086,0,0,SEARCHING,2.790,0.800,0.020,0.000
20:18:14.293,SEARCHING,5.289,-0.466,1.697,0.00,0.00,-13.36,2.757,6.184,3.134,4.237,4.160,0,0,SEARCHING,2.757,0.800,0.007,0.000
20:18:14.493,SEARCHING,5.382,-0.488,1.698,0.00,0.00,-13.57,2.790,6.184,3.365,4.237,4.317,0,0,SEARCHING,2.790,0.800,-0.007,-0.061
20:18:14.694,SEARCHING,5.476,-0.511,1.697,0.00,0.00,-14.08,2.757,6.022,3.632,4.317,4.237,0,0,SEARCHING,2.757,0.800,0.007,-0.087
20:18:14.894,SEARCHING,5.569,-0.535,1.698,0.00,0.00,-14.68,2.790,6.022,3.520,4.317,4.317,0,0,SEARCHING,2.790,0.800,0.000,-0.074
20:18:15.095,SEARCHING,5.661,-0.560,1.699,0.00,0.00,-15.22,2.790,5.867,3.632,4.317,4.237,0,0,SEARCHING,2.790,0.800,0.007,-0.083
20:18:15.295,SEARCHING,5.754,-0.585,1.700,0.00,0.00,-15.78,2.825,5.720,3.632,4.237,4.237,0,0,SEARCHING,2.825,0.800,0.000,-0.079
20:18:15.495,SEARCHING,5.846,-0.612,1.700,0.00,0.00,-16.30,2.790,5.720,3.575,4.237,4.237,0,0,SEARCHING,2.790,0.800,0.000,-0.079
20:18:15.696,SEARCHING,5.938,-0.639,1.701,0.00,0.00,-16.81,2.825,5.581,3.467,4.237,4.317,0,0,SEARCHING,2.825,0.800,-0.007,-0.066
20:18:15.896,SEARCHING,6.030,-0.667,1.699,0.00,0.00,-17.26,2.896,5.581,3.467,4.317,4.237,0,0,SEARCHING,2.896,0.800,0.007,-0.057
20:18:16.098,SEARCHING,6.122,-0.696,1.701,0.00,0.00,-17.65,2.860,5.321,3.365,4.317,4.237,0,0,SEARCHING,2.860,0.800,0.007,-0.052
20:18:16.298,SEARCHING,6.213,-0.725,1.703,0.00,0.00,-18.01,2.825,5.321,3.316,4.237,4.237,0,0,SEARCHING,2.825,0.800,0.000,-0.052
20:18:16.498,SEARCHING,6.304,-0.755,1.703,0.00,0.00,-18.19,2.860,5.200,3.269,4.317,4.237,0,0,SEARCHING,2.860,0.800,0.007,0.000
20:18:16.699,SEARCHING,6.396,-0.785,1.703,0.00,0.00,-18.19,2.860,5.085,3.134,4.317,4.237,0,0,SEARCHING,2.860,0.800,0.007,0.000
20:18:16.899,SEARCHING,6.487,-0.815,1.705,0.00,0.00,-18.19,2.825,4.974,3.134,4.317,4.160,0,0,SEARCHING,2.825,0.800,0.013,0.000
20:18:17.100,SEARCHING,6.578,-0.845,1.707,0.00,0.00,-18.19,2.757,4.767,3.051,4.237,4.237,0,0,SEARCHING,2.757,0.800,0.000,0.000
20:18:17.300,SEARCHING,6.669,-0.875,1.710,0.00,0.00,-18.19,2.825,4.237,3.051,4.160,4.237,0,0,SEARCHING,2.825,0.800,-0.007,0.000
20:18:17.501,SEARCHING,6.760,-0.905,1.709,0.00,0.00,-18.19,2.790,3.945,3.051,4.086,4.317,0,0,SEARCHING,2.790,0.800,-0.020,0.000
20:18:18.928,SEARCHING,6.806,-0.920,1.706,0.00,0.00,-18.19,2.757,3.945,3.011,4.086,4.237,0,0,SEARCHING,2.757,0.800,-0.013,0.000
20:18:18.997,SEARCHING,6.882,-0.945,1.703,0.00,0.00,-18.19,2.757,3.878,3.011,4.086,4.160,0,0,SEARCHING,2.757,0.800,-0.007,0.000
20:18:19.175,SEARCHING,6.973,-0.975,1.699,0.00,0.00,-18.19,2.724,3.691,2.972,3.751,4.237,0,0,SEARCHING,2.724,0.800,-0.046,0.000
20:18:19.373,SEARCHING,7.064,-1.005,1.689,0.00,0.00,-18.19,2.724,3.632,2.972,3.415,4.237,0,0,SEARCHING,2.724,0.800,-0.085,0.000
20:18:19.573,SEARCHING,7.156,-1.035,1.675,0.00,0.00,-18.19,2.724,3.520,2.934,3.575,4.160,0,0,SEARCHING,2.724,0.800,-0.059,0.000
20:18:19.773,SEARCHING,7.247,-1.065,1.664,0.00,0.00,-18.19,2.692,3.520,2.934,3.467,4.086,0,0,SEARCHING,2.692,0.800,-0.066,0.000
20:18:19.974,SEARCHING,7.338,-1.095,1.650,0.00,0.00,-18.19,2.790,3.467,2.896,3.365,4.160,0,0,SEARCHING,2.790,0.800,-0.085,0.000
20:18:20.174,SEARCHING,7.429,-1.125,1.632,0.00,0.00,-18.19,3.011,3.316,2.860,3.223,4.086,0,0,SEARCHING,2.860,0.800,-0.098,0.000
20:18:20.375,SEARCHING,7.520,-1.155,1.613,0.00,0.00,-18.19,3.011,3.223,2.934,3.011,3.945,0,0,SEARCHING,2.934,0.800,-0.118,0.000
20:18:20.575,SEARCHING,7.612,-1.185,1.591,0.00,0.00,-18.19,2.972,3.814,2.896,2.972,3.878,0,0,SEARCHING,2.896,0.800,-0.118,0.000
20:18:20.776,SEARCHING,7.703,-1.215,1.567,0.00,0.00,-18.19,3.178,3.632,2.860,2.972,3.751,0,0,SEARCHING,2.860,0.800,-0.105,0.000
20:18:20.976,SEARCHING,7.794,-1.245,1.545,0.00,0.00,-17.50,6.730,3.575,2.825,2.860,3.691,0,0,SEARCHING,2.825,0.800,-0.118,0.205
20:18:21.177,SEARCHING,7.886,-1.273,1.521,0.00,0.00,-16.80,3.134,3.520,2.896,2.757,3.575,0,0,SEARCHING,2.757,0.800,-0.125,0.000
20:18:21.379,SEARCHING,7.978,-1.300,1.495,0.00,0.00,-16.80,6.538,3.415,2.896,2.630,3.467,0,0,SEARCHING,2.630,0.800,-0.138,0.192
20:18:21.578,SEARCHING,8.070,-1.327,1.465,0.00,0.00,-15.49,6.538,3.316,2.972,2.460,3.365,0,0,SEARCHING,2.460,0.800,-0.164,0.184
20:18:21.778,SEARCHING,8.163,-1.352,1.432,0.00,0.00,-14.86,2.972,3.178,2.972,2.409,3.316,0,0,SEARCHING,2.409,0.800,-0.170,0.000
20:18:21.979,SEARCHING,8.255,-1.377,1.397,0.00,0.00,-14.86,6.184,3.178,2.972,2.311,3.223,0,0,SEARCHING,2.311,0.800,-0.184,0.175
20:18:22.179,SEARCHING,8.348,-1.401,1.359,0.00,0.00,-13.66,5.867,3.092,2.896,2.243,3.134,0,0,SEARCHING,2.243,0.800,-0.190,0.175
20:18:22.380,SEARCHING,8.442,-1.423,1.318,0.00,0.00,-13.06,3.814,2.972,2.972,2.099,3.051,0,0,SEARCHING,2.099,0.800,-0.223,0.074
20:18:22.580,SEARCHING,8.535,-1.444,1.274,0.00,0.00,-12.27,3.011,2.896,2.934,2.080,2.934,0,0,SEARCHING,2.080,0.800,-0.210,0.000
20:18:22.781,SEARCHING,8.629,-1.464,1.234,0.00,0.00,-11.99,3.878,2.790,2.896,2.099,2.825,0,0,SEARCHING,2.099,0.800,-0.184,0.087
20:18:22.981,SEARCHING,8.723,-1.484,1.197,0.00,0.00,-11.48,3.467,2.724,2.896,2.159,2.724,0,0,SEARCHING,2.159,0.800,-0.144,0.057
20:18:23.182,SEARCHING,8.817,-1.503,1.170,0.00,0.00,-11.28,3.051,2.630,2.790,2.179,2.661,0,0,SEARCHING,2.179,0.800,-0.125,0.000
20:18:23.382,SEARCHING,8.911,-1.521,1.147,0.00,0.00,-11.28,2.972,2.542,2.724,2.222,2.571,0,0,SEARCHING,2.222,0.800,-0.092,0.000
20:18:23.583,SEARCHING,9.006,-1.540,1.130,0.00,0.00,-11.28,2.896,2.460,2.542,2.243,2.460,0,0,SEARCHING,2.243,0.787,-0.059,0.000
20:18:23.784,SEARCHING,9.097,-1.558,1.122,0.00,0.00,-11.28,2.757,2.359,2.434,2.311,2.311,0,0,SEARCHING,2.311,0.755,0.000,0.000
20:18:23.984,SEARCHING,9.185,-1.576,1.121,0.00,0.00,-11.28,2.600,2.288,2.288,2.266,2.288,0,0,SEARCHING,2.266,0.732,-0.007,0.052
20:18:24.184,SEARCHING,9.271,-1.593,1.121,0.00,0.00,-10.86,2.514,2.222,2.222,2.222,2.200,0,0,SEARCHING,2.200,0.711,0.007,0.052
20:18:24.385,SEARCHING,9.354,-1.609,1.121,0.00,0.00,-10.44,2.487,2.138,2.099,2.159,2.138,0,0,SEARCHING,2.099,0.684,0.007,0.074
20:18:24.585,SEARCHING,9.434,-1.623,1.125,0.00,0.00,-9.98,2.359,2.061,2.007,2.080,2.061,0,0,SEARCHING,2.007,0.660,0.007,0.074
20:18:24.785,SEARCHING,9.512,-1.636,1.127,0.00,0.00,-9.37,2.335,2.007,1.939,2.025,1.990,0,0,SEARCHING,1.939,0.642,0.013,0.087
20:18:24.987,SEARCHING,9.587,-1.649,1.131,0.00,0.00,-8.68,2.311,1.939,1.860,1.939,1.907,0,0,SEARCHING,1.860,0.621,0.013,0.105
20:18:25.188,SEARCHING,9.660,-1.659,1.131,0.00,0.00,-7.96,2.222,1.876,1.733,1.876,1.876,0,0,SEARCHING,1.733,0.600,0.000,0.127
20:18:25.388,SEARCHING,9.731,-1.669,1.133,0.00,0.00,-7.08,2.138,1.816,1.658,1.816,1.816,0,0,SEARCHING,1.658,0.581,0.000,0.135
20:18:25.588,SEARCHING,9.800,-1.677,1.140,0.00,0.00,-6.10,2.080,1.788,1.546,1.760,1.695,0,0,SEARCHING,1.546,0.572,0.033,0.166
20:18:25.788,SEARCHING,9.867,-1.683,1.150,0.00,0.00,-4.93,2.119,1.708,1.525,1.802,1.611,0,0,SEARCHING,1.525,0.546,0.098,0.184
20:18:25.989,SEARCHING,9.932,-1.688,1.172,0.00,0.00,-3.58,2.487,2.099,1.439,2.179,1.907,0,0,SEARCHING,1.439,0.672,0.098,0.293
20:18:26.189,SEARCHING,10.019,-1.692,1.185,0.00,0.00,-1.23,2.896,2.542,1.387,2.138,1.956,0,0,SEARCHING,1.387,0.800,0.066,0.376
20:18:26.390,SEARCHING,10.115,-1.693,1.197,0.00,0.00,1.92,3.575,2.542,1.308,2.119,1.816,0,0,SEARCHING,1.308,0.800,0.118,0.485
20:18:26.592,SEARCHING,10.211,-1.687,1.220,0.00,0.00,5.23,3.178,2.542,1.271,2.061,1.860,0,0,SEARCHING,1.271,0.800,0.079,0.472
20:18:26.791,SEARCHING,10.306,-1.676,1.238,0.00,0.00,8.50,2.661,5.867,3.415,1.956,1.733,0,0,SEARCHING,1.733,0.800,0.098,-0.083
20:18:26.991,SEARCHING,10.401,-1.662,1.260,0.00,0.00,7.90,2.790,6.022,3.520,1.891,1.646,0,0,SEARCHING,1.646,0.800,0.118,-0.074
20:18:27.192,SEARCHING,10.496,-1.649,1.286,0.00,0.00,7.41,2.860,5.867,3.520,1.831,1.567,0,0,SEARCHING,1.567,0.800,0.138,-0.066
20:18:27.392,SEARCHING,10.591,-1.637,1.314,0.00,0.00,6.94,2.860,5.720,3.467,1.747,1.457,0,0,SEARCHING,1.457,0.800,0.170,-0.061
20:18:27.594,SEARCHING,10.687,-1.626,1.348,0.00,0.00,6.55,2.934,5.581,3.415,1.682,1.430,0,0,SEARCHING,1.430,0.800,0.157,0.000
20:18:27.794,SEARCHING,10.782,-1.615,1.375,0.00,0.00,6.55,2.972,5.448,3.365,1.578,1.467,0,0,SEARCHING,1.467,0.800,0.072,0.000
20:18:27.993,SEARCHING,10.877,-1.604,1.388,0.00,0.00,6.55,3.011,5.448,3.415,1.546,1.486,0,0,SEARCHING,1.486,0.800,0.039,0.000
20:18:28.193,SEARCHING,10.973,-1.593,1.394,0.00,0.00,6.55,3.092,5.321,3.316,1.515,1.515,0,0,SEARCHING,1.515,0.800,0.000,0.000
20:18:28.393,SEARCHING,11.068,-1.582,1.466,0.00,0.00,6.55,3.134,5.321,3.316,1.362,1.682,0,0,SEARCHING,1.362,0.800,-0.210,0.000
20:18:28.593,SEARCHING,11.163,-1.571,1.501,0.00,0.00,6.55,3.178,5.085,3.269,1.271,1.802,0,0,SEARCHING,1.271,0.800,-0.347,0.000
20:18:28.793,SEARCHING,11.259,-1.560,1.521,0.00,0.00,6.55,3.316,5.085,3.178,1.211,1.860,0,0,SEARCHING,1.211,0.800,-0.433,0.000
20:18:28.994,SEARCHING,11.354,-1.549,1.530,0.00,0.00,6.55,3.365,5.085,3.223,4.086,1.891,0,0,SEARCHING,1.891,0.800,0.426,0.000
20:18:29.195,SEARCHING,11.450,-1.538,1.497,0.00,0.00,6.55,3.467,4.974,3.178,4.014,1.816,0,0,SEARCHING,1.816,0.800,0.452,0.000
20:18:29.395,SEARCHING,11.545,-1.527,1.593,0.00,0.00,6.55,3.415,4.868,3.092,3.945,2.007,0,0,SEARCHING,2.007,0.800,0.367,0.000
20:18:29.630,SEARCHING,11.640,-1.516,1.661,0.00,0.00,6.55,3.415,4.868,3.178,0.867,2.222,0,0,SEARCHING,0.867,0.800,-0.800,0.000
20:18:29.796,SEARCHING,11.688,-1.511,1.614,0.00,0.00,6.55,3.575,4.868,3.092,3.751,2.080,0,0,SEARCHING,2.080,0.800,0.321,0.000
20:18:29.996,SEARCHING,11.783,-1.500,1.672,0.00,0.00,6.78,3.878,4.868,3.134,3.575,2.384,0,0,SEARCHING,2.384,0.800,0.210,0.061
20:18:30.197,SEARCHING,11.879,-1.488,1.695,0.00,0.00,7.20,4.014,4.868,3.092,3.467,3.223,0,0,SEARCHING,3.092,0.800,0.033,0.074
20:18:30.397,SEARCHING,11.974,-1.476,1.702,0.00,0.00,7.68,3.814,4.868,3.134,3.467,3.316,0,0,SEARCHING,3.134,0.800,0.020,0.057
20:18:30.598,SEARCHING,12.069,-1.463,1.704,0.00,0.00,8.05,4.014,4.767,3.051,3.520,3.415,0,0,SEARCHING,3.051,0.800,0.013,0.079
20:18:30.798,SEARCHING,12.164,-1.449,1.707,0.00,0.00,8.65,3.691,4.868,3.092,3.632,3.467,0,0,SEARCHING,3.092,0.800,0.020,0.052
20:18:30.999,SEARCHING,12.259,-1.434,1.711,0.00,0.00,9.06,4.014,4.974,3.134,3.691,3.632,0,0,SEARCHING,3.134,0.800,0.007,0.070
20:18:31.200,SEARCHING,12.354,-1.419,1.711,0.00,0.00,9.48,3.945,4.974,3.092,3.814,3.691,0,0,SEARCHING,3.092,0.800,0.013,0.070
20:18:31.400,SEARCHING,12.448,-1.403,1.713,0.00,0.00,9.98,3.878,5.321,3.011,3.814,3.751,0,0,SEARCHING,3.011,0.800,0.007,0.074
20:18:31.600,SEARCHING,12.543,-1.386,1.713,0.00,0.00,10.41,3.945,5.720,2.972,3.751,3.751,0,0,SEARCHING,2.972,0.800,0.000,0.083
20:18:31.800,SEARCHING,12.637,-1.368,1.713,0.00,0.00,11.00,3.945,7.890,2.934,3.814,3.814,0,0,SEARCHING,2.934,0.800,0.000,0.087
20:18:32.001,SEARCHING,12.731,-1.349,1.713,0.00,0.00,11.58,3.814,8.475,2.934,3.814,3.814,0,0,SEARCHING,2.934,0.800,0.000,0.079
20:18:32.201,SEARCHING,12.825,-1.330,1.713,0.00,0.00,12.11,3.575,8.475,2.896,3.814,3.814,0,0,SEARCHING,2.896,0.800,0.000,0.066
20:18:32.402,SEARCHING,12.919,-1.309,1.713,0.00,0.00,12.59,3.575,8.172,2.896,3.751,3.814,0,0,SEARCHING,2.896,0.800,-0.007,0.066
20:18:32.603,SEARCHING,13.013,-1.288,1.713,0.00,0.00,13.03,3.520,8.172,2.896,3.814,3.751,0,0,SEARCHING,2.896,0.800,0.007,0.061
20:18:32.804,SEARCHING,13.106,-1.266,1.713,0.00,0.00,13.24,4.400,7.890,2.896,3.751,3.751,0,0,SEARCHING,2.896,0.800,0.000,0.118
20:18:33.004,SEARCHING,13.199,-1.244,1.714,0.00,0.00,14.14,4.487,7.627,2.790,3.751,3.691,0,0,SEARCHING,2.790,0.800,0.007,0.135
20:18:33.206,SEARCHING,13.292,-1.220,1.715,0.00,0.00,14.99,4.317,7.151,2.896,3.751,3.751,0,0,SEARCHING,2.896,0.800,0.000,0.114
20:18:33.405,SEARCHING,13.385,-1.194,1.714,0.00,0.00,15.76,4.317,6.538,2.934,3.751,3.814,0,0,SEARCHING,2.934,0.800,-0.007,0.109
20:18:33.605,SEARCHING,13.477,-1.168,1.713,0.00,0.00,16.53,4.237,6.538,2.934,3.814,3.878,0,0,SEARCHING,2.934,0.800,-0.007,0.105
20:18:33.808,SEARCHING,13.569,-1.140,1.711,0.00,0.00,17.26,4.317,6.184,2.972,4.014,3.945,0,0,SEARCHING,2.972,0.800,0.007,0.105
20:18:34.009,SEARCHING,13.661,-1.111,1.711,0.00,0.00,17.94,4.317,5.867,3.011,4.014,4.014,0,0,SEARCHING,3.011,0.800,0.000,0.101
20:18:34.209,SEARCHING,13.752,-1.081,1.711,0.00,0.00,18.66,4.317,5.720,3.011,4.014,4.014,0,0,SEARCHING,3.011,0.800,0.000,0.101
20:18:34.409,SEARCHING,13.843,-1.050,1.710,0.00,0.00,19.32,3.878,5.448,3.051,4.014,4.014,0,0,SEARCHING,3.051,0.800,0.000,0.070
20:18:34.610,SEARCHING,13.933,-1.018,1.709,0.00,0.00,19.85,4.317,5.321,2.972,4.014,4.014,0,0,SEARCHING,2.972,0.800,0.000,0.105
20:18:34.810,SEARCHING,14.023,-0.984,1.709,0.00,0.00,20.52,3.878,4.974,3.011,4.086,4.160,0,0,SEARCHING,3.011,0.800,-0.007,0.074
20:18:35.011,SEARCHING,14.113,-0.951,1.707,0.00,0.00,20.78,4.086,4.974,4.974,4.086,4.160,0,0,SEARCHING,4.086,0.800,-0.007,0.000
20:18:35.212,SEARCHING,14.203,-0.917,1.707,0.00,0.00,20.52,3.575,4.974,5.085,4.237,4.160,0,0,SEARCHING,3.575,0.800,0.007,-0.083
20:18:35.412,SEARCHING,14.293,-0.883,1.708,0.00,0.00,20.24,3.365,4.974,4.974,4.160,4.160,0,0,SEARCHING,3.365,0.800,0.000,-0.096
20:18:35.613,SEARCHING,14.383,-0.850,1.708,0.00,0.00,19.61,3.520,5.085,4.868,4.237,4.160,0,0,SEARCHING,3.520,0.800,0.007,-0.079
20:18:35.814,SEARCHING,14.474,-0.819,1.709,0.00,0.00,19.07,3.365,5.085,4.868,4.160,4.160,0,0,SEARCHING,3.365,0.800,0.000,-0.092
20:18:36.015,SEARCHING,14.564,-0.788,1.709,0.00,0.00,18.49,3.467,5.085,4.767,4.160,4.160,0,0,SEARCHING,3.467,0.800,0.000,-0.079
20:18:36.216,SEARCHING,14.656,-0.758,1.709,0.00,0.00,17.91,3.316,5.085,4.670,4.160,4.160,0,0,SEARCHING,3.316,0.800,0.000,-0.087
20:18:36.416,SEARCHING,14.747,-0.728,1.709,0.00,0.00,17.37,3.415,5.200,4.576,4.237,4.160,0,0,SEARCHING,3.415,0.800,0.007,-0.074
20:18:36.616,SEARCHING,14.839,-0.700,1.710,0.00,0.00,16.84,3.316,5.321,4.487,4.160,4.160,0,0,SEARCHING,3.316,0.800,0.000,-0.079
20:18:36.816,SEARCHING,14.931,-0.673,1.709,0.00,0.00,16.27,3.178,5.448,4.400,4.160,4.160,0,0,SEARCHING,3.178,0.800,0.000,-0.087
20:18:37.017,SEARCHING,15.023,-0.646,1.710,0.00,0.00,15.65,3.051,5.581,4.400,4.160,4.160,0,0,SEARCHING,3.051,0.800,0.000,-0.101
20:18:37.217,SEARCHING,15.116,-0.621,1.710,0.00,0.00,14.96,2.934,6.184,4.237,4.160,4.160,0,0,SEARCHING,2.934,0.800,0.000,-0.105
20:18:37.418,SEARCHING,15.208,-0.596,1.710,0.00,0.00,14.23,2.934,6.184,4.160,4.160,4.160,0,0,SEARCHING,2.934,0.800,0.000,-0.101
20:18:37.619,SEARCHING,15.302,-0.573,1.711,0.00,0.00,13.55,2.896,6.184,3.945,4.160,4.160,0,0,SEARCHING,2.896,0.800,0.000,-0.092
20:18:37.820,SEARCHING,15.395,-0.551,1.711,0.00,0.00,12.94,2.972,6.022,3.945,4.086,4.160,0,0,SEARCHING,2.972,0.800,-0.007,-0.083
20:18:38.021,SEARCHING,15.489,-0.530,1.711,0.00,0.00,12.38,2.972,5.867,3.814,4.160,4.160,0,0,SEARCHING,2.972,0.800,0.000,-0.074
20:18:38.221,SEARCHING,15.583,-0.510,1.711,0.00,0.00,11.88,2.972,5.867,3.751,4.160,4.160,0,0,SEARCHING,2.972,0.800,0.000,-0.070
20:18:38.422,SEARCHING,15.677,-0.490,1.710,0.00,0.00,11.45,3.051,5.720,3.691,4.237,4.237,0,0,SEARCHING,3.051,0.800,0.000,-0.057
20:18:38.623,SEARCHING,15.771,-0.472,1.710,0.00,0.00,11.25,3.092,5.720,3.691,4.160,4.237,0,0,SEARCHING,3.092,0.800,-0.007,-0.052
20:18:38.823,SEARCHING,15.865,-0.453,1.709,0.00,0.00,10.88,3.051,5.581,3.575,4.237,4.237,0,0,SEARCHING,3.051,0.800,0.000,0.000
20:18:39.024,SEARCHING,15.959,-0.435,1.709,0.00,0.00,10.68,3.051,5.448,3.632,4.237,4.237,0,0,SEARCHING,3.051,0.800,0.000,-0.052
20:18:39.224,SEARCHING,16.054,-0.417,1.708,0.00,0.00,10.50,3.051,5.321,3.575,4.237,4.237,0,0,SEARCHING,3.051,0.800,0.000,0.000
20:18:39.424,SEARCHING,16.148,-0.400,1.708,0.00,0.00,10.31,3.134,5.321,3.520,4.237,4.237,0,0,SEARCHING,3.134,0.800,0.000,0.000
20:18:39.625,SEARCHING,16.242,-0.383,1.708,0.00,0.00,10.31,3.011,5.085,3.467,4.237,4.160,0,0,SEARCHING,3.011,0.800,0.007,0.000
20:18:39.826,SEARCHING,16.337,-0.366,1.709,0.00,0.00,10.31,3.051,5.085,3.575,4.237,4.160,0,0,SEARCHING,3.051,0.800,0.007,0.000
20:18:40.027,SEARCHING,16.431,-0.349,1.711,0.00,0.00,10.13,2.972,4.868,3.520,4.160,4.160,0,0,SEARCHING,2.972,0.800,0.000,-0.052
20:18:40.226,SEARCHING,16.526,-0.332,1.711,0.00,0.00,9.77,2.972,4.868,3.467,4.160,4.237,0,0,SEARCHING,2.972,0.800,-0.007,0.000
20:18:40.427,SEARCHING,16.620,-0.316,1.709,0.00,0.00,9.77,3.051,4.767,3.467,4.160,4.237,0,0,SEARCHING,3.051,0.800,-0.007,0.000
20:18:40.628,SEARCHING,16.715,-0.299,1.707,0.00,0.00,9.77,3.051,4.086,3.467,4.160,4.237,0,0,SEARCHING,3.051,0.800,-0.007,0.000
20:18:40.828,SEARCHING,16.810,-0.283,1.705,0.00,0.00,9.77,3.011,4.014,3.467,4.086,4.237,0,0,SEARCHING,3.011,0.800,-0.013,0.000
20:18:41.028,SEARCHING,16.904,-0.267,1.700,0.00,0.00,9.77,3.011,3.814,3.520,3.945,4.237,0,0,SEARCHING,3.011,0.800,-0.026,0.000
20:18:41.230,SEARCHING,16.999,-0.251,1.695,0.00,0.00,9.59,3.011,3.691,3.467,3.751,4.160,0,0,SEARCHING,3.011,0.800,-0.039,0.000
20:18:41.430,SEARCHING,17.094,-0.235,1.687,0.00,0.00,9.59,3.051,3.691,3.467,3.751,4.160,0,0,SEARCHING,3.051,0.800,-0.039,0.000
20:18:41.631,SEARCHING,17.188,-0.219,1.678,0.00,0.00,9.59,2.972,3.632,3.415,3.691,4.086,0,0,SEARCHING,2.972,0.800,-0.039,0.000
20:18:41.832,SEARCHING,17.283,-0.203,1.670,0.00,0.00,9.59,3.011,3.520,3.467,3.632,4.014,0,0,SEARCHING,3.011,0.800,-0.039,0.000
20:18:42.032,SEARCHING,17.378,-0.187,1.660,0.00,0.00,9.59,3.051,3.365,3.467,3.415,4.014,0,0,SEARCHING,3.051,0.800,-0.066,0.000
20:18:42.232,SEARCHING,17.472,-0.171,1.646,0.00,0.00,9.59,3.051,3.316,3.520,3.365,3.945,0,0,SEARCHING,3.051,0.800,-0.066,0.000
20:18:42.433,SEARCHING,17.567,-0.155,1.632,0.00,0.00,9.59,2.972,3.316,3.467,3.269,3.814,0,0,SEARCHING,2.972,0.800,-0.066,0.000
20:18:42.633,SEARCHING,17.662,-0.139,1.612,0.00,0.00,9.59,2.972,3.178,3.467,2.934,3.751,0,0,SEARCHING,2.934,0.800,-0.111,0.000
20:18:42.833,SEARCHING,17.756,-0.123,1.592,0.00,0.00,9.59,3.051,3.365,3.365,2.896,3.632,0,0,SEARCHING,2.896,0.800,-0.105,0.000
20:18:43.034,SEARCHING,17.851,-0.107,1.571,0.00,0.00,9.59,3.051,3.520,3.365,2.860,3.520,0,0,SEARCHING,2.860,0.800,-0.098,0.000
20:18:43.235,SEARCHING,17.946,-0.091,1.550,0.00,0.00,9.59,2.972,3.467,3.316,2.724,3.467,0,0,SEARCHING,2.724,0.800,-0.118,0.000
20:18:43.435,SEARCHING,18.040,-0.075,1.526,0.00,0.00,9.59,2.972,3.365,3.269,2.692,3.415,0,0,SEARCHING,2.692,0.800,-0.118,0.000
20:18:43.636,SEARCHING,18.135,-0.059,1.501,0.00,0.00,9.59,3.011,3.316,3.178,2.542,3.316,0,0,SEARCHING,2.542,0.800,-0.138,0.000
20:18:43.836,SEARCHING,18.230,-0.043,1.473,0.00,0.00,9.59,3.092,3.223,3.178,2.460,3.223,0,0,SEARCHING,2.460,0.800,-0.144,0.000
20:18:44.037,SEARCHING,18.324,-0.027,1.444,0.00,0.00,9.59,3.134,3.134,3.092,2.359,3.134,0,0,SEARCHING,2.359,0.800,-0.157,0.000
20:18:44.237,SEARCHING,18.419,-0.011,1.412,0.00,0.00,9.59,3.520,2.896,2.972,2.288,3.011,0,0,SEARCHING,2.288,0.800,-0.157,0.052
20:18:44.438,SEARCHING,18.513,0.006,1.378,0.00,0.00,10.01,3.814,2.825,2.972,2.222,2.896,0,0,SEARCHING,2.222,0.800,-0.157,0.074
20:18:44.638,SEARCHING,18.608,0.023,1.343,0.00,0.00,10.52,3.751,2.790,3.011,2.080,2.790,0,0,SEARCHING,2.080,0.800,-0.184,0.066
20:18:44.839,SEARCHING,18.702,0.040,1.305,0.00,0.00,10.97,3.814,2.661,3.051,2.025,2.724,0,0,SEARCHING,2.025,0.800,-0.190,0.066
20:18:45.039,SEARCHING,18.796,0.059,1.267,0.00,0.00,11.43,3.691,2.571,2.972,1.990,2.661,0,0,SEARCHING,1.990,0.800,-0.190,0.066
20:18:45.240,SEARCHING,18.890,0.078,1.230,0.00,0.00,11.88,3.632,2.487,2.934,2.007,2.571,0,0,SEARCHING,2.007,0.796,-0.164,0.066
20:18:45.441,SEARCHING,18.984,0.098,1.203,0.00,0.00,12.32,3.632,2.460,2.896,2.099,2.434,0,0,SEARCHING,2.099,0.787,-0.098,0.070
20:18:45.642,SEARCHING,19.075,0.119,1.185,0.00,0.00,12.76,3.520,2.335,2.972,2.119,2.359,0,0,SEARCHING,2.119,0.747,-0.072,0.052
20:18:45.841,SEARCHING,19.162,0.138,1.174,0.00,0.00,13.13,3.467,2.288,2.972,2.159,2.288,0,0,SEARCHING,2.159,0.732,-0.039,0.000
20:18:46.042,SEARCHING,19.247,0.158,1.167,0.00,0.00,13.31,3.520,2.200,2.896,2.138,2.200,0,0,SEARCHING,2.138,0.704,-0.020,0.061
20:18:46.243,SEARCHING,19.328,0.178,1.165,0.00,0.00,13.72,3.415,2.119,2.934,2.119,2.119,0,0,SEARCHING,2.119,0.678,0.000,0.000
20:18:46.444,SEARCHING,19.406,0.197,1.165,0.00,0.00,13.90,3.415,2.025,2.896,2.025,2.025,0,0,SEARCHING,2.025,0.648,0.000,0.052
20:18:46.644,SEARCHING,19.481,0.216,1.165,0.00,0.00,14.08,3.365,1.973,2.896,1.973,1.973,0,0,SEARCHING,1.973,0.631,0.000,0.000
20:18:46.844,SEARCHING,19.553,0.234,1.165,0.00,0.00,14.26,3.365,1.876,2.896,1.891,1.891,0,0,SEARCHING,1.876,0.600,0.000,0.000
20:18:47.044,SEARCHING,19.623,0.251,1.165,0.00,0.00,14.86,3.316,1.802,1.973,1.816,1.802,0,0,SEARCHING,1.802,0.577,0.007,0.205
20:18:47.245,SEARCHING,19.689,0.270,1.166,0.00,0.00,16.33,3.134,1.747,1.831,1.747,1.733,0,0,SEARCHING,1.733,0.559,0.007,0.227
20:18:47.446,SEARCHING,19.752,0.289,1.167,0.00,0.00,17.89,3.011,1.658,1.708,1.670,1.670,0,0,SEARCHING,1.658,0.531,0.000,0.253
20:18:47.646,SEARCHING,19.812,0.309,1.168,0.00,0.00,19.68,2.825,1.589,1.589,1.600,1.589,0,0,SEARCHING,1.589,0.508,0.007,0.275
20:18:47.847,SEARCHING,19.869,0.330,1.169,0.00,0.00,21.60,2.757,1.567,1.536,1.557,1.567,0,0,SEARCHING,1.536,0.502,-0.007,0.288
20:18:48.049,SEARCHING,19.924,0.353,1.169,0.00,0.00,23.65,2.724,1.557,1.448,1.567,1.546,0,0,SEARCHING,1.448,0.498,0.013,0.323
20:18:48.248,SEARCHING,19.979,0.378,1.171,0.00,0.00,25.90,2.692,1.536,1.378,1.546,1.546,0,0,SEARCHING,1.378,0.491,0.000,0.354
20:18:48.448,SEARCHING,20.031,0.405,1.171,0.00,0.00,28.40,2.692,1.525,1.300,1.525,1.557,0,0,SEARCHING,1.300,0.488,-0.020,0.398
20:18:48.649,SEARCHING,20.084,0.435,1.200,0.00,0.00,31.22,1.525,3.467,1.204,2.043,2.790,0,0,SEARCHING,1.204,0.800,-0.197,0.175
20:18:48.849,SEARCHING,20.165,0.485,1.157,0.00,0.00,32.48,1.496,3.269,1.133,2.119,2.860,0,0,SEARCHING,1.133,0.800,-0.184,0.214
20:18:49.050,SEARCHING,20.246,0.538,1.122,0.00,0.00,33.88,1.387,3.051,1.090,2.600,2.757,0,0,SEARCHING,1.090,0.800,-0.033,0.197
20:18:49.251,SEARCHING,20.325,0.592,1.121,0.00,0.00,35.25,1.330,2.896,1.054,2.790,2.724,0,0,SEARCHING,1.054,0.800,0.013,0.197
20:18:49.451,SEARCHING,20.403,0.648,1.123,0.00,0.00,36.61,1.271,2.757,0.995,2.724,2.692,0,0,SEARCHING,0.995,0.800,0.007,0.219
20:18:49.651,SEARCHING,20.479,0.706,1.125,0.00,0.00,39.09,1.179,2.514,3.878,2.514,2.542,0,0,SEARCHING,1.179,0.800,-0.007,-0.590
20:18:49.852,SEARCHING,20.555,0.765,1.125,0.00,0.00,36.15,1.990,2.630,0.867,2.630,2.600,0,0,SEARCHING,0.867,0.800,0.007,0.651
20:18:50.053,SEARCHING,20.631,0.823,1.127,0.00,0.00,37.48,1.907,2.409,3.751,2.487,2.434,0,0,SEARCHING,1.907,0.771,0.013,-0.258
20:18:50.253,SEARCHING,20.706,0.879,1.128,0.00,0.00,35.74,2.007,2.487,3.814,2.460,2.460,0,0,SEARCHING,2.007,0.796,0.000,-0.236
20:18:50.454,SEARCHING,20.784,0.934,1.128,0.00,0.00,34.06,1.891,2.487,3.945,2.514,2.514,0,0,SEARCHING,1.891,0.796,0.000,-0.275
20:18:50.655,SEARCHING,20.864,0.986,1.126,0.00,0.00,32.09,1.774,2.542,4.160,2.571,2.600,0,0,SEARCHING,1.774,0.800,-0.007,-0.323
20:18:50.855,SEARCHING,20.946,1.036,1.124,0.00,0.00,29.79,1.682,2.661,4.400,2.692,2.661,0,0,SEARCHING,1.682,0.800,0.007,-0.367
20:18:51.055,SEARCHING,21.030,1.082,1.125,0.00,0.00,27.28,1.733,2.790,4.576,2.790,2.757,0,0,SEARCHING,1.733,0.800,0.007,-0.358
20:18:52.655,SEARCHING,21.116,1.124,1.128,0.00,0.00,24.79,1.747,2.934,4.670,2.934,2.757,0,0,SEARCHING,1.747,0.800,0.033,-0.358
20:18:52.856,SEARCHING,21.204,1.163,1.134,0.00,0.00,22.33,1.816,2.896,4.974,2.896,2.757,0,0,SEARCHING,1.816,0.800,0.026,-0.350
20:18:53.057,SEARCHING,21.293,1.198,1.138,0.00,0.00,19.94,1.907,2.860,5.448,2.896,2.757,0,0,SEARCHING,1.907,0.800,0.026,-0.341
20:18:53.258,SEARCHING,21.384,1.229,1.144,0.00,0.00,17.56,1.973,3.011,6.022,3.011,2.790,0,0,SEARCHING,1.973,0.800,0.039,-0.341
20:18:53.459,SEARCHING,21.476,1.256,1.154,0.00,0.00,15.20,2.061,3.269,7.627,3.269,2.860,0,0,SEARCHING,2.061,0.800,0.066,-0.354
20:18:53.661,SEARCHING,21.569,1.280,1.168,0.00,0.00,12.82,2.200,3.467,7.627,3.467,2.860,0,0,SEARCHING,2.200,0.800,0.092,-0.323
20:18:53.861,SEARCHING,21.663,1.300,1.187,0.00,0.00,10.64,2.222,3.575,7.151,3.632,2.972,0,0,SEARCHING,2.222,0.800,0.092,-0.310
20:18:54.062,SEARCHING,21.758,1.316,1.206,0.00,0.00,8.50,2.138,3.751,6.730,3.751,2.972,0,0,SEARCHING,2.138,0.800,0.105,-0.319
20:18:54.262,SEARCHING,21.853,1.329,1.226,0.00,0.00,6.34,2.179,3.945,6.184,3.878,3.051,0,0,SEARCHING,2.179,0.800,0.105,-0.297
20:18:54.464,SEARCHING,21.948,1.338,1.250,0.00,0.00,4.33,2.288,4.160,5.867,4.237,3.092,0,0,SEARCHING,2.288,0.800,0.131,-0.267
20:18:54.663,SEARCHING,22.044,1.344,1.277,0.00,0.00,2.60,2.384,4.487,4.974,4.487,3.178,0,0,SEARCHING,2.384,0.800,0.138,-0.219
20:18:54.865,SEARCHING,22.140,1.347,1.305,0.00,0.00,1.19,2.460,4.670,4.487,4.670,3.223,0,0,SEARCHING,2.460,0.800,0.144,-0.184
20:18:55.066,SEARCHING,22.236,1.348,1.334,0.00,0.00,-0.03,2.571,4.974,4.237,4.868,3.269,0,0,SEARCHING,2.571,0.800,0.151,-0.153
20:18:55.266,SEARCHING,22.332,1.348,1.362,0.00,0.00,-1.02,2.692,5.085,4.014,4.767,3.365,0,0,SEARCHING,2.692,0.800,0.131,-0.122
20:18:55.467,SEARCHING,22.428,1.345,1.388,0.00,0.00,-1.86,2.692,5.200,3.878,4.767,3.467,0,0,SEARCHING,2.692,0.800,0.118,-0.114
20:18:55.667,SEARCHING,22.524,1.342,1.412,0.00,0.00,-2.61,2.724,5.720,3.814,4.670,3.467,0,0,SEARCHING,2.724,0.800,0.111,-0.105
20:18:55.868,SEARCHING,22.620,1.337,1.433,0.00,0.00,-3.32,2.724,6.730,3.691,4.576,3.575,0,0,SEARCHING,2.724,0.800,0.092,-0.096
20:18:56.067,SEARCHING,22.716,1.331,1.453,0.00,0.00,-3.98,2.692,8.172,3.632,4.487,3.575,0,0,SEARCHING,2.692,0.800,0.085,-0.096
20:18:56.268,SEARCHING,22.811,1.324,1.469,0.00,0.00,-4.61,2.724,8.475,3.520,4.487,3.575,0,0,SEARCHING,2.724,0.800,0.085,-0.083
20:18:56.469,SEARCHING,22.907,1.316,1.485,0.00,0.00,-5.17,2.757,8.172,3.415,4.576,3.632,0,0,SEARCHING,2.757,0.800,0.085,-0.070
20:18:56.670,SEARCHING,23.003,1.307,1.501,0.00,0.00,-5.66,2.724,7.627,3.415,4.487,3.691,0,0,SEARCHING,2.724,0.800,0.072,-0.074
20:18:56.871,SEARCHING,23.098,1.297,1.515,0.00,0.00,-6.16,2.757,7.381,3.365,4.487,3.751,0,0,SEARCHING,2.757,0.800,0.066,-0.066
20:18:57.071,SEARCHING,23.194,1.286,1.528,0.00,0.00,-6.60,2.860,7.381,3.316,4.487,3.814,0,0,SEARCHING,2.860,0.800,0.059,0.000
20:18:57.272,SEARCHING,23.289,1.275,1.540,0.00,0.00,-6.78,2.790,7.151,3.223,4.400,3.878,0,0,SEARCHING,2.790,0.800,0.046,0.000
20:18:57.472,SEARCHING,23.384,1.264,1.549,0.00,0.00,-6.96,2.825,7.151,3.269,4.400,3.814,0,0,SEARCHING,2.825,0.800,0.052,0.000
20:18:57.673,SEARCHING,23.480,1.252,1.560,0.00,0.00,-7.15,2.860,6.934,3.269,4.400,3.878,0,0,SEARCHING,2.860,0.800,0.046,0.000
20:18:57.873,SEARCHING,23.575,1.240,1.569,0.00,0.00,-7.15,2.860,6.730,3.316,4.400,3.945,0,0,SEARCHING,2.860,0.800,0.039,0.000
20:18:58.074,SEARCHING,23.670,1.228,1.577,0.00,0.00,-7.15,2.790,6.934,3.269,4.400,3.878,0,0,SEARCHING,2.790,0.800,0.046,-0.052
20:18:58.274,SEARCHING,23.765,1.216,1.585,0.00,0.00,-7.33,2.825,6.730,3.269,4.317,3.945,0,0,SEARCHING,2.825,0.800,0.033,0.000
20:18:58.475,SEARCHING,23.860,1.204,1.591,0.00,0.00,-7.53,2.860,6.730,3.316,4.317,3.945,0,0,SEARCHING,2.860,0.800,0.033,0.000
20:18:58.676,SEARCHING,23.956,1.191,1.598,0.00,0.00,-7.53,2.860,6.538,3.316,4.400,4.014,0,0,SEARCHING,2.860,0.800,0.033,0.000
20:18:58.876,SEARCHING,24.051,1.178,1.604,0.00,0.00,-7.53,2.790,6.538,3.365,4.317,4.014,0,0,SEARCHING,2.790,0.800,0.026,-0.061
20:18:59.076,SEARCHING,24.146,1.166,1.609,0.00,0.00,-7.93,2.896,6.538,3.365,4.317,4.014,0,0,SEARCHING,2.896,0.800,0.026,0.000
20:18:59.277,SEARCHING,24.241,1.152,1.614,0.00,0.00,-7.93,2.934,6.356,3.415,4.317,4.014,0,0,SEARCHING,2.934,0.800,0.026,0.000
20:18:59.478,SEARCHING,24.336,1.139,1.619,0.00,0.00,-7.93,2.972,6.356,3.415,4.317,4.014,0,0,SEARCHING,2.972,0.800,0.026,0.000
20:18:59.679,SEARCHING,24.431,1.126,1.624,0.00,0.00,-7.93,2.934,6.184,3.415,4.317,4.086,0,0,SEARCHING,2.934,0.800,0.020,0.000
20:18:59.879,SEARCHING,24.526,1.113,1.628,0.00,0.00,-7.93,2.934,6.184,3.365,4.317,4.086,0,0,SEARCHING,2.934,0.800,0.020,0.000
20:19:00.079,SEARCHING,24.621,1.099,1.632,0.00,0.00,-7.93,2.934,6.184,3.415,4.237,4.086,0,0,SEARCHING,2.934,0.800,0.013,0.000
20:19:00.279,SEARCHING,24.716,1.086,1.635,0.00,0.00,-8.11,2.934,6.184,3.365,4.317,4.160,0,0,SEARCHING,2.934,0.800,0.013,0.000
20:19:00.481,SEARCHING,24.811,1.072,1.638,0.00,0.00,-8.11,2.896,6.022,3.415,4.317,4.160,0,0,SEARCHING,2.896,0.800,0.013,-0.052
20:19:00.683,SEARCHING,24.906,1.059,1.641,0.00,0.00,-8.29,2.934,6.022,3.365,4.317,4.086,0,0,SEARCHING,2.934,0.800,0.020,0.000
20:19:00.883,SEARCHING,25.001,1.045,1.645,0.00,0.00,-8.29,2.934,5.867,3.365,4.317,4.160,0,0,SEARCHING,2.934,0.800,0.013,0.000
20:19:01.083,SEARCHING,25.096,1.031,1.647,0.00,0.00,-8.29,2.934,5.720,3.316,4.317,4.160,0,0,SEARCHING,2.934,0.800,0.013,0.000
20:19:01.283,SEARCHING,25.191,1.017,1.650,0.00,0.00,-8.29,2.896,5.720,3.269,4.317,4.160,0,0,SEARCHING,2.896,0.800,0.013,0.000
20:19:01.482,SEARCHING,25.286,1.003,1.652,0.00,0.00,-8.29,2.934,5.581,3.178,4.317,4.160,0,0,SEARCHING,2.934,0.800,0.013,0.000
20:19:01.683,SEARCHING,25.381,0.990,1.654,0.00,0.00,-8.29,2.896,5.581,3.178,4.317,4.160,0,0,SEARCHING,2.896,0.800,0.013,0.000
20:19:01.883,SEARCHING,25.476,0.976,1.657,0.00,0.00,-8.29,2.896,5.581,3.178,4.237,4.160,0,0,SEARCHING,2.896,0.800,0.007,0.000
20:19:02.083,SEARCHING,25.571,0.962,1.658,0.00,0.00,-8.29,2.896,5.321,3.134,4.237,4.160,0,0,SEARCHING,2.896,0.800,0.007,0.000
20:19:02.284,SEARCHING,25.666,0.948,1.660,0.00,0.00,-8.29,2.790,5.321,3.134,4.237,4.160,0,0,SEARCHING,2.790,0.800,0.007,0.000
20:19:02.484,SEARCHING,25.761,0.934,1.662,0.00,0.00,-8.29,3.011,5.321,3.051,4.237,4.160,0,0,SEARCHING,3.011,0.800,0.007,0.000
20:19:02.685,SEARCHING,25.856,0.920,1.664,0.00,0.00,-8.01,4.086,5.321,3.011,4.317,4.160,0,0,SEARCHING,3.011,0.800,0.013,0.087
20:19:02.885,SEARCHING,25.952,0.907,1.666,0.00,0.00,-7.44,3.814,5.448,3.051,4.237,4.160,0,0,SEARCHING,3.051,0.800,0.007,0.066
20:19:03.086,SEARCHING,26.047,0.895,1.668,0.00,0.00,-6.99,3.814,5.720,3.051,4.317,4.237,0,0,SEARCHING,3.051,0.800,0.007,0.066
20:19:03.286,SEARCHING,26.142,0.884,1.670,0.00,0.00,-6.57,3.751,5.867,3.092,4.317,4.237,0,0,SEARCHING,3.092,0.800,0.007,0.057
20:19:03.487,SEARCHING,26.238,0.873,1.671,0.00,0.00,-6.16,3.751,6.356,3.092,4.317,4.160,0,0,SEARCHING,3.092,0.800,0.013,0.057
20:19:03.687,SEARCHING,26.333,0.863,1.674,0.00,0.00,-5.78,3.751,6.356,3.134,4.317,4.160,0,0,SEARCHING,3.134,0.800,0.013,0.052
20:19:03.888,SEARCHING,26.429,0.854,1.676,0.00,0.00,-5.38,3.751,6.538,3.092,4.317,4.237,0,0,SEARCHING,3.092,0.800,0.007,0.057
20:19:04.089,SEARCHING,26.524,0.845,1.677,0.00,0.00,-5.00,3.691,6.184,3.051,4.317,4.237,0,0,SEARCHING,3.051,0.800,0.007,0.057
20:19:04.289,SEARCHING,26.620,0.837,1.679,0.00,0.00,-4.61,3.691,6.356,3.092,4.237,4.160,0,0,SEARCHING,3.092,0.800,0.007,0.052
20:19:04.491,SEARCHING,26.716,0.829,1.680,0.00,0.00,-4.25,3.751,6.356,3.051,4.317,4.237,0,0,SEARCHING,3.051,0.800,0.007,0.061
20:19:04.691,SEARCHING,26.811,0.823,1.681,0.00,0.00,-3.85,3.632,6.022,2.972,4.317,4.160,0,0,SEARCHING,2.972,0.800,0.013,0.061
20:19:04.891,SEARCHING,26.907,0.816,1.684,0.00,0.00,-3.44,3.575,5.720,3.011,4.317,4.237,0,0,SEARCHING,3.011,0.800,0.007,0.052
20:19:05.092,SEARCHING,27.003,0.811,1.684,0.00,0.00,-3.06,3.575,5.581,2.972,4.317,4.237,0,0,SEARCHING,2.972,0.800,0.007,0.057
20:19:05.292,SEARCHING,27.099,0.806,1.686,0.00,0.00,-2.67,3.520,5.321,2.972,4.237,4.237,0,0,SEARCHING,2.972,0.800,0.000,0.052
20:19:05.493,SEARCHING,27.195,0.802,1.686,0.00,0.00,-2.49,3.520,5.200,2.972,4.317,4.237,0,0,SEARCHING,2.972,0.800,0.007,0.052
20:19:05.694,SEARCHING,27.291,0.798,1.687,0.00,0.00,-2.12,3.520,5.085,3.011,4.237,4.160,0,0,SEARCHING,3.011,0.800,0.007,0.000
20:19:05.894,SEARCHING,27.387,0.794,1.688,0.00,0.00,-2.12,3.575,4.974,2.972,4.237,4.160,0,0,SEARCHING,2.972,0.800,0.007,0.057
20:19:06.095,SEARCHING,27.482,0.791,1.689,0.00,0.00,-1.74,3.467,4.767,2.972,4.237,4.160,0,0,SEARCHING,2.972,0.800,0.007,0.000
20:19:06.295,SEARCHING,27.578,0.788,1.690,0.00,0.00,-1.56,3.467,4.767,2.972,4.317,4.237,0,0,SEARCHING,2.972,0.800,0.007,0.000
20:19:06.495,SEARCHING,27.674,0.786,1.692,0.00,0.00,-1.56,3.415,4.868,2.972,4.237,4.237,0,0,SEARCHING,2.972,0.800,0.000,0.000
20:19:06.696,SEARCHING,27.770,0.783,1.691,0.00,0.00,-1.56,3.520,4.868,2.972,4.237,4.237,0,0,SEARCHING,2.972,0.800,0.000,0.052
20:19:06.896,SEARCHING,27.866,0.781,1.689,0.00,0.00,-1.38,3.415,4.974,2.972,4.237,4.237,0,0,SEARCHING,2.972,0.800,0.000,0.000
20:19:07.097,SEARCHING,27.962,0.778,1.687,0.00,0.00,-1.38,3.415,4.670,2.934,4.014,4.160,0,0,SEARCHING,2.934,0.800,-0.013,0.000
20:19:07.297,SEARCHING,28.058,0.776,1.683,0.00,0.00,-1.38,3.415,5.720,2.934,4.014,4.160,0,0,SEARCHING,2.934,0.800,-0.013,0.000
20:19:07.498,SEARCHING,28.154,0.774,1.678,0.00,0.00,-1.20,3.415,5.867,2.896,3.878,4.160,0,0,SEARCHING,2.896,0.800,-0.026,0.052
20:19:07.700,SEARCHING,28.250,0.772,1.674,0.00,0.00,-0.84,3.415,5.867,2.896,3.878,4.160,0,0,SEARCHING,2.896,0.800,-0.026,0.052
20:19:07.901,SEARCHING,28.346,0.771,1.666,0.00,0.00,-0.66,3.365,5.867,2.896,3.751,4.160,0,0,SEARCHING,2.896,0.800,-0.039,0.000
20:19:08.101,SEARCHING,28.442,0.770,1.658,0.00,0.00,-0.66,3.316,5.867,2.896,3.691,4.160,0,0,SEARCHING,2.896,0.800,-0.046,0.000
20:19:08.302,SEARCHING,28.538,0.768,1.648,0.00,0.00,-0.66,3.316,6.022,2.896,3.575,4.086,0,0,SEARCHING,2.896,0.800,-0.052,0.000
20:19:08.502,SEARCHING,28.634,0.767,1.635,0.00,0.00,-0.66,3.365,6.184,2.934,3.520,4.086,0,0,SEARCHING,2.934,0.800,-0.059,0.000
20:19:08.704,SEARCHING,28.730,0.766,1.624,0.00,0.00,-0.66,3.365,6.184,2.934,3.691,4.086,0,0,SEARCHING,2.934,0.800,-0.039,0.000
20:19:08.904,SEARCHING,28.826,0.765,1.616,0.00,0.00,-0.66,3.365,6.356,2.972,3.467,4.014,0,0,SEARCHING,2.972,0.800,-0.059,0.000
20:19:09.106,SEARCHING,28.922,0.764,1.606,0.00,0.00,-0.66,3.365,6.538,3.051,4.014,4.014,0,0,SEARCHING,3.051,0.800,0.000,0.000
20:19:09.306,SEARCHING,29.018,0.763,1.608,0.00,0.00,-0.66,3.269,6.356,3.223,4.160,4.014,0,0,SEARCHING,3.223,0.800,0.013,0.000
20:19:09.505,SEARCHING,29.114,0.762,1.611,0.00,0.00,-0.66,3.365,6.356,3.178,4.160,4.014,0,0,SEARCHING,3.178,0.800,0.013,0.000
20:19:09.706,SEARCHING,29.210,0.761,1.615,0.00,0.00,-0.66,3.316,6.356,3.223,4.487,3.945,0,0,SEARCHING,3.223,0.800,0.046,0.000
20:19:09.906,SEARCHING,29.306,0.760,1.624,0.00,0.00,-0.66,3.316,6.356,3.178,4.487,4.086,0,0,SEARCHING,3.178,0.800,0.033,0.000
20:19:10.107,SEARCHING,29.402,0.759,1.630,0.00,0.00,-0.66,3.269,6.356,3.134,4.400,4.086,0,0,SEARCHING,3.134,0.800,0.026,0.000
20:19:10.308,SEARCHING,29.498,0.757,1.635,0.00,0.00,-0.66,3.269,6.356,3.223,4.400,4.086,0,0,SEARCHING,3.223,0.800,0.026,0.000
20:19:10.508,SEARCHING,29.594,0.756,1.639,0.00,0.00,-0.66,3.223,6.356,3.134,4.487,4.086,0,0,SEARCHING,3.134,0.800,0.033,0.000
20:19:10.709,SEARCHING,29.690,0.755,1.645,0.00,0.00,-0.66,3.134,6.356,3.269,4.400,4.160,0,0,SEARCHING,3.134,0.800,0.020,0.000
20:19:10.910,SEARCHING,29.786,0.754,1.650,0.00,0.00,-0.66,3.134,6.184,3.316,4.400,4.086,0,0,SEARCHING,3.134,0.800,0.026,0.000
20:19:11.109,SEARCHING,29.882,0.753,1.655,0.00,0.00,-0.66,3.178,6.184,3.316,4.400,4.160,0,0,SEARCHING,3.178,0.800,0.020,0.000
20:19:11.310,SEARCHING,29.978,0.752,1.658,0.00,0.00,-0.66,3.178,6.022,3.467,4.317,4.160,0,0,SEARCHING,3.178,0.800,0.013,0.000
20:19:11.511,SEARCHING,30.074,0.751,1.661,0.00,0.00,-0.66,3.092,6.022,3.575,4.317,4.160,0,0,SEARCHING,3.092,0.800,0.013,0.000
20:19:11.711,SEARCHING,30.170,0.750,1.664,0.00,0.00,-0.66,3.011,6.022,3.632,4.317,4.160,0,0,SEARCHING,3.011,0.800,0.013,-0.057
20:19:11.912,SEARCHING,30.266,0.748,1.667,0.00,0.00,-0.86,3.051,6.022,3.632,4.237,4.160,0,0,SEARCHING,3.051,0.800,0.007,-0.052
20:19:12.113,SEARCHING,30.362,0.747,1.668,0.00,0.00,-1.04,3.051,6.184,3.575,4.400,4.160,0,0,SEARCHING,3.051,0.800,0.020,0.000
20:19:12.313,SEARCHING,30.458,0.745,1.671,0.00,0.00,-1.04,3.092,6.184,3.632,4.400,4.160,0,0,SEARCHING,3.092,0.800,0.020,0.000
20:19:12.514,SEARCHING,30.554,0.743,1.675,0.00,0.00,-1.22,3.011,6.184,3.632,4.317,4.160,0,0,SEARCHING,3.011,0.800,0.013,-0.057
20:19:12.714,SEARCHING,30.650,0.741,1.677,0.00,0.00,-1.59,3.011,6.356,3.632,4.317,4.160,0,0,SEARCHING,3.011,0.800,0.013,-0.057
20:19:12.915,SEARCHING,30.746,0.738,1.679,0.00,0.00,-1.79,3.092,6.356,3.575,4.317,4.237,0,0,SEARCHING,3.092,0.800,0.007,0.000
20:19:13.115,SEARCHING,30.842,0.735,1.681,0.00,0.00,-1.97,3.134,6.356,3.632,4.317,4.160,0,0,SEARCHING,3.134,0.800,0.013,0.000
20:19:13.315,SEARCHING,30.938,0.732,1.683,0.00,0.00,-2.15,3.051,6.356,3.632,4.317,4.237,0,0,SEARCHING,3.051,0.800,0.007,-0.052
20:19:13.516,SEARCHING,31.034,0.728,1.684,0.00,0.00,-2.33,3.051,6.356,3.632,4.317,4.086,0,0,SEARCHING,3.051,0.800,0.020,-0.052
20:19:13.717,SEARCHING,31.130,0.724,1.687,0.00,0.00,-2.72,3.051,6.538,3.632,4.237,4.237,0,0,SEARCHING,3.051,0.800,0.000,-0.052
20:19:13.917,SEARCHING,31.226,0.719,1.687,0.00,0.00,-3.08,3.011,6.356,3.691,4.237,4.237,0,0,SEARCHING,3.011,0.800,0.000,-0.061
20:19:14.118,SEARCHING,31.321,0.713,1.689,0.00,0.00,-3.50,2.972,6.356,3.632,4.317,4.237,0,0,SEARCHING,2.972,0.800,0.007,-0.061
20:19:14.318,SEARCHING,31.417,0.707,1.690,0.00,0.00,-3.91,2.972,6.184,3.691,4.237,4.237,0,0,SEARCHING,2.972,0.800,0.000,-0.066
20:19:14.519,SEARCHING,31.513,0.700,1.690,0.00,0.00,-4.36,2.972,6.184,3.632,4.317,4.237,0,0,SEARCHING,2.972,0.800,0.007,-0.061
20:19:14.720,SEARCHING,31.609,0.693,1.691,0.00,0.00,-4.76,3.011,6.184,3.575,4.317,4.237,0,0,SEARCHING,3.011,0.800,0.007,-0.052
20:19:14.921,SEARCHING,31.704,0.685,1.692,0.00,0.00,-5.14,3.011,6.022,3.575,4.237,4.237,0,0,SEARCHING,3.011,0.800,0.000,-0.052
20:19:15.122,SEARCHING,31.800,0.676,1.692,0.00,0.00,-5.32,3.011,5.867,3.520,4.237,4.237,0,0,SEARCHING,3.011,0.800,0.000,0.000
20:19:15.322,SEARCHING,31.896,0.667,1.692,0.00,0.00,-5.50,2.972,5.867,3.467,4.237,4.237,0,0,SEARCHING,2.972,0.800,0.000,0.000
20:19:15.522,SEARCHING,31.991,0.658,1.693,0.00,0.00,-5.68,2.972,5.720,3.520,4.317,4.237,0,0,SEARCHING,2.972,0.800,0.007,-0.052
20:19:15.724,SEARCHING,32.087,0.648,1.694,0.00,0.00,-5.86,2.972,5.720,3.467,4.237,4.237,0,0,SEARCHING,2.972,0.800,0.000,0.000
20:19:15.924,SEARCHING,32.182,0.638,1.695,0.00,0.00,-5.86,2.934,5.581,3.467,4.317,4.237,0,0,SEARCHING,2.934,0.800,0.007,-0.052
20:19:16.125,SEARCHING,32.278,0.628,1.696,0.00,0.00,-6.04,2.934,5.448,3.415,4.237,4.237,0,0,SEARCHING,2.934,0.800,0.000,0.000
20:19:16.325,SEARCHING,32.373,0.618,1.696,0.00,0.00,-6.04,2.934,5.448,3.365,4.237,4.237,0,0,SEARCHING,2.934,0.800,0.000,0.000
20:19:16.524,SEARCHING,32.468,0.608,1.696,0.00,0.00,-6.04,2.934,5.200,3.316,4.317,4.086,0,0,SEARCHING,2.934,0.800,0.020,0.000
20:19:16.727,SEARCHING,32.564,0.598,1.698,0.00,0.00,-6.04,2.896,5.200,3.223,4.237,4.317,0,0,SEARCHING,2.896,0.800,-0.007,0.000
20:19:16.926,SEARCHING,32.659,0.588,1.697,0.00,0.00,-6.04,2.860,5.085,3.178,4.237,4.237,0,0,SEARCHING,2.860,0.800,0.000,0.000
20:19:17.126,SEARCHING,32.755,0.578,1.699,0.00,0.00,-6.04,2.860,5.085,3.134,4.237,4.237,0,0,SEARCHING,2.860,0.800,0.000,0.000
20:19:17.328,SEARCHING,32.850,0.567,1.699,0.00,0.00,-6.04,2.825,4.974,3.051,4.237,4.237,0,0,SEARCHING,2.825,0.800,0.000,0.000
20:19:17.528,SEARCHING,32.946,0.557,1.699,0.00,0.00,-6.04,2.825,4.868,3.051,4.237,4.237,0,0,SEARCHING,2.825,0.800,0.000,0.000
20:19:17.729,SEARCHING,33.041,0.547,1.699,0.00,0.00,-6.04,2.825,4.767,3.051,4.237,4.237,0,0,SEARCHING,2.825,0.800,0.000,0.000
20:19:17.929,SEARCHING,33.137,0.537,1.699,0.00,0.00,-6.04,2.790,4.767,3.011,4.317,4.317,0,0,SEARCHING,2.790,0.800,0.000,0.000
20:19:18.131,SEARCHING,33.232,0.527,1.699,0.00,0.00,-6.04,2.790,4.670,2.972,4.317,4.237,0,0,SEARCHING,2.790,0.800,0.007,0.000
20:19:18.331,SEARCHING,33.328,0.517,1.700,0.00,0.00,-6.04,2.724,4.576,2.972,4.317,4.237,0,0,SEARCHING,2.724,0.800,0.007,0.000
20:19:18.531,SEARCHING,33.423,0.507,1.702,0.00,0.00,-6.04,2.860,4.487,2.934,4.317,4.237,0,0,SEARCHING,2.860,0.800,0.007,0.000
20:19:18.731,SEARCHING,33.519,0.497,1.703,0.00,0.00,-6.04,3.051,4.400,2.896,4.317,4.237,0,0,SEARCHING,2.896,0.800,0.007,0.000
20:19:18.932,SEARCHING,33.614,0.487,1.704,0.00,0.00,-6.04,3.269,4.317,2.896,4.317,4.237,0,0,SEARCHING,2.896,0.800,0.007,0.000
20:19:19.134,SEARCHING,33.710,0.477,1.706,0.00,0.00,-5.83,3.632,4.237,2.860,4.237,4.160,0,0,SEARCHING,2.860,0.800,0.007,0.074
20:19:19.334,SEARCHING,33.805,0.467,1.707,0.00,0.00,-5.38,3.520,4.086,2.934,4.086,4.086,0,0,SEARCHING,2.934,0.800,0.000,0.057
20:19:19.534,SEARCHING,33.901,0.458,1.707,0.00,0.00,-4.97,3.467,4.014,2.896,4.086,4.014,0,0,SEARCHING,2.896,0.800,0.007,0.057
20:19:19.736,SEARCHING,33.996,0.450,1.707,0.00,0.00,-4.58,3.467,3.878,2.934,3.945,3.945,0,0,SEARCHING,2.934,0.800,0.000,0.052
20:19:19.935,SEARCHING,34.092,0.443,1.707,0.00,0.00,-4.40,3.365,3.814,2.896,3.814,3.814,0,0,SEARCHING,2.896,0.800,0.000,0.000
20:19:20.136,SEARCHING,34.188,0.436,1.708,0.00,0.00,-4.40,3.316,3.751,2.896,3.751,3.751,0,0,SEARCHING,2.896,0.800,0.000,0.000
20:19:20.336,SEARCHING,34.284,0.428,1.708,0.00,0.00,-4.40,3.223,3.632,2.896,3.632,3.691,0,0,SEARCHING,2.896,0.800,-0.007,0.000
20:19:20.537,SEARCHING,34.379,0.421,1.707,0.00,0.00,-4.40,3.134,3.575,2.825,3.575,3.575,0,0,SEARCHING,2.825,0.800,0.000,0.000
20:19:20.739,SEARCHING,34.475,0.413,1.707,0.00,0.00,-4.40,3.051,3.520,2.825,3.520,3.520,0,0,SEARCHING,2.825,0.800,0.000,0.000
20:19:20.938,SEARCHING,34.571,0.406,1.707,0.00,0.00,-4.40,2.972,3.415,2.825,3.415,3.415,0,0,SEARCHING,2.825,0.800,0.000,0.000
20:19:21.139,SEARCHING,34.666,0.399,1.707,0.00,0.00,-4.40,2.934,3.316,2.790,3.316,3.316,0,0,SEARCHING,2.790,0.800,0.000,0.000
20:19:21.339,SEARCHING,34.762,0.391,1.707,0.00,0.00,-4.40,2.860,3.223,2.724,3.223,3.269,0,0,SEARCHING,2.724,0.800,-0.007,0.000
20:19:21.540,SEARCHING,34.858,0.384,1.707,0.00,0.00,-4.40,2.757,3.134,2.724,3.134,3.134,0,0,SEARCHING,2.724,0.800,0.000,0.000
20:19:21.740,SEARCHING,34.954,0.377,1.707,0.00,0.00,-4.40,2.692,3.051,2.630,3.051,3.051,0,0,SEARCHING,2.630,0.800,0.000,0.000
20:19:21.941,SEARCHING,35.049,0.369,1.707,0.00,0.00,-4.40,2.630,2.972,2.542,2.934,2.934,0,0,SEARCHING,2.542,0.800,0.000,0.000
20:19:22.141,SEARCHING,35.145,0.362,1.707,0.00,0.00,-4.40,2.542,2.860,2.434,2.860,2.860,0,0,SEARCHING,2.434,0.800,0.000,0.000
20:19:22.342,SEARCHING,35.241,0.355,1.707,0.00,0.00,-4.40,2.460,2.825,2.359,2.790,2.825,0,0,SEARCHING,2.359,0.800,-0.007,0.000
20:19:22.542,SEARCHING,35.336,0.347,1.706,0.00,0.00,-4.40,2.384,2.724,2.288,2.724,2.724,0,0,SEARCHING,2.288,0.800,0.000,0.000
20:19:22.744,SEARCHING,35.432,0.340,1.707,0.00,0.00,-4.40,2.311,2.630,2.200,2.630,2.630,0,0,SEARCHING,2.200,0.800,0.000,0.000
20:19:22.944,SEARCHING,35.528,0.332,1.707,0.00,0.00,-4.40,2.243,2.514,2.200,2.514,2.542,0,0,SEARCHING,2.200,0.800,-0.007,0.000
20:19:23.145,SEARCHING,35.623,0.325,1.706,0.00,0.00,-4.40,2.138,2.434,2.138,2.434,2.434,0,0,SEARCHING,2.138,0.779,0.000,0.000
20:19:23.345,SEARCHING,35.716,0.318,1.706,0.00,0.00,-4.40,2.080,2.359,2.099,2.359,2.359,0,0,SEARCHING,2.080,0.755,0.000,0.000
20:19:23.545,SEARCHING,35.805,0.311,1.705,0.00,0.00,-4.40,2.007,2.288,2.025,2.288,2.288,0,0,SEARCHING,2.007,0.732,0.000,0.000
20:19:23.746,SEARCHING,35.892,0.304,1.705,0.00,0.00,-4.40,1.939,2.200,1.990,2.200,2.200,0,0,SEARCHING,1.939,0.704,0.000,0.000
20:19:23.946,SEARCHING,35.976,0.298,1.705,0.00,0.00,-4.40,1.860,2.119,1.956,2.119,2.119,0,0,SEARCHING,1.860,0.678,0.000,0.000
20:19:24.147,SEARCHING,36.056,0.292,1.705,0.00,0.00,-4.40,1.802,2.043,1.923,2.043,2.043,0,0,SEARCHING,1.802,0.654,0.000,0.000
20:19:24.348,SEARCHING,36.133,0.286,1.705,0.00,0.00,-4.40,1.747,1.990,1.891,1.973,1.990,0,0,SEARCHING,1.747,0.637,-0.007,0.000
20:19:24.548,SEARCHING,36.209,0.280,1.706,0.00,0.00,-4.58,1.682,1.907,1.845,1.923,1.907,0,0,SEARCHING,1.682,0.610,0.007,-0.052
20:19:24.751,SEARCHING,36.281,0.274,1.706,0.00,0.00,-4.99,1.611,1.845,1.816,1.831,1.845,0,0,SEARCHING,1.611,0.590,-0.007,-0.070
20:19:26.211,SEARCHING,36.346,0.268,1.705,0.00,0.00,-5.43,1.600,1.831,1.816,1.816,1.831,0,0,SEARCHING,1.600,0.586,-0.007,-0.074
20:19:26.249,SEARCHING,36.381,0.265,1.704,0.00,0.00,-5.68,1.546,1.760,1.760,1.774,1.760,0,0,SEARCHING,1.546,0.563,0.007,-0.079
20:19:26.414,SEARCHING,36.447,0.258,1.705,0.00,0.00,-6.25,1.467,1.695,1.695,1.695,1.695,0,0,SEARCHING,1.467,0.542,0.000,-0.092
20:19:26.611,SEARCHING,36.511,0.251,1.705,0.00,0.00,-6.90,1.439,1.646,1.670,1.658,1.646,0,0,SEARCHING,1.439,0.527,0.007,-0.096
20:19:26.810,SEARCHING,36.573,0.243,1.705,0.00,0.00,-7.59,1.395,1.589,1.623,1.600,1.600,0,0,SEARCHING,1.395,0.508,0.000,-0.101
20:19:27.012,SEARCHING,36.634,0.234,1.705,0.00,0.00,-8.31,1.338,1.546,1.567,1.557,1.546,0,0,SEARCHING,1.338,0.495,0.007,-0.109
20:19:27.214,SEARCHING,36.692,0.225,1.707,0.00,0.00,-9.09,1.293,1.505,1.525,1.505,1.505,0,0,SEARCHING,1.293,0.482,0.000,-0.118
20:19:27.413,SEARCHING,36.748,0.216,1.706,0.00,0.00,-9.92,1.250,1.457,1.476,1.457,1.457,0,0,SEARCHING,1.250,0.466,0.000,-0.122
20:19:27.614,SEARCHING,36.803,0.206,1.706,0.00,0.00,-10.79,1.204,1.421,1.439,1.421,1.412,0,0,SEARCHING,1.204,0.455,0.007,-0.135
20:19:27.814,SEARCHING,36.856,0.196,1.706,0.00,0.00,-11.72,1.167,1.378,1.387,1.378,1.387,0,0,SEARCHING,1.167,0.441,-0.007,-0.135
20:19:28.014,SEARCHING,36.908,0.185,1.706,0.00,0.00,-12.67,1.127,1.338,1.338,1.338,1.338,0,0,SEARCHING,1.127,0.428,0.000,-0.140
20:19:28.214,SEARCHING,36.957,0.173,1.707,0.00,0.00,-13.65,1.090,1.300,1.300,1.308,1.300,0,0,SEARCHING,1.090,0.416,0.007,-0.149
20:19:28.415,SEARCHING,37.006,0.161,1.707,0.00,0.00,-14.67,1.054,1.271,1.257,1.271,1.271,0,0,SEARCHING,1.054,0.407,0.000,-0.153
20:19:28.615,SEARCHING,37.052,0.148,1.707,0.00,0.00,-15.72,1.026,1.230,1.217,1.237,1.237,0,0,SEARCHING,1.026,0.394,0.000,-0.153
20:19:28.816,SEARCHING,37.097,0.135,1.708,0.00,0.00,-16.79,0.995,1.204,1.173,1.204,1.204,0,0,SEARCHING,0.995,0.385,0.000,-0.153
20:19:29.016,SEARCHING,37.141,0.122,1.708,0.00,0.00,-17.85,0.961,1.173,1.133,1.179,1.179,0,0,SEARCHING,0.961,0.375,0.000,-0.157
20:19:29.218,SEARCHING,37.184,0.108,1.709,0.00,0.00,-18.94,0.934,1.150,1.095,1.150,1.150,0,0,SEARCHING,0.934,0.368,0.000,-0.157
20:19:29.418,SEARCHING,37.225,0.093,1.709,0.00,0.00,-20.02,0.904,1.122,1.054,1.122,1.122,0,0,SEARCHING,0.904,0.359,0.000,-0.157
20:19:29.619,SEARCHING,37.265,0.078,1.709,0.00,0.00,-21.08,0.883,1.095,1.022,1.095,1.100,0,0,SEARCHING,0.883,0.350,-0.007,-0.153
20:19:29.819,SEARCHING,37.304,0.063,1.707,0.00,0.00,-22.15,0.851,1.069,0.974,1.069,1.069,0,0,SEARCHING,0.851,0.342,0.000,-0.149
20:19:30.019,SEARCHING,37.342,0.047,1.707,0.00,0.00,-23.17,0.832,1.050,0.949,1.054,1.050,0,0,SEARCHING,0.832,0.336,0.007,-0.149
20:19:30.221,SEARCHING,37.379,0.031,1.708,0.00,0.00,-24.19,0.803,1.022,0.904,1.026,1.026,0,0,SEARCHING,0.803,0.327,0.000,-0.140
20:19:30.421,SEARCHING,37.414,0.015,1.708,0.00,0.00,-25.16,0.786,1.008,0.883,1.008,1.012,0,0,SEARCHING,0.786,0.323,-0.007,-0.140
20:19:30.667,SEARCHING,37.438,0.004,1.707,0.00,0.00,-25.71,0.763,0.982,0.841,0.982,0.982,0,0,SEARCHING,0.763,0.314,0.000,-0.061
20:19:30.869,SEARCHING,37.449,-0.002,1.707,0.00,0.00,-25.86,0.768,0.986,0.851,0.986,0.986,0,0,SEARCHING,0.768,0.316,0.000,-0.063
20:19:31.081,SEARCHING,37.455,-0.005,1.707,0.00,0.00,-25.93,0.753,0.974,0.835,0.970,0.970,0,0,SEARCHING,0.753,0.312,0.000,-0.066
20:19:31.279,SEARCHING,37.455,-0.005,1.707,0.00,0.00,-25.93,0.750,0.970,0.835,0.970,0.970,0,0,SEARCHING,0.750,0.310,0.000,-0.068
20:19:31.478,SEARCHING,37.460,-0.007,1.707,0.00,0.00,-26.01,0.760,0.978,0.841,0.978,0.978,0,0,SEARCHING,0.760,0.313,0.000,-0.063
20:19:31.671,SEARCHING,37.466,-0.010,1.708,0.00,0.00,-26.08,0.755,0.974,0.838,0.974,0.974,0,0,SEARCHING,0.755,0.312,0.000,-0.066
20:19:31.863,SEARCHING,37.477,-0.015,1.708,0.00,0.00,-26.23,0.750,0.970,0.832,0.970,0.970,0,0,SEARCHING,0.750,0.310,0.000,-0.066
20:19:32.070,SEARCHING,37.488,-0.021,1.708,0.00,0.00,-26.38,0.741,0.957,0.820,0.957,0.953,0,0,SEARCHING,0.741,0.306,0.007,-0.066
20:19:32.293,SEARCHING,37.499,-0.026,1.709,0.00,0.00,-26.53,0.731,0.946,0.809,0.946,0.946,0,0,SEARCHING,0.731,0.303,0.000,-0.066
20:19:32.500,SEARCHING,37.499,-0.026,1.709,0.00,0.00,-26.53,0.722,0.934,0.795,0.934,0.934,0,0,SEARCHING,0.722,0.299,0.000,-0.063
20:19:32.679,SEARCHING,37.515,-0.034,1.709,0.00,0.00,-26.75,0.724,0.938,0.800,0.938,0.938,0,0,SEARCHING,0.724,0.300,0.000,-0.066
20:19:32.870,SEARCHING,37.526,-0.040,1.709,0.00,0.00,-26.90,0.711,0.923,0.784,0.923,0.923,0,0,SEARCHING,0.711,0.295,0.000,-0.066
20:19:33.085,SEARCHING,37.536,-0.045,1.709,0.00,0.00,-27.05,0.706,0.915,0.778,0.915,0.915,0,0,SEARCHING,0.706,0.293,0.000,-0.066
20:19:33.272,SEARCHING,37.542,-0.048,1.709,0.00,0.00,-27.13,0.698,0.904,0.765,0.904,0.904,0,0,SEARCHING,0.698,0.289,0.000,-0.063
20:19:33.481,SEARCHING,37.552,-0.053,1.708,0.00,0.00,-27.27,0.691,0.897,0.758,0.897,0.901,0,0,SEARCHING,0.691,0.287,-0.007,-0.063
20:19:33.680,SEARCHING,37.562,-0.058,1.708,0.00,0.00,-27.42,0.687,0.894,0.753,0.894,0.894,0,0,SEARCHING,0.687,0.286,0.000,-0.063
20:19:33.871,SEARCHING,37.572,-0.064,1.707,0.00,0.00,-27.56,0.683,0.887,0.745,0.887,0.887,0,0,SEARCHING,0.683,0.284,0.000,-0.061
20:19:34.080,SEARCHING,37.582,-0.069,1.707,0.00,0.00,-27.70,0.677,0.880,0.738,0.880,0.880,0,0,SEARCHING,0.677,0.282,0.000,-0.061
20:19:34.271,SEARCHING,37.592,-0.074,1.707,0.00,0.00,-27.84,0.665,0.867,0.722,0.867,0.867,0,0,SEARCHING,0.665,0.277,0.000,-0.059
20:19:34.474,SEARCHING,37.602,-0.079,1.707,0.00,0.00,-27.98,0.658,0.860,0.715,0.860,0.857,0,0,SEARCHING,0.658,0.275,0.007,-0.061
20:19:34.688,SEARCHING,37.612,-0.084,1.708,0.00,0.00,-28.11,0.658,0.860,0.713,0.860,0.857,0,0,SEARCHING,0.658,0.275,0.007,-0.059
20:19:34.869,SEARCHING,37.612,-0.084,1.710,0.00,0.00,-28.11,0.650,0.854,0.702,0.851,0.847,0,0,SEARCHING,0.650,0.273,0.007,-0.057
20:19:35.072,SEARCHING,37.617,-0.087,1.711,0.00,0.00,-28.18,0.652,0.857,0.704,0.854,0.851,0,0,SEARCHING,0.652,0.274,0.007,-0.057
20:19:35.274,SEARCHING,37.621,-0.090,1.712,0.00,0.00,-28.25,0.641,0.841,0.691,0.835,0.835,0,0,SEARCHING,0.641,0.269,0.000,-0.057
20:19:35.475,SEARCHING,37.626,-0.092,1.714,0.00,0.00,-28.31,0.645,0.851,0.698,0.844,0.844,0,0,SEARCHING,0.645,0.272,0.000,-0.059
20:19:35.673,SEARCHING,37.636,-0.097,1.714,0.00,0.00,-28.45,0.643,0.844,0.693,0.838,0.838,0,0,SEARCHING,0.643,0.270,0.000,-0.057
20:19:35.880,SEARCHING,37.640,-0.100,1.715,0.00,0.00,-28.51,0.637,0.832,0.685,0.832,0.826,0,0,SEARCHING,0.637,0.266,0.013,-0.055
20:19:36.083,SEARCHING,37.645,-0.102,1.716,0.00,0.00,-28.57,0.636,0.829,0.683,0.826,0.826,0,0,SEARCHING,0.636,0.265,0.000,-0.055
20:19:36.273,SEARCHING,37.654,-0.108,1.716,0.00,0.00,-28.70,0.627,0.823,0.673,0.820,0.820,0,0,SEARCHING,0.627,0.263,0.000,-0.055
20:19:36.471,SEARCHING,37.664,-0.113,1.715,0.00,0.00,-28.82,0.618,0.817,0.665,0.814,0.814,0,0,SEARCHING,0.618,0.262,0.000,-0.057
20:19:36.672,SEARCHING,37.668,-0.115,1.715,0.00,0.00,-28.88,0.620,0.817,0.667,0.814,0.814,0,0,SEARCHING,0.620,0.262,0.000,-0.057
20:19:36.901,SEARCHING,37.673,-0.118,1.715,0.00,0.00,-28.95,0.617,0.814,0.663,0.811,0.811,0,0,SEARCHING,0.617,0.261,0.000,-0.057
20:19:37.085,SEARCHING,37.677,-0.120,1.715,0.00,0.00,-29.02,0.613,0.811,0.659,0.806,0.809,0,0,SEARCHING,0.613,0.260,-0.007,-0.057
20:19:37.279,INSPECTING,37.686,-0.125,1.714,0.00,0.00,-29.15,0.602,0.797,0.645,0.795,0.797,0,0,SEARCHING,0.602,0.000,0.000,0.000
20:19:37.476,INSPECTING,37.689,-0.127,1.605,0.00,0.00,-29.15,0.601,0.792,0.643,0.792,0.789,0,0,BOTTOM,0.789,0.150,-1.000,0.000
20:19:37.677,INSPECTING,37.692,-0.128,1.402,0.00,0.00,-29.15,0.605,0.792,0.645,0.797,0.792,0,0,BOTTOM,0.792,0.150,-1.000,0.000
20:19:37.880,INSPECTING,37.697,-0.131,1.206,0.00,0.00,-29.15,0.599,0.781,0.639,0.784,0.778,0,0,BOTTOM,0.778,0.150,-1.000,0.000
20:19:38.077,INSPECTING,37.699,-0.132,0.964,0.00,0.00,-29.15,0.596,0.776,0.632,0.781,0.778,0,0,TOP,0.781,0.150,1.000,0.000
20:19:38.279,INSPECTING,37.702,-0.134,1.126,0.00,0.00,-29.15,0.594,0.778,0.634,0.776,0.773,0,0,TOP,0.776,0.150,1.000,0.000
20:19:38.489,INSPECTING,37.705,-0.135,1.324,0.00,0.00,-29.15,0.594,0.778,0.634,0.781,0.778,0,0,TOP,0.781,0.150,1.000,0.000
20:19:38.686,INSPECTING,37.710,-0.138,1.523,0.00,0.00,-27.89,0.581,0.753,0.634,0.760,0.750,0,0,ANTI_HANG_TOP_LEFT,0.760,0.150,1.000,1.100
20:19:38.886,INSPECTING,37.715,-0.141,1.728,0.00,0.00,-27.89,0.576,0.743,0.637,0.743,0.741,0,0,ANTI_HANG_TOP_RIGHT,0.743,0.150,1.000,-1.100
20:19:39.084,INSPECTING,37.721,-0.144,1.926,0.00,0.00,-30.41,0.582,0.765,0.622,0.763,0.770,0,0,ANTI_HANG_TOP_RIGHT,0.763,0.150,1.000,-1.100
20:19:39.292,INSPECTING,37.723,-0.145,2.119,0.00,0.00,-31.67,0.605,0.717,0.591,0.720,0.720,0,0,ANTI_HANG_BOTTOM_LEFT,0.720,0.150,-1.000,1.100
20:19:39.488,INSPECTING,37.728,-0.149,2.002,0.00,0.00,-29.15,0.584,0.763,0.612,0.765,0.763,0,0,ANTI_HANG_BOTTOM_LEFT,0.765,0.150,-1.000,1.100
20:19:39.697,INSPECTING,37.734,-0.151,1.800,0.00,0.00,-26.63,0.565,0.741,0.618,0.738,0.741,0,0,ANTI_HANG_BOTTOM_LEFT,0.741,0.150,-1.000,1.100
20:19:39.889,INSPECTING,37.739,-0.154,1.608,0.00,0.00,-26.63,0.542,0.687,0.634,0.687,0.685,0,0,ANTI_HANG_BOTTOM_RIGHT,0.685,0.150,-1.000,-1.100
20:19:40.090,INSPECTING,37.744,-0.157,1.409,0.00,0.00,-29.15,0.565,0.748,0.597,0.743,0.745,0,0,ANTI_HANG_BOTTOM_RIGHT,0.745,0.150,-1.000,-1.100
20:19:40.287,INSPECTING,37.750,-0.160,1.195,0.00,0.00,-31.67,0.566,0.743,0.594,0.743,0.743,0,0,ANTI_HANG_TOP,0.743,0.150,1.000,0.000
