timestamp,state,x,y,z,roll_deg,pitch_deg,yaw_deg,dist_left,dist_center,dist_right,dist_top,dist_bottom,dtof_alert,collision_event,best_dir,max_space,cmd_vx,cmd_vz,cmd_yaw
19:51:48.271,SEARCHING,0.000,0.000,1.000,0.00,0.00,0.00,1.150,1.116,2.384,1.111,1.116,0,0,SEARCHING,1.111,0.357,-0.010,-0.450
19:51:48.472,SEARCHING,0.039,-0.001,1.000,0.00,0.00,-2.84,1.074,1.079,2.243,1.069,1.074,0,0,SEARCHING,1.069,0.345,-0.010,-0.485
19:51:48.672,SEARCHING,0.108,-0.007,1.000,0.00,0.00,-8.26,0.974,1.144,2.007,1.133,1.138,0,0,SEARCHING,0.974,0.366,-0.010,-0.529
19:51:48.874,SEARCHING,0.197,-0.026,1.000,0.00,0.00,-15.77,0.870,2.630,1.774,2.661,2.487,0,0,SEARCHING,0.870,0.800,0.058,-0.586
19:51:49.066,SEARCHING,0.296,-0.058,1.000,0.00,0.00,-20.76,0.867,2.243,1.578,2.243,2.243,0,0,SEARCHING,0.867,0.718,0.000,-0.520
19:51:49.274,SEARCHING,0.460,-0.133,1.000,0.00,0.00,-27.63,2.661,1.891,1.378,1.891,1.891,0,0,SEARCHING,1.378,0.605,0.000,0.350
19:51:49.472,SEARCHING,0.543,-0.174,1.000,0.00,0.00,-24.63,2.661,1.876,1.346,1.860,1.876,0,0,SEARCHING,1.346,0.600,-0.010,0.367
19:51:49.673,SEARCHING,0.652,-0.220,1.000,0.00,0.00,-20.49,2.825,1.939,1.346,1.923,1.939,0,0,SEARCHING,1.346,0.621,-0.010,0.389
19:51:49.877,SEARCHING,0.769,-0.259,1.000,0.00,0.00,-16.07,3.051,1.939,1.362,1.939,1.956,0,0,SEARCHING,1.362,0.621,-0.010,0.406
19:51:50.078,SEARCHING,0.890,-0.289,1.000,0.00,0.00,-11.45,3.316,2.061,1.412,2.025,2.043,0,0,SEARCHING,1.412,0.660,-0.010,0.406
19:51:50.279,SEARCHING,1.018,-0.310,1.000,0.00,0.00,-6.77,3.365,2.138,1.467,2.119,2.119,0,0,SEARCHING,1.467,0.684,0.000,0.385
19:51:50.479,SEARCHING,1.189,-0.323,1.000,0.00,0.00,-1.24,3.575,2.288,1.505,2.335,2.288,0,0,SEARCHING,1.505,0.732,0.019,0.385
19:51:50.684,SEARCHING,1.298,-0.322,1.000,0.00,0.00,2.09,3.945,2.600,1.536,2.542,2.434,0,0,SEARCHING,1.536,0.800,0.038,0.398
19:51:50.886,SEARCHING,1.493,-0.306,1.000,0.00,0.00,7.74,4.400,2.790,1.611,2.790,2.460,0,0,SEARCHING,1.611,0.800,0.106,0.393
19:51:51.075,SEARCHING,1.611,-0.287,1.000,0.00,0.00,11.09,6.730,2.724,1.682,2.724,2.460,0,0,SEARCHING,1.682,0.800,0.087,0.446
19:51:51.287,SEARCHING,1.767,-0.250,1.000,0.00,0.00,16.13,7.151,2.934,1.956,2.934,2.487,0,0,SEARCHING,1.956,0.800,0.135,0.371
19:51:51.488,SEARCHING,1.919,-0.200,1.000,0.00,0.00,20.64,6.934,3.316,2.200,3.316,2.460,0,0,SEARCHING,2.200,0.800,0.231,0.310
19:51:51.686,SEARCHING,2.067,-0.139,1.000,0.00,0.00,24.44,5.200,3.575,2.025,3.632,2.460,0,0,SEARCHING,2.025,0.800,0.288,0.302
19:51:51.880,SEARCHING,2.210,-0.069,1.000,0.00,0.00,27.88,4.576,5.867,2.200,5.867,2.434,0,0,SEARCHING,2.200,0.800,0.529,0.236
19:51:52.083,SEARCHING,2.350,0.009,1.000,0.00,0.00,30.67,4.086,6.356,2.311,6.022,2.460,0,0,SEARCHING,2.311,0.800,0.529,0.188
19:51:52.281,SEARCHING,2.486,0.093,1.000,0.00,0.00,32.95,3.814,6.934,2.434,6.022,2.434,0,0,SEARCHING,2.434,0.800,0.538,0.149
19:51:52.482,SEARCHING,2.619,0.182,1.000,0.00,0.00,34.79,3.691,6.934,2.514,6.022,2.460,0,0,SEARCHING,2.460,0.800,0.529,0.127
19:51:52.682,SEARCHING,2.749,0.275,1.000,0.00,0.00,36.37,3.575,6.538,2.661,6.022,2.460,0,0,SEARCHING,2.460,0.800,0.529,0.096
19:51:52.886,SEARCHING,2.877,0.371,1.000,0.00,0.00,37.58,3.467,6.356,2.757,6.022,2.460,0,0,SEARCHING,2.460,0.800,0.529,0.074
19:51:53.086,SEARCHING,3.003,0.470,1.000,0.00,0.00,38.55,3.365,6.538,4.014,6.022,2.460,0,0,SEARCHING,2.460,0.800,0.529,0.000
19:51:53.288,SEARCHING,3.128,0.570,1.000,0.00,0.00,38.55,3.269,6.538,4.014,6.022,2.460,0,0,SEARCHING,2.460,0.800,0.529,-0.057
19:51:53.488,SEARCHING,3.285,0.694,1.000,0.00,0.00,37.77,3.223,6.184,3.945,6.022,2.434,0,0,SEARCHING,2.434,0.800,0.538,-0.057
19:51:53.694,SEARCHING,3.381,0.767,1.000,0.00,0.00,37.27,3.223,6.184,3.814,5.867,2.409,0,0,SEARCHING,2.409,0.800,0.538,0.000
19:51:53.885,SEARCHING,3.508,0.863,1.000,0.00,0.00,36.94,3.178,5.867,3.814,5.867,2.434,0,0,SEARCHING,2.434,0.800,0.529,-0.052
19:51:54.108,SEARCHING,3.668,0.983,1.000,0.00,0.00,36.45,3.134,5.720,3.751,5.581,2.266,0,0,SEARCHING,2.266,0.800,0.577,-0.052
19:51:54.289,SEARCHING,3.765,1.054,1.000,0.00,0.00,35.99,3.051,5.321,3.691,5.321,2.460,0,0,SEARCHING,2.460,0.800,0.481,-0.057
19:51:54.495,SEARCHING,3.895,1.147,1.000,0.00,0.00,35.39,3.051,5.200,3.575,5.200,2.409,0,0,SEARCHING,2.409,0.800,0.490,0.000
19:51:54.687,SEARCHING,4.058,1.263,1.000,0.00,0.00,35.21,3.223,5.321,3.575,5.321,2.487,0,0,SEARCHING,2.487,0.800,0.471,0.000
19:51:54.889,SEARCHING,4.156,1.332,1.000,0.00,0.00,35.09,3.365,5.200,3.520,5.200,2.460,0,0,SEARCHING,2.460,0.800,0.471,0.000
19:51:55.089,SEARCHING,4.287,1.424,1.000,0.00,0.00,35.09,3.520,4.767,3.575,4.767,2.487,0,0,SEARCHING,2.487,0.800,0.423,0.000
19:51:55.292,SEARCHING,4.418,1.516,1.000,0.00,0.00,35.09,3.575,4.767,3.467,4.767,2.460,0,0,SEARCHING,2.460,0.800,0.433,0.000
19:51:55.481,SEARCHING,4.549,1.608,1.000,0.00,0.00,35.09,3.632,4.670,3.415,4.670,2.434,0,0,SEARCHING,2.434,0.800,0.433,0.000
19:51:55.691,SEARCHING,4.680,1.700,1.000,0.00,0.00,35.09,3.751,4.487,3.365,4.576,2.434,0,0,SEARCHING,2.434,0.800,0.423,0.000
19:51:55.893,SEARCHING,4.811,1.792,1.000,0.00,0.00,35.09,3.575,4.317,3.316,4.400,2.487,0,0,SEARCHING,2.487,0.800,0.385,0.000
19:51:56.088,SEARCHING,4.942,1.884,1.000,0.00,0.00,35.09,3.520,4.160,3.269,4.086,2.460,0,0,SEARCHING,2.460,0.800,0.356,0.000
19:51:56.291,SEARCHING,5.073,1.976,1.000,0.00,0.00,35.09,3.415,4.086,3.092,4.014,2.384,0,0,SEARCHING,2.384,0.800,0.375,0.000
19:51:56.499,SEARCHING,5.204,2.068,1.000,0.00,0.00,35.09,3.316,3.945,3.134,3.945,2.434,0,0,SEARCHING,2.434,0.800,0.346,0.000
19:51:56.688,SEARCHING,5.335,2.160,1.000,0.00,0.00,35.09,3.223,3.751,3.051,3.814,2.460,0,0,SEARCHING,2.460,0.800,0.317,0.000
19:51:56.896,SEARCHING,5.465,2.252,1.000,0.00,0.00,35.09,3.223,3.632,3.011,3.632,2.460,0,0,SEARCHING,2.460,0.800,0.288,0.000
19:51:57.093,SEARCHING,5.596,2.344,1.000,0.00,0.00,35.09,3.178,3.520,2.972,3.520,2.460,0,0,SEARCHING,2.460,0.800,0.269,0.000
19:51:57.301,SEARCHING,5.727,2.436,1.000,0.00,0.00,35.09,3.415,3.365,2.934,3.415,2.460,0,0,SEARCHING,2.460,0.800,0.250,0.000
19:51:57.491,SEARCHING,5.858,2.528,1.000,0.00,0.00,35.12,3.632,3.223,2.860,3.269,2.434,0,0,SEARCHING,2.434,0.800,0.231,0.074
19:51:57.700,SEARCHING,6.021,2.644,1.000,0.00,0.00,36.08,3.632,3.178,2.860,3.223,2.487,0,0,SEARCHING,2.487,0.800,0.202,0.074
19:51:57.894,SEARCHING,6.150,2.739,1.000,0.00,0.00,36.89,3.467,3.223,2.790,3.178,2.460,0,0,SEARCHING,2.460,0.800,0.202,0.070
19:51:58.108,SEARCHING,6.245,2.812,1.000,0.00,0.00,37.48,3.415,3.178,2.630,3.223,2.460,0,0,SEARCHING,2.460,0.800,0.212,0.087
19:51:58.293,SEARCHING,6.372,2.910,1.000,0.00,0.00,38.44,3.269,3.316,2.434,3.269,2.434,0,0,SEARCHING,2.434,0.800,0.231,0.105
19:51:58.494,SEARCHING,6.527,3.036,1.000,0.00,0.00,39.95,3.223,3.365,2.311,3.316,2.487,0,0,SEARCHING,2.311,0.800,0.221,0.122
19:51:58.698,SEARCHING,6.618,3.114,1.000,0.00,0.00,41.00,3.092,3.467,2.061,3.520,2.487,0,0,SEARCHING,2.061,0.800,0.260,0.162
19:51:58.898,SEARCHING,6.738,3.220,1.000,0.00,0.00,42.72,2.790,3.415,1.939,3.632,2.487,0,0,SEARCHING,1.939,0.800,0.279,0.157
19:51:59.120,SEARCHING,6.854,3.331,1.000,0.00,0.00,44.52,2.600,3.415,1.802,3.691,2.487,0,0,SEARCHING,1.802,0.800,0.288,0.170
19:51:59.318,SEARCHING,6.994,3.473,1.000,0.00,0.00,46.80,2.434,3.269,1.973,3.467,2.460,0,0,SEARCHING,1.973,0.800,0.260,0.096
19:51:59.505,SEARCHING,7.075,3.561,1.000,0.00,0.00,47.75,2.335,3.223,1.973,3.415,2.487,0,0,SEARCHING,1.973,0.800,0.240,0.079
19:51:59.706,SEARCHING,7.182,3.681,1.000,0.00,0.00,48.64,2.266,3.092,2.080,3.223,2.434,0,0,SEARCHING,2.080,0.800,0.221,0.000
19:51:59.911,SEARCHING,7.287,3.801,1.000,0.00,0.00,48.98,2.200,2.934,2.043,3.134,2.434,0,0,SEARCHING,2.043,0.800,0.202,0.000
19:52:00.111,SEARCHING,7.418,3.952,1.000,0.00,0.00,48.98,2.222,2.757,2.043,2.860,2.460,0,0,SEARCHING,2.043,0.800,0.125,0.000
19:52:00.308,SEARCHING,7.523,4.073,1.000,0.00,0.00,49.29,2.222,2.661,2.043,2.724,2.460,0,0,SEARCHING,2.043,0.800,0.087,0.000
19:52:00.510,SEARCHING,7.601,4.164,1.000,0.00,0.00,49.42,2.179,2.630,2.061,2.630,2.460,0,0,SEARCHING,2.061,0.800,0.058,0.000
19:52:00.707,SEARCHING,7.705,4.286,1.000,0.00,0.00,49.42,2.138,2.409,2.007,2.487,2.487,0,0,SEARCHING,2.007,0.771,0.000,0.000
19:52:00.912,SEARCHING,7.807,4.404,1.000,0.00,0.00,49.42,2.179,2.266,2.043,2.288,2.460,0,0,SEARCHING,2.043,0.725,-0.067,0.000
19:52:01.107,SEARCHING,7.901,4.515,1.000,0.00,0.00,49.42,2.200,1.973,1.973,2.179,2.460,0,0,SEARCHING,1.973,0.631,-0.115,0.052
19:52:01.312,SEARCHING,8.006,4.638,1.000,0.00,0.00,49.78,2.159,1.956,2.043,2.007,2.460,0,0,SEARCHING,1.956,0.626,-0.202,0.000
19:52:01.510,SEARCHING,8.067,4.709,1.000,0.00,0.00,49.78,2.159,1.891,2.061,1.923,2.487,0,0,SEARCHING,1.891,0.605,-0.260,0.000
19:52:01.710,SEARCHING,8.146,4.803,1.000,0.00,0.00,49.78,2.159,1.760,2.061,1.760,2.487,0,0,SEARCHING,1.760,0.563,-0.365,0.000
19:52:01.909,SEARCHING,8.238,4.912,1.000,0.00,0.00,49.78,2.138,1.720,2.043,1.720,2.460,0,0,SEARCHING,1.720,0.551,-0.385,0.000
19:52:02.114,SEARCHING,8.292,4.975,1.000,0.00,0.00,49.78,2.159,1.567,2.043,1.515,2.460,0,0,SEARCHING,1.515,0.502,-0.558,0.000
19:52:02.312,SEARCHING,8.374,5.073,1.000,0.00,0.00,49.78,2.179,1.611,2.007,1.430,2.409,0,0,SEARCHING,1.430,0.516,-0.625,0.000
19:52:02.510,SEARCHING,8.426,5.133,1.000,0.00,0.00,49.78,2.159,3.814,2.061,1.257,2.434,0,0,SEARCHING,1.257,0.800,-0.846,0.000
19:52:02.714,SEARCHING,8.555,5.286,1.000,0.00,0.00,49.78,2.119,3.575,2.061,1.173,2.460,0,0,SEARCHING,1.173,0.800,-0.981,0.000
19:52:02.926,SEARCHING,8.632,5.378,1.000,0.00,0.00,49.78,2.099,3.520,2.061,1.064,2.460,0,0,SEARCHING,1.064,0.800,-1.000,0.000
19:52:03.152,SEARCHING,8.736,5.500,1.000,0.00,0.00,49.78,2.061,3.178,1.990,0.915,2.460,0,0,SEARCHING,0.915,0.800,-1.000,0.000
19:52:03.451,SEARCHING,8.839,5.622,1.000,0.00,0.00,49.78,2.025,3.051,1.939,0.811,2.460,0,0,SEARCHING,0.811,0.800,-1.000,0.000
19:52:03.614,SEARCHING,8.891,5.683,1.000,0.00,0.00,49.78,2.007,3.092,2.025,0.755,2.460,0,0,SEARCHING,0.755,0.800,-1.000,0.000
19:52:03.767,SEARCHING,8.942,5.744,1.000,0.00,0.00,49.78,1.990,2.972,2.630,0.706,2.460,0,0,SEARCHING,0.706,0.800,-1.000,-0.061
19:52:04.076,SEARCHING,9.071,5.897,1.000,0.00,0.00,49.78,1.907,2.724,2.661,0.584,2.487,0,0,SEARCHING,0.584,0.800,-1.000,-0.074
19:52:04.363,SEARCHING,9.201,6.049,1.000,0.00,0.00,49.24,1.923,2.359,2.409,6.356,2.409,0,0,SEARCHING,1.923,0.755,0.567,-0.105
19:52:04.515,SEARCHING,9.359,6.230,1.000,0.00,0.00,48.06,1.923,2.311,2.288,6.022,2.311,0,0,SEARCHING,1.923,0.740,0.586,-0.083
19:52:04.720,SEARCHING,9.566,6.453,1.000,0.00,0.00,46.32,1.939,1.876,1.973,6.022,1.646,0,0,SEARCHING,1.646,0.600,0.971,0.000
19:52:04.918,SEARCHING,9.651,6.543,1.000,0.00,0.00,46.32,1.802,1.760,1.831,6.022,1.646,0,0,SEARCHING,1.646,0.563,0.971,0.000
19:52:05.130,SEARCHING,9.732,6.627,1.000,0.00,0.00,46.32,1.733,1.708,1.747,6.022,1.623,0,0,SEARCHING,1.623,0.546,0.990,0.000
19:52:05.321,SEARCHING,9.808,6.707,1.000,0.00,0.00,46.32,1.623,1.634,1.670,6.022,1.600,0,0,SEARCHING,1.600,0.523,1.000,0.000
19:52:05.558,SEARCHING,9.900,6.803,1.000,0.00,0.00,46.32,1.578,1.589,1.578,5.867,1.496,0,0,SEARCHING,1.496,0.508,1.000,0.000
19:52:05.719,SEARCHING,9.969,6.876,1.000,0.00,0.00,46.32,1.457,1.476,1.467,5.581,1.395,0,0,SEARCHING,1.395,0.472,1.000,0.000
19:52:05.918,SEARCHING,10.034,6.944,1.000,0.00,0.00,46.32,1.421,1.412,1.387,5.867,1.285,0,0,SEARCHING,1.285,0.452,1.000,0.000
19:52:06.117,SEARCHING,10.081,6.993,1.000,0.00,0.00,46.32,1.387,1.330,1.323,5.720,1.211,0,0,SEARCHING,1.211,0.426,1.000,0.000
19:52:06.314,SEARCHING,10.140,7.055,1.000,0.00,0.00,46.32,1.330,1.224,1.230,5.720,1.133,0,0,SEARCHING,1.133,0.392,1.000,0.061
19:52:06.523,SEARCHING,10.195,7.113,1.000,0.00,0.00,46.67,1.230,1.224,1.224,5.581,1.054,0,0,SEARCHING,1.054,0.392,1.000,0.000
19:52:06.762,SEARCHING,10.249,7.170,1.000,0.00,0.00,46.67,1.156,1.257,1.244,5.448,0.970,0,0,SEARCHING,0.970,0.402,1.000,-0.031
19:52:07.053,SEARCHING,10.305,7.229,1.000,0.00,0.00,46.55,1.250,1.217,1.217,5.321,0.923,0,0,SEARCHING,0.923,0.389,1.000,0.000
19:52:07.195,SEARCHING,10.332,7.258,1.000,0.00,0.00,46.39,1.330,1.217,1.230,5.448,0.887,0,0,SEARCHING,0.887,0.389,1.000,0.031
19:52:07.525,SEARCHING,10.387,7.315,1.000,0.00,0.00,46.39,1.264,1.264,1.271,5.448,0.811,0,0,SEARCHING,0.811,0.405,1.000,0.000
19:52:07.683,SEARCHING,10.414,7.343,1.000,0.00,0.00,46.44,1.257,1.338,1.237,5.085,0.743,0,0,SEARCHING,0.743,0.428,1.000,0.000
19:52:08.019,SEARCHING,10.480,7.414,1.000,0.00,0.00,46.83,1.346,1.300,1.278,4.974,0.612,0,0,SEARCHING,0.612,0.416,1.000,0.000
19:52:08.171,SEARCHING,10.521,7.458,1.000,0.00,0.00,46.83,1.244,1.285,1.308,4.974,0.545,0,0,SEARCHING,0.545,0.411,1.000,0.000
19:52:08.469,SEARCHING,10.607,7.549,1.000,0.00,0.00,46.83,1.271,1.237,1.244,4.868,0.472,0,0,SEARCHING,0.472,0.396,1.000,0.000
19:52:08.778,SEARCHING,10.690,7.638,1.000,0.00,0.00,46.83,1.198,1.250,1.264,4.868,0.469,0,0,SEARCHING,0.469,0.400,1.000,0.000
19:52:09.200,SEARCHING,10.801,7.755,1.000,0.00,0.00,46.71,1.338,1.338,1.315,4.576,0.482,0,0,SEARCHING,0.482,0.428,1.000,0.000
19:52:09.393,SEARCHING,10.855,7.813,1.000,0.00,0.00,46.71,1.204,1.250,1.264,4.576,0.466,0,0,SEARCHING,0.466,0.400,1.000,0.000
19:52:09.608,SEARCHING,10.911,7.872,1.000,0.00,0.00,46.23,1.237,1.257,1.230,4.487,0.485,0,0,SEARCHING,0.485,0.402,1.000,0.000
19:52:09.785,SEARCHING,10.970,7.933,1.000,0.00,0.00,45.60,1.237,1.204,1.237,4.317,0.466,0,0,SEARCHING,0.466,0.385,1.000,0.000
19:52:10.044,SEARCHING,11.057,8.022,1.000,0.00,0.00,45.60,1.162,1.278,1.138,4.160,0.471,0,0,SEARCHING,0.471,0.409,1.000,0.000
19:52:10.213,SEARCHING,11.086,8.052,1.000,0.00,0.00,45.60,1.116,1.271,1.105,4.317,0.469,0,0,SEARCHING,0.469,0.407,1.000,0.000
19:52:10.600,SEARCHING,11.182,8.150,1.000,0.00,0.00,45.60,1.244,5.720,2.514,4.086,0.479,0,0,SEARCHING,0.479,0.800,1.000,-0.203
19:52:10.822,SEARCHING,11.252,8.221,1.000,0.00,0.00,45.60,3.365,5.867,1.079,3.945,0.481,0,0,SEARCHING,0.481,0.800,1.000,0.315
19:52:11.052,SEARCHING,11.350,8.321,1.000,0.00,0.00,45.89,3.223,5.867,2.514,3.751,0.468,0,0,SEARCHING,0.468,0.800,1.000,0.044
19:52:11.244,SEARCHING,11.433,8.408,1.000,0.00,0.00,45.92,3.520,5.200,2.335,3.575,0.460,0,0,SEARCHING,0.460,0.800,1.000,0.072
19:52:11.484,SEARCHING,11.575,8.548,1.000,0.00,0.00,44.74,3.316,5.448,2.409,3.467,0.500,0,0,SEARCHING,0.500,0.800,1.000,0.057
19:52:11.698,SEARCHING,11.687,8.663,1.000,0.00,0.00,46.21,3.269,5.720,2.487,3.269,0.483,0,0,SEARCHING,0.483,0.800,1.000,0.048
19:52:11.925,SEARCHING,11.825,8.808,1.000,0.00,0.00,47.07,3.134,6.022,3.178,3.051,0.469,0,0,SEARCHING,0.469,0.800,1.000,0.000
19:52:12.082,SEARCHING,11.933,8.926,1.000,0.00,0.00,47.80,2.972,6.184,3.223,2.896,1.505,0,0,SEARCHING,1.505,0.800,0.702,0.000
19:52:12.292,SEARCHING,12.093,9.105,1.000,0.00,0.00,48.61,2.972,6.184,3.134,2.790,1.467,0,0,SEARCHING,1.467,0.800,0.711,0.000
19:52:12.508,SEARCHING,12.251,9.285,1.000,0.00,0.00,48.61,2.896,5.720,3.134,2.724,1.457,0,0,SEARCHING,1.457,0.800,0.702,0.000
19:52:12.726,SEARCHING,12.357,9.405,1.000,0.00,0.00,48.61,2.934,5.720,3.051,2.661,1.448,0,0,SEARCHING,1.448,0.800,0.692,0.000
19:52:12.917,SEARCHING,12.463,9.525,1.000,0.00,0.00,48.61,3.011,5.720,3.011,2.661,1.956,0,0,SEARCHING,1.956,0.800,0.298,0.000
19:52:13.137,SEARCHING,12.569,9.645,1.000,0.00,0.00,48.61,3.415,5.200,2.972,2.630,1.923,0,0,SEARCHING,1.923,0.800,0.308,0.000
19:52:13.339,SEARCHING,12.675,9.765,1.000,0.00,0.00,48.61,3.751,5.321,2.934,2.630,1.939,0,0,SEARCHING,1.939,0.800,0.298,0.074
19:52:13.534,SEARCHING,12.780,9.885,1.000,0.00,0.00,48.61,3.814,4.868,2.896,2.630,1.923,0,0,SEARCHING,1.923,0.800,0.308,0.083
19:52:13.709,SEARCHING,12.886,10.006,1.000,0.00,0.00,49.33,3.691,4.767,2.896,2.661,1.939,0,0,SEARCHING,1.939,0.800,0.308,0.074
19:52:13.884,SEARCHING,13.040,10.189,1.000,0.00,0.00,50.67,3.575,4.576,2.896,2.630,2.061,0,0,SEARCHING,2.061,0.800,0.231,0.066
19:52:15.967,SEARCHING,13.190,10.377,1.000,0.00,0.00,51.93,3.467,4.576,2.896,2.630,2.138,0,0,SEARCHING,2.138,0.800,0.192,0.057
19:52:16.150,SEARCHING,13.312,10.535,1.000,0.00,0.00,52.78,3.316,4.237,2.934,2.661,2.200,0,0,SEARCHING,2.200,0.800,0.173,0.000
19:52:16.342,SEARCHING,13.385,10.631,1.000,0.00,0.00,52.97,3.316,4.014,2.934,2.571,2.179,0,0,SEARCHING,2.179,0.800,0.154,0.000
19:52:16.555,SEARCHING,13.505,10.790,1.000,0.00,0.00,52.97,3.269,3.814,2.896,2.514,2.200,0,0,SEARCHING,2.200,0.800,0.125,0.000
19:52:16.755,SEARCHING,13.577,10.886,1.000,0.00,0.00,52.97,3.316,3.691,2.934,2.359,2.179,0,0,SEARCHING,2.179,0.800,0.077,0.000
19:52:16.958,SEARCHING,13.674,11.014,1.000,0.00,0.00,52.97,3.316,3.632,2.896,3.051,2.200,0,0,SEARCHING,2.200,0.800,0.279,0.000
19:52:17.172,SEARCHING,13.794,11.174,1.000,0.00,0.00,52.97,3.467,3.467,2.860,2.972,2.266,0,0,SEARCHING,2.266,0.800,0.231,0.061
19:52:17.392,SEARCHING,13.890,11.302,1.000,0.00,0.00,53.46,3.520,3.415,2.860,2.860,2.311,0,0,SEARCHING,2.311,0.800,0.183,0.066
19:52:17.623,SEARCHING,13.985,11.431,1.000,0.00,0.00,54.14,3.415,3.316,2.896,2.790,2.266,0,0,SEARCHING,2.266,0.800,0.183,0.052
19:52:17.817,SEARCHING,14.078,11.560,1.000,0.00,0.00,54.38,3.316,3.223,2.972,2.724,2.288,0,0,SEARCHING,2.288,0.800,0.154,0.000
19:52:17.998,SEARCHING,14.172,11.690,1.000,0.00,0.00,54.38,3.365,3.011,2.972,2.542,2.335,0,0,SEARCHING,2.335,0.800,0.077,0.000
19:52:18.190,SEARCHING,14.264,11.821,1.000,0.00,0.00,54.74,3.751,2.825,2.934,2.359,2.311,0,0,SEARCHING,2.311,0.800,0.019,0.074
19:52:18.376,SEARCHING,14.356,11.952,1.000,0.00,0.00,55.60,3.814,2.724,2.972,2.266,2.311,0,0,SEARCHING,2.266,0.800,-0.019,0.074
19:52:18.567,SEARCHING,14.423,12.051,1.000,0.00,0.00,56.29,3.691,2.409,3.051,1.973,2.288,0,0,SEARCHING,1.973,0.771,-0.154,0.057
19:52:18.772,SEARCHING,14.530,12.215,1.000,0.00,0.00,57.01,3.632,2.335,3.092,1.907,2.266,0,0,SEARCHING,1.907,0.747,-0.183,0.000
19:52:18.994,SEARCHING,14.612,12.340,1.000,0.00,0.00,57.37,3.632,2.243,2.542,1.831,2.222,0,0,SEARCHING,1.831,0.718,-0.212,0.118
19:52:19.187,SEARCHING,14.687,12.460,1.000,0.00,0.00,58.39,3.134,2.007,2.080,1.747,2.061,0,0,SEARCHING,1.747,0.642,-0.192,0.162
19:52:19.383,SEARCHING,14.753,12.571,1.000,0.00,0.00,60.08,2.790,1.907,1.923,1.720,1.907,0,0,SEARCHING,1.720,0.610,-0.125,0.162
19:52:19.578,SEARCHING,14.813,12.679,1.000,0.00,0.00,61.98,2.790,1.802,1.816,1.760,1.788,0,0,SEARCHING,1.760,0.577,-0.019,0.192
19:52:19.773,SEARCHING,14.853,12.756,1.000,0.00,0.00,63.61,2.487,1.695,1.611,1.695,1.670,0,0,SEARCHING,1.611,0.542,0.019,0.219
19:52:19.974,SEARCHING,14.901,12.856,1.000,0.00,0.00,66.10,2.571,1.611,1.525,1.623,1.623,0,0,SEARCHING,1.525,0.516,0.000,0.267
19:52:20.185,SEARCHING,14.950,12.977,1.000,0.00,0.00,69.88,2.460,1.546,1.404,1.567,1.557,0,0,SEARCHING,1.404,0.495,0.010,0.306
19:52:20.370,SEARCHING,14.982,13.071,1.000,0.00,0.00,73.32,2.243,2.200,1.271,1.747,2.335,0,0,SEARCHING,1.271,0.704,-0.317,0.341
19:52:20.570,SEARCHING,15.015,13.196,1.000,0.00,0.00,76.97,1.670,2.243,1.192,1.747,2.384,0,0,SEARCHING,1.192,0.718,-0.337,0.240
19:52:20.768,SEARCHING,15.044,13.335,1.000,0.00,0.00,79.81,1.557,2.099,1.111,1.774,2.384,0,0,SEARCHING,1.111,0.672,-0.317,0.258
19:52:20.976,SEARCHING,15.060,13.436,1.000,0.00,0.00,82.00,1.404,2.007,1.802,1.747,2.409,0,0,SEARCHING,1.404,0.642,-0.346,-0.157
19:52:21.172,SEARCHING,15.076,13.566,1.000,0.00,0.00,82.89,1.330,1.923,1.733,1.747,2.384,0,0,SEARCHING,1.330,0.615,-0.337,-0.175
19:52:21.378,SEARCHING,15.098,13.719,1.000,0.00,0.00,80.39,1.536,1.774,1.634,1.708,2.359,0,0,SEARCHING,1.536,0.568,-0.356,0.000
19:52:21.596,SEARCHING,15.118,13.831,1.000,0.00,0.00,79.80,1.600,1.670,1.578,1.682,2.409,0,0,SEARCHING,1.578,0.534,-0.394,0.000
19:52:21.788,SEARCHING,15.137,13.937,1.000,0.00,0.00,79.80,1.557,1.578,1.430,1.525,2.384,0,0,SEARCHING,1.430,0.505,-0.519,0.057
19:52:21.979,SEARCHING,15.155,14.036,1.000,0.00,0.00,80.26,1.515,1.496,1.439,1.457,2.409,0,0,SEARCHING,1.439,0.479,-0.596,0.000
19:52:22.204,SEARCHING,15.170,14.130,1.000,0.00,0.00,80.92,1.467,1.412,1.330,1.395,2.409,0,0,SEARCHING,1.330,0.452,-0.663,0.070
19:52:22.378,SEARCHING,15.184,14.220,1.000,0.00,0.00,81.80,1.412,1.338,1.230,1.244,2.409,0,0,SEARCHING,1.230,0.428,-0.856,0.105
19:52:22.592,SEARCHING,15.196,14.305,1.000,0.00,0.00,82.98,1.346,1.300,1.192,1.179,2.266,0,0,SEARCHING,1.179,0.416,-0.894,0.096
19:52:22.801,SEARCHING,15.205,14.387,1.000,0.00,0.00,84.11,1.285,1.211,1.217,1.144,2.159,0,0,SEARCHING,1.144,0.387,-0.904,0.000
19:52:23.006,SEARCHING,15.213,14.464,1.000,0.00,0.00,84.71,1.230,1.198,5.321,1.084,2.025,0,0,SEARCHING,1.084,0.383,-0.942,-0.625
19:52:23.269,SEARCHING,15.222,14.542,1.000,0.00,0.00,81.88,1.230,1.179,1.264,0.986,2.138,0,0,SEARCHING,0.986,0.377,-1.000,0.000
19:52:23.462,SEARCHING,15.225,14.561,1.000,0.00,0.00,81.88,1.224,1.179,1.244,0.942,2.138,0,0,SEARCHING,0.942,0.377,-1.000,0.000
19:52:23.657,SEARCHING,15.230,14.599,1.000,0.00,0.00,81.88,1.217,1.186,1.250,0.915,2.099,0,0,SEARCHING,0.915,0.379,-1.000,0.000
19:52:23.847,SEARCHING,15.236,14.638,1.000,0.00,0.00,81.69,1.198,1.257,1.244,0.857,2.138,0,0,SEARCHING,0.857,0.402,-1.000,0.000
19:52:24.208,SEARCHING,15.254,14.748,1.000,0.00,0.00,80.03,1.156,1.257,1.250,0.722,2.138,0,0,SEARCHING,0.722,0.402,-1.000,-0.033
19:52:24.391,SEARCHING,15.267,14.822,1.000,0.00,0.00,80.03,1.150,1.127,5.867,0.636,2.138,0,0,SEARCHING,0.636,0.361,-1.000,-0.350
19:52:24.596,SEARCHING,15.282,14.901,1.000,0.00,0.00,78.53,1.150,1.150,1.244,0.569,2.200,0,0,SEARCHING,0.569,0.368,-1.000,-0.033
19:52:24.748,SEARCHING,15.293,14.958,1.000,0.00,0.00,77.17,1.204,1.192,1.300,0.493,2.335,0,0,SEARCHING,0.493,0.381,-1.000,-0.031
19:52:25.032,SEARCHING,15.322,15.069,1.000,0.00,0.00,72.99,1.162,1.122,1.186,0.427,2.409,0,0,SEARCHING,0.427,0.359,-1.000,0.000
19:52:25.340,SEARCHING,15.355,15.176,1.000,0.00,0.00,72.39,1.192,1.224,1.224,0.450,2.409,0,0,SEARCHING,0.450,0.392,-1.000,0.000
19:52:25.653,SEARCHING,15.392,15.279,1.000,0.00,0.00,68.39,1.150,1.156,1.167,0.443,2.434,0,0,SEARCHING,0.443,0.370,-1.000,0.000
19:52:25.814,SEARCHING,15.417,15.343,1.000,0.00,0.00,68.39,1.198,1.090,1.173,0.424,2.409,0,0,SEARCHING,0.424,0.349,-1.000,0.000
19:52:26.149,SEARCHING,15.458,15.446,1.000,0.00,0.00,68.39,1.079,3.316,7.381,0.424,2.409,0,0,SEARCHING,0.424,0.800,-1.000,-0.396
19:52:26.443,SEARCHING,15.507,15.571,1.000,0.00,0.00,68.39,1.412,3.269,7.381,0.446,2.409,0,0,SEARCHING,0.446,0.800,-1.000,-0.286
19:52:26.720,SEARCHING,15.591,15.781,1.000,0.00,0.00,67.71,1.557,4.400,7.627,0.493,2.434,0,0,SEARCHING,0.493,0.800,-1.000,-0.256
19:52:27.054,SEARCHING,15.681,15.973,1.000,0.00,0.00,61.49,1.973,4.868,6.730,0.425,2.460,0,0,SEARCHING,0.425,0.800,-1.000,-0.179
19:52:27.351,SEARCHING,15.804,16.179,1.000,0.00,0.00,56.70,2.692,5.720,4.160,0.418,2.384,0,0,SEARCHING,0.418,0.800,-1.000,-0.066
19:52:27.676,SEARCHING,15.966,16.408,1.000,0.00,0.00,52.50,3.365,6.538,3.751,0.440,2.460,0,0,SEARCHING,0.440,0.800,-1.000,0.000
19:52:27.834,SEARCHING,16.040,16.502,1.000,0.00,0.00,51.33,3.365,6.730,3.691,0.444,2.460,0,0,SEARCHING,0.444,0.800,-1.000,0.000
19:52:28.146,SEARCHING,16.192,16.688,1.000,0.00,0.00,50.29,3.223,6.934,3.575,0.437,2.434,0,0,SEARCHING,0.437,0.800,-1.000,0.000
19:52:28.299,SEARCHING,16.345,16.873,1.000,0.00,0.00,50.27,3.092,6.730,3.575,5.720,2.434,0,0,SEARCHING,2.434,0.800,0.519,0.000
19:52:28.482,SEARCHING,16.601,17.180,1.000,0.00,0.00,50.27,3.092,6.538,3.520,5.867,2.434,0,0,SEARCHING,2.434,0.800,0.529,0.000
19:52:28.679,SEARCHING,16.703,17.303,1.000,0.00,0.00,50.24,3.092,6.356,4.160,5.720,2.434,0,0,SEARCHING,2.434,0.800,0.519,-0.083
19:52:28.881,SEARCHING,16.806,17.426,1.000,0.00,0.00,49.42,3.178,6.730,4.160,5.720,2.434,0,0,SEARCHING,2.434,0.800,0.519,-0.074
19:52:29.087,SEARCHING,16.938,17.576,1.000,0.00,0.00,48.35,3.269,6.730,4.014,5.720,2.434,0,0,SEARCHING,2.434,0.800,0.519,-0.057
19:52:29.295,SEARCHING,17.045,17.695,1.000,0.00,0.00,47.68,3.365,6.730,3.945,5.867,2.460,0,0,SEARCHING,2.460,0.800,0.519,0.000
19:52:29.486,SEARCHING,17.153,17.813,1.000,0.00,0.00,47.50,3.316,6.356,4.014,5.867,2.434,0,0,SEARCHING,2.434,0.800,0.529,-0.052
19:52:29.690,SEARCHING,17.261,17.931,1.000,0.00,0.00,47.20,3.365,6.184,3.945,5.867,2.434,0,0,SEARCHING,2.434,0.800,0.529,0.000
19:52:29.893,SEARCHING,17.343,18.019,1.000,0.00,0.00,47.17,3.316,5.720,4.237,5.581,2.434,0,0,SEARCHING,2.434,0.800,0.510,-0.066
19:52:30.085,SEARCHING,17.480,18.165,1.000,0.00,0.00,46.30,3.365,6.022,4.086,5.720,2.487,0,0,SEARCHING,2.487,0.800,0.500,-0.052
19:52:30.290,SEARCHING,17.591,18.280,1.000,0.00,0.00,45.80,3.415,5.448,4.160,5.200,2.460,0,0,SEARCHING,2.460,0.800,0.471,-0.052
19:52:30.489,SEARCHING,17.674,18.366,1.000,0.00,0.00,45.53,3.415,5.581,4.086,5.448,2.434,0,0,SEARCHING,2.434,0.800,0.500,0.000
19:52:30.688,SEARCHING,17.787,18.480,1.000,0.00,0.00,45.25,3.415,5.321,4.160,5.200,2.434,0,0,SEARCHING,2.434,0.800,0.481,-0.052
19:52:30.891,SEARCHING,17.900,18.593,1.000,0.00,0.00,44.92,3.467,5.200,4.086,5.085,2.434,0,0,SEARCHING,2.434,0.800,0.471,0.000
19:52:31.091,SEARCHING,18.014,18.706,1.000,0.00,0.00,44.53,3.415,4.767,4.160,4.767,2.434,0,0,SEARCHING,2.434,0.800,0.442,-0.052
19:52:31.290,SEARCHING,18.128,18.818,1.000,0.00,0.00,44.20,3.467,4.670,4.086,4.670,2.409,0,0,SEARCHING,2.409,0.800,0.442,0.000
19:52:31.500,SEARCHING,18.272,18.957,1.000,0.00,0.00,43.91,3.415,4.576,4.086,4.576,2.460,0,0,SEARCHING,2.460,0.800,0.413,0.000
19:52:31.694,SEARCHING,18.358,19.040,1.000,0.00,0.00,43.91,3.467,4.400,4.086,4.400,2.434,0,0,SEARCHING,2.434,0.800,0.404,0.000
19:52:31.890,SEARCHING,18.473,19.151,1.000,0.00,0.00,43.91,3.520,4.317,4.160,4.237,2.460,0,0,SEARCHING,2.460,0.800,0.375,0.000
19:52:32.096,SEARCHING,18.589,19.262,1.000,0.00,0.00,43.91,3.467,4.237,4.160,4.160,2.487,0,0,SEARCHING,2.487,0.800,0.356,0.000
19:52:32.299,SEARCHING,18.704,19.373,1.000,0.00,0.00,43.91,3.415,4.014,4.160,3.878,2.460,0,0,SEARCHING,2.460,0.800,0.327,-0.052
19:52:32.490,SEARCHING,18.820,19.483,1.000,0.00,0.00,43.37,3.467,3.751,4.086,3.751,2.434,0,0,SEARCHING,2.434,0.800,0.317,0.000
19:52:32.701,SEARCHING,18.936,19.593,1.000,0.00,0.00,43.37,3.467,3.751,4.014,3.751,2.434,0,0,SEARCHING,2.434,0.800,0.317,0.000
19:52:32.897,SEARCHING,19.052,19.703,1.000,0.00,0.00,43.37,3.467,3.520,3.878,3.520,2.460,0,0,SEARCHING,2.460,0.800,0.269,0.000
19:52:33.096,SEARCHING,19.169,19.813,1.000,0.00,0.00,43.37,3.415,3.365,3.691,3.365,2.460,0,0,SEARCHING,2.460,0.800,0.240,0.000
19:52:33.301,SEARCHING,19.314,19.950,1.000,0.00,0.00,43.37,3.415,3.365,3.467,3.316,2.434,0,0,SEARCHING,2.434,0.800,0.240,0.000
19:52:33.500,SEARCHING,19.430,20.060,1.000,0.00,0.00,43.37,3.316,3.011,2.972,3.134,2.409,0,0,SEARCHING,2.409,0.800,0.212,0.000
19:52:33.699,SEARCHING,19.547,20.170,1.000,0.00,0.00,43.37,3.467,2.896,3.092,2.896,2.434,0,0,SEARCHING,2.434,0.800,0.144,0.000
19:52:33.911,SEARCHING,19.634,20.252,1.000,0.00,0.00,43.37,6.022,2.757,2.860,2.757,2.487,0,0,SEARCHING,2.487,0.800,0.087,0.184
19:52:34.114,SEARCHING,19.749,20.363,1.000,0.00,0.00,44.74,3.134,2.724,2.630,2.724,2.460,0,0,SEARCHING,2.460,0.800,0.087,0.061
19:52:34.308,SEARCHING,19.889,20.506,1.000,0.00,0.00,46.47,3.051,2.600,2.487,2.542,2.434,0,0,SEARCHING,2.434,0.800,0.038,0.074
19:52:34.499,SEARCHING,19.971,20.594,1.000,0.00,0.00,47.12,2.934,2.409,2.243,2.311,2.434,0,0,SEARCHING,2.243,0.771,-0.048,0.105
19:52:34.697,SEARCHING,20.100,20.735,1.000,0.00,0.00,48.78,2.825,6.184,2.119,2.384,2.434,0,0,SEARCHING,2.119,0.800,-0.019,0.118
19:52:34.907,SEARCHING,20.176,20.825,1.000,0.00,0.00,49.89,2.600,6.730,1.907,5.867,2.460,0,0,SEARCHING,1.907,0.800,0.519,0.140
19:52:35.101,SEARCHING,20.278,20.948,1.000,0.00,0.00,51.43,2.460,7.381,1.682,6.022,2.434,0,0,SEARCHING,1.682,0.800,0.538,0.188
19:52:35.314,SEARCHING,20.376,21.075,1.000,0.00,0.00,53.27,2.359,7.381,1.658,6.022,2.460,0,0,SEARCHING,1.658,0.800,0.529,0.179
19:52:35.508,SEARCHING,20.470,21.204,1.000,0.00,0.00,55.31,2.200,7.381,1.546,6.022,2.460,0,0,SEARCHING,1.546,0.800,0.529,0.192
19:52:35.706,SEARCHING,20.580,21.371,1.000,0.00,0.00,58.09,2.099,7.381,1.448,6.022,2.460,0,0,SEARCHING,1.448,0.800,0.529,0.214
19:52:35.901,SEARCHING,20.642,21.474,1.000,0.00,0.00,59.92,1.939,7.151,4.767,5.867,2.460,0,0,SEARCHING,1.939,0.800,0.519,-0.306
19:52:36.100,SEARCHING,20.725,21.611,1.000,0.00,0.00,56.87,2.757,7.151,4.237,6.184,2.434,0,0,SEARCHING,2.434,0.800,0.548,-0.127
19:52:36.304,SEARCHING,20.815,21.743,1.000,0.00,0.00,54.56,3.178,7.151,3.945,6.022,2.460,0,0,SEARCHING,2.460,0.800,0.529,-0.061
19:52:36.510,SEARCHING,20.909,21.872,1.000,0.00,0.00,53.70,3.415,6.934,3.751,6.022,2.434,0,0,SEARCHING,2.434,0.800,0.538,0.000
19:52:36.709,SEARCHING,21.004,22.001,1.000,0.00,0.00,53.66,3.520,6.730,3.751,6.022,2.460,0,0,SEARCHING,2.460,0.800,0.529,0.000
19:52:36.954,SEARCHING,21.099,22.130,1.000,0.00,0.00,53.66,3.632,6.934,3.814,6.022,2.460,0,0,SEARCHING,2.460,0.800,0.529,0.000
19:52:37.112,SEARCHING,21.217,22.291,1.000,0.00,0.00,53.66,3.691,6.730,3.751,6.022,2.434,0,0,SEARCHING,2.434,0.800,0.538,0.000
19:52:37.306,SEARCHING,21.288,22.388,1.000,0.00,0.00,53.66,3.751,6.538,3.751,6.022,2.434,0,0,SEARCHING,2.434,0.800,0.538,0.000
19:52:37.513,SEARCHING,21.383,22.517,1.000,0.00,0.00,53.66,3.814,6.538,3.814,6.022,2.460,0,0,SEARCHING,2.460,0.800,0.529,0.000
19:52:37.717,SEARCHING,21.502,22.678,1.000,0.00,0.00,53.66,3.814,6.356,3.814,6.022,2.460,0,0,SEARCHING,2.460,0.800,0.529,0.000
19:52:37.913,SEARCHING,21.596,22.807,1.000,0.00,0.00,53.66,3.878,6.184,3.751,6.022,2.460,0,0,SEARCHING,2.460,0.800,0.529,0.000
19:52:38.110,SEARCHING,21.667,22.903,1.000,0.00,0.00,53.66,4.014,6.184,3.691,6.022,2.460,0,0,SEARCHING,2.460,0.800,0.529,0.000
19:52:38.308,SEARCHING,21.762,23.032,1.000,0.00,0.00,53.66,4.160,5.867,3.691,5.867,2.460,0,0,SEARCHING,2.460,0.800,0.519,0.000
19:52:38.532,SEARCHING,21.857,23.161,1.000,0.00,0.00,53.66,4.160,5.720,3.632,5.867,2.434,0,0,SEARCHING,2.434,0.800,0.529,0.000
19:52:38.709,SEARCHING,21.952,23.290,1.000,0.00,0.00,53.66,4.237,5.581,3.575,5.581,2.487,0,0,SEARCHING,2.487,0.800,0.490,0.000
19:52:38.915,SEARCHING,22.047,23.419,1.000,0.00,0.00,53.66,4.317,5.448,3.520,5.448,2.460,0,0,SEARCHING,2.460,0.800,0.490,0.052
19:52:39.117,SEARCHING,22.141,23.548,1.000,0.00,0.00,54.20,4.237,5.200,3.575,5.200,2.434,0,0,SEARCHING,2.434,0.800,0.481,0.000
19:52:39.322,SEARCHING,22.234,23.678,1.000,0.00,0.00,54.20,4.317,5.085,3.520,5.085,2.434,0,0,SEARCHING,2.434,0.800,0.471,0.052
19:52:39.511,SEARCHING,22.328,23.808,1.000,0.00,0.00,54.44,4.317,4.868,3.415,4.868,2.460,0,0,SEARCHING,2.460,0.800,0.442,0.061
19:52:39.710,SEARCHING,22.444,23.971,1.000,0.00,0.00,54.99,4.160,4.767,3.467,4.670,2.460,0,0,SEARCHING,2.460,0.800,0.423,0.000
19:52:39.927,SEARCHING,22.513,24.069,1.000,0.00,0.00,55.11,4.237,4.670,3.467,4.670,2.434,0,0,SEARCHING,2.434,0.800,0.433,0.052
19:52:40.118,SEARCHING,22.604,24.201,1.000,0.00,0.00,55.38,4.086,4.487,3.520,4.487,2.434,0,0,SEARCHING,2.434,0.800,0.413,0.000
19:52:40.350,SEARCHING,22.695,24.332,1.000,0.00,0.00,55.41,4.160,4.400,3.415,4.400,2.460,0,0,SEARCHING,2.460,0.800,0.394,0.052
19:52:40.669,SEARCHING,22.786,24.464,1.000,0.00,0.00,55.59,4.086,4.317,3.365,4.317,2.460,0,0,SEARCHING,2.460,0.800,0.385,0.052
19:52:40.849,SEARCHING,22.921,24.662,1.000,0.00,0.00,55.71,4.014,4.160,3.415,4.160,2.487,0,0,SEARCHING,2.487,0.800,0.356,0.000
19:52:41.035,SEARCHING,23.034,24.827,1.000,0.00,0.00,55.71,3.945,4.014,3.415,4.014,2.434,0,0,SEARCHING,2.434,0.800,0.356,0.000
19:52:41.228,SEARCHING,23.124,24.959,1.000,0.00,0.00,55.71,3.691,3.691,3.365,3.691,2.434,0,0,SEARCHING,2.434,0.800,0.308,0.000
19:52:41.422,SEARCHING,23.192,25.059,1.000,0.00,0.00,55.71,3.575,3.575,3.269,3.520,2.487,0,0,SEARCHING,2.487,0.800,0.260,0.000
19:52:41.622,SEARCHING,23.282,25.191,1.000,0.00,0.00,55.71,3.467,3.415,3.223,3.415,2.460,0,0,SEARCHING,2.460,0.800,0.250,0.000
19:52:41.826,SEARCHING,23.372,25.323,1.000,0.00,0.00,55.71,3.316,3.269,3.269,3.269,2.434,0,0,SEARCHING,2.434,0.800,0.231,0.000
19:52:42.029,SEARCHING,23.462,25.455,1.000,0.00,0.00,55.71,3.092,3.092,3.092,3.092,2.434,0,0,SEARCHING,2.434,0.800,0.192,0.000
19:52:42.231,SEARCHING,23.575,25.620,1.000,0.00,0.00,55.71,2.972,2.934,2.934,2.972,2.434,0,0,SEARCHING,2.434,0.800,0.163,0.000
19:52:42.429,SEARCHING,23.642,25.719,1.000,0.00,0.00,55.71,2.790,2.790,2.790,2.790,2.460,0,0,SEARCHING,2.460,0.800,0.106,0.000
19:52:42.629,SEARCHING,23.733,25.852,1.000,0.00,0.00,55.71,2.692,2.661,2.661,2.661,2.460,0,0,SEARCHING,2.460,0.800,0.067,0.000
19:52:42.833,SEARCHING,23.823,25.984,1.000,0.00,0.00,55.71,2.487,2.514,2.514,2.487,2.409,0,0,SEARCHING,2.409,0.800,0.029,0.000
19:52:43.028,SEARCHING,23.913,26.116,1.000,0.00,0.00,55.71,2.335,2.335,2.335,2.335,2.311,0,0,SEARCHING,2.311,0.747,0.010,0.000
19:52:43.231,SEARCHING,23.999,26.242,1.000,0.00,0.00,55.71,2.200,2.200,2.179,2.179,2.179,0,0,SEARCHING,2.179,0.704,0.000,0.000
19:52:43.429,SEARCHING,24.080,26.361,1.000,0.00,0.00,55.71,2.061,2.061,2.043,2.061,2.061,0,0,SEARCHING,2.043,0.660,0.000,0.000
19:52:43.636,SEARCHING,24.155,26.472,1.000,0.00,0.00,55.71,1.939,1.939,1.939,1.939,1.939,0,0,SEARCHING,1.939,0.621,0.000,0.000
19:52:43.842,SEARCHING,24.226,26.576,1.000,0.00,0.00,55.71,1.816,1.816,1.802,1.816,1.802,0,0,SEARCHING,1.802,0.581,0.010,0.000
19:52:44.040,SEARCHING,24.309,26.697,1.000,0.00,0.00,55.71,1.708,1.708,1.708,1.708,1.708,0,0,SEARCHING,1.708,0.546,0.000,0.000
19:52:44.240,SEARCHING,24.355,26.765,1.000,0.00,0.00,55.71,1.578,1.578,1.567,1.567,1.578,0,0,SEARCHING,1.567,0.505,-0.010,0.000
19:52:44.441,SEARCHING,24.413,26.850,1.000,0.00,0.00,55.71,1.496,1.496,1.486,1.486,1.486,0,0,SEARCHING,1.486,0.479,0.000,0.000
19:52:44.631,SEARCHING,24.481,26.949,1.000,0.00,0.00,55.71,1.387,1.387,1.378,1.378,1.378,0,0,SEARCHING,1.378,0.444,0.000,0.000
19:52:44.835,SEARCHING,24.519,27.005,1.000,0.00,0.00,55.71,1.308,1.300,1.300,1.308,1.308,0,0,SEARCHING,1.300,0.416,0.000,0.000
19:52:45.035,SEARCHING,24.578,27.091,1.000,0.00,0.00,55.71,1.211,1.204,1.204,1.204,1.204,0,0,SEARCHING,1.204,0.385,0.000,0.000
19:52:45.238,SEARCHING,24.611,27.139,1.000,0.00,0.00,55.71,1.133,1.133,1.133,1.133,1.133,0,0,SEARCHING,1.133,0.362,0.000,0.000
19:52:45.433,SEARCHING,24.653,27.201,1.000,0.00,0.00,55.71,1.074,1.074,1.074,1.074,1.074,0,0,SEARCHING,1.074,0.344,0.000,0.000
19:52:45.638,SEARCHING,24.701,27.272,1.000,0.00,0.00,55.71,1.004,1.004,1.004,1.004,1.004,0,0,SEARCHING,1.004,0.321,0.000,0.000
19:52:45.953,SEARCHING,24.738,27.325,1.000,0.00,0.00,55.71,0.949,0.949,0.949,0.949,0.949,0,0,SEARCHING,0.949,0.304,0.000,0.000
19:52:46.130,SEARCHING,24.755,27.351,1.000,0.00,0.00,55.71,0.930,0.926,0.926,0.926,0.930,0,0,SEARCHING,0.926,0.296,-0.010,0.000
19:52:46.316,SEARCHING,24.772,27.376,1.000,0.00,0.00,55.71,0.897,0.894,0.894,0.894,0.897,0,0,SEARCHING,0.894,0.286,-0.010,0.000
19:52:46.493,SEARCHING,24.789,27.401,1.000,0.00,0.00,55.71,0.838,0.835,0.835,0.835,0.835,0,0,SEARCHING,0.835,0.267,0.000,0.000
19:52:46.809,INSPECTING,24.831,27.462,1.000,0.00,0.00,55.71,0.750,0.750,0.748,0.748,0.750,0,0,TOP,0.748,0.150,1.000,0.000
19:52:47.153,INSPECTING,24.870,27.519,1.000,0.00,0.00,55.71,0.673,0.673,0.671,0.671,0.673,0,0,TOP,0.671,0.150,1.000,0.000
19:52:47.321,INSPECTING,24.879,27.533,1.000,0.00,0.00,55.71,0.652,0.652,0.650,0.650,0.650,0,0,TOP,0.650,0.150,1.000,0.000
19:52:47.495,INSPECTING,24.896,27.558,1.000,0.00,0.00,55.71,0.622,0.622,0.620,0.622,0.622,0,0,TOP,0.622,0.150,1.000,0.000
19:52:47.845,INSPECTING,24.926,27.601,1.000,0.00,0.00,55.71,0.572,0.572,0.572,0.571,0.572,0,0,TOP,0.571,0.150,1.000,0.000
19:52:48.029,INSPECTING,24.938,27.620,1.000,0.00,0.00,55.71,0.547,0.547,0.547,0.547,0.547,0,0,ANTI_HANG_TOP_LEFT,0.547,0.150,1.000,1.100
19:52:49.273,INSPECTING,24.955,27.645,1.000,0.00,0.00,55.71,0.522,0.524,0.522,0.522,0.522,0,0,ANTI_HANG_TOP_RIGHT,0.522,0.150,1.000,-1.100
19:52:49.454,INSPECTING,24.997,27.707,1.000,0.00,0.00,62.64,0.479,0.478,0.477,0.477,0.478,0,0,ANTI_HANG_BOTTOM_LEFT,0.477,0.150,-1.000,1.100
19:52:49.823,INSPECTING,25.012,27.757,1.000,0.00,0.00,84.70,0.475,0.419,0.371,0.419,0.418,0,0,ANTI_HANG_BOTTOM_LEFT,0.475,0.150,-1.000,1.100
19:52:50.011,INSPECTING,25.016,27.779,1.000,0.00,0.00,75.24,0.454,0.396,0.352,0.395,0.397,0,0,ANTI_HANG_BOTTOM_RIGHT,0.454,0.150,-1.000,-1.100
19:52:50.198,INSPECTING,25.023,27.808,1.000,0.00,0.00,81.55,0.527,0.415,0.345,0.415,0.413,0,0,ANTI_HANG_BOTTOM_RIGHT,0.527,0.150,-1.000,-1.100
19:52:50.387,INSPECTING,25.025,27.838,1.000,0.00,0.00,94.15,0.646,0.459,0.359,0.459,0.459,0,0,ANTI_HANG_TOP,0.646,0.150,1.000,1.100
19:52:50.584,INSPECTING,25.020,27.868,1.000,0.00,0.00,106.76,0.578,0.418,0.329,0.416,0.417,0,0,ANTI_HANG_TOP,0.578,0.150,1.000,1.100
19:52:50.772,INSPECTING,25.013,27.897,1.000,0.00,0.00,95.41,0.403,0.327,0.278,0.327,0.327,0,0,ANTI_HANG_TOP,0.403,0.150,1.000,1.100
19:52:51.253,INSPECTING,25.014,27.949,1.000,0.00,0.00,93.52,0.501,0.354,0.274,0.356,0.354,0,0,ANTI_HANG_BOTTOM,0.501,0.150,-1.000,1.100
19:52:51.455,INSPECTING,25.004,27.993,1.000,0.00,0.00,112.43,1.022,0.511,0.336,0.503,0.506,0,0,ANTI_HANG_TOP_LEFT,1.022,0.150,1.000,1.100
19:52:51.708,SEARCHING,24.986,28.026,1.000,0.00,0.00,128.19,1.658,0.854,0.459,0.857,0.887,0,0,SEARCHING,0.459,0.273,-0.087,0.787
19:52:51.943,SEARCHING,24.953,28.056,1.000,0.00,0.00,147.09,1.816,1.733,0.942,1.733,1.733,0,0,SEARCHING,0.942,0.555,0.000,0.511
19:52:52.143,SEARCHING,24.911,28.075,1.000,0.00,0.00,165.82,1.939,1.747,1.557,1.747,1.747,0,0,SEARCHING,1.557,0.559,0.000,0.127
19:52:52.355,SEARCHING,24.764,28.092,1.000,0.00,0.00,179.09,2.043,1.747,1.476,1.747,1.747,0,0,SEARCHING,1.476,0.559,0.000,0.188
19:52:52.569,SEARCHING,24.596,28.091,1.000,0.00,-0.00,-178.47,1.956,1.658,1.404,1.670,1.658,0,0,SEARCHING,1.404,0.531,0.010,0.201
19:52:52.770,SEARCHING,24.432,28.082,1.000,0.00,-0.00,-175.14,1.876,1.589,1.323,1.589,1.589,0,0,SEARCHING,1.323,0.508,0.000,0.223
19:52:52.963,SEARCHING,24.304,28.068,1.000,0.00,-0.00,-171.94,1.860,1.515,1.264,1.505,1.515,0,0,SEARCHING,1.264,0.485,-0.010,0.253
19:52:53.154,SEARCHING,24.208,28.052,1.000,0.00,-0.00,-169.12,1.802,1.448,1.192,1.448,1.448,0,0,SEARCHING,1.192,0.463,0.000,0.284
19:52:53.344,SEARCHING,24.117,28.033,1.000,0.00,-0.00,-165.94,1.788,1.404,1.150,1.404,1.395,0,0,SEARCHING,1.150,0.449,0.010,0.310
19:52:53.533,SEARCHING,24.031,28.008,1.000,0.00,-0.00,-162.37,1.788,1.354,1.095,1.362,1.362,0,0,SEARCHING,1.095,0.433,0.000,0.354
19:52:53.743,SEARCHING,23.949,27.980,1.000,0.00,-0.00,-158.17,1.956,1.330,1.022,1.330,1.330,0,0,SEARCHING,1.022,0.426,0.000,0.468
19:52:53.943,SEARCHING,23.871,27.945,1.000,0.00,-0.00,-152.90,2.159,1.370,1.012,1.378,1.387,0,0,SEARCHING,1.012,0.438,-0.010,0.524
19:52:54.142,SEARCHING,23.795,27.901,1.000,0.00,-0.00,-146.93,2.600,1.457,1.026,1.457,1.448,0,0,SEARCHING,1.026,0.466,0.010,0.590
19:52:54.350,SEARCHING,23.719,27.846,1.000,0.00,-0.00,-140.30,3.365,1.623,1.069,1.611,1.611,0,0,SEARCHING,1.069,0.519,0.000,0.638
19:52:54.539,SEARCHING,23.643,27.775,1.000,0.00,-0.00,-133.05,4.487,1.990,1.156,2.007,1.973,0,0,SEARCHING,1.156,0.637,0.019,0.642
19:52:54.727,SEARCHING,23.582,27.704,1.000,0.00,-0.00,-127.50,4.670,2.661,1.370,2.630,2.434,0,0,SEARCHING,1.370,0.800,0.067,0.516
19:52:54.942,SEARCHING,23.476,27.544,1.000,0.00,-0.00,-119.68,4.868,3.316,1.600,3.415,2.460,0,0,SEARCHING,1.600,0.800,0.250,0.420
19:52:55.130,SEARCHING,23.403,27.402,1.000,0.00,-0.00,-114.91,4.767,4.237,1.845,4.237,2.434,0,0,SEARCHING,1.845,0.800,0.385,0.332
19:52:55.327,SEARCHING,23.354,27.293,1.000,0.00,-0.00,-111.98,4.670,4.767,2.222,4.767,2.460,0,0,SEARCHING,2.222,0.800,0.433,0.236
19:52:55.568,SEARCHING,23.285,27.105,1.000,0.00,-0.00,-108.40,4.487,4.576,2.460,4.576,2.434,0,0,SEARCHING,2.434,0.800,0.423,0.184
19:52:55.762,SEARCHING,23.237,26.952,1.000,0.00,-0.00,-106.36,4.160,4.487,3.011,4.576,2.434,0,0,SEARCHING,2.434,0.800,0.423,0.092
19:52:55.948,SEARCHING,23.194,26.798,1.000,0.00,-0.00,-105.17,3.878,4.400,3.178,4.400,2.460,0,0,SEARCHING,2.460,0.800,0.394,0.057
19:52:56.133,SEARCHING,23.153,26.644,1.000,0.00,-0.00,-104.49,3.814,4.160,2.972,4.160,2.434,0,0,SEARCHING,2.434,0.800,0.375,0.074
19:52:56.344,SEARCHING,23.114,26.488,1.000,0.00,-0.00,-103.67,3.751,4.014,2.860,4.014,2.434,0,0,SEARCHING,2.434,0.800,0.356,0.083
19:52:56.552,SEARCHING,23.077,26.333,1.000,0.00,-0.00,-102.96,3.632,3.814,6.934,3.814,2.460,0,0,SEARCHING,2.460,0.800,0.317,-0.131
19:52:56.735,SEARCHING,23.040,26.177,1.000,0.00,-0.00,-104.40,3.632,3.691,7.381,3.691,2.460,0,0,SEARCHING,2.460,0.800,0.298,-0.140
19:52:56.939,SEARCHING,23.009,26.061,1.000,0.00,-0.00,-105.60,3.691,3.467,7.381,3.520,2.434,0,0,SEARCHING,2.434,0.800,0.279,-0.135
19:52:57.137,SEARCHING,22.964,25.908,1.000,0.00,-0.00,-107.18,3.691,3.415,7.151,3.415,2.434,0,0,SEARCHING,2.434,0.800,0.260,-0.131
19:52:57.334,SEARCHING,22.902,25.718,1.000,0.00,-0.00,-109.10,3.365,3.269,7.151,3.223,2.434,0,0,SEARCHING,2.434,0.800,0.221,-0.157
19:52:57.538,SEARCHING,22.862,25.605,1.000,0.00,-0.00,-110.45,3.011,3.051,6.934,3.051,2.460,0,0,SEARCHING,2.460,0.800,0.173,-0.188
19:52:57.744,SEARCHING,22.788,25.419,1.000,0.00,-0.00,-113.04,2.860,3.011,6.356,3.011,2.487,0,0,SEARCHING,2.487,0.800,0.154,-0.192
19:52:57.928,SEARCHING,22.723,25.272,1.000,0.00,-0.00,-115.19,2.600,5.321,5.200,4.487,2.460,0,0,SEARCHING,2.460,0.800,0.404,-0.192
19:52:58.130,SEARCHING,22.670,25.165,1.000,0.00,-0.00,-116.86,2.460,6.184,3.691,5.448,2.460,0,0,SEARCHING,2.460,0.800,0.490,-0.135
19:52:58.332,SEARCHING,22.577,24.987,1.000,0.00,-0.00,-118.67,2.288,6.356,2.972,5.321,2.434,0,0,SEARCHING,2.288,0.800,0.490,-0.101
19:52:58.534,SEARCHING,22.519,24.883,1.000,0.00,-0.00,-119.53,2.080,6.356,2.790,5.448,2.434,0,0,SEARCHING,2.080,0.800,0.500,-0.122
19:52:58.745,SEARCHING,22.439,24.744,1.000,0.00,-0.00,-120.80,1.956,6.730,2.630,5.321,2.434,0,0,SEARCHING,1.956,0.800,0.490,-0.131
19:52:58.942,SEARCHING,22.334,24.574,1.000,0.00,-0.00,-122.62,1.907,7.151,2.409,5.321,2.460,0,0,SEARCHING,1.907,0.800,0.481,-0.109
19:52:59.140,SEARCHING,22.269,24.473,1.000,0.00,-0.00,-123.59,4.237,7.381,2.266,5.321,2.434,0,0,SEARCHING,2.266,0.800,0.490,0.205
19:52:59.341,SEARCHING,22.180,24.340,1.000,0.00,-0.00,-123.13,4.160,7.381,2.542,5.200,2.434,0,0,SEARCHING,2.434,0.800,0.481,0.153
19:52:59.536,SEARCHING,22.074,24.171,1.000,0.00,-0.00,-120.88,3.814,6.538,3.575,5.085,2.434,0,0,SEARCHING,2.434,0.800,0.471,0.000
19:52:59.731,SEARCHING,22.013,24.067,1.000,0.00,-0.00,-120.63,3.751,6.022,3.878,5.085,2.434,0,0,SEARCHING,2.434,0.800,0.471,0.000
19:53:00.011,SEARCHING,21.931,23.930,1.000,0.00,-0.00,-120.63,3.751,6.184,4.086,5.085,2.460,0,0,SEARCHING,2.460,0.800,0.462,0.000
19:53:00.185,SEARCHING,21.850,23.792,1.000,0.00,-0.00,-120.63,3.751,6.022,4.237,4.974,2.487,0,0,SEARCHING,2.487,0.800,0.442,0.000
19:53:00.347,SEARCHING,21.748,23.620,1.000,0.00,-0.00,-120.63,3.632,6.184,4.317,4.974,2.460,0,0,SEARCHING,2.460,0.800,0.452,0.000
19:53:00.547,SEARCHING,21.666,23.482,1.000,0.00,-0.00,-120.63,3.520,6.356,4.487,4.868,2.460,0,0,SEARCHING,2.460,0.800,0.442,-0.061
19:53:00.741,SEARCHING,21.584,23.345,1.000,0.00,-0.00,-121.12,3.520,6.356,4.487,4.767,2.434,0,0,SEARCHING,2.434,0.800,0.442,-0.061
19:53:00.938,SEARCHING,21.501,23.208,1.000,0.00,-0.00,-121.83,3.467,6.730,4.400,4.670,2.434,0,0,SEARCHING,2.434,0.800,0.433,-0.061
19:53:01.143,SEARCHING,21.437,23.107,1.000,0.00,-0.00,-122.37,3.269,7.627,4.237,4.670,2.460,0,0,SEARCHING,2.460,0.800,0.423,-0.070
19:53:01.345,SEARCHING,21.329,22.938,1.000,0.00,-0.00,-123.37,3.316,7.627,4.237,4.670,2.409,0,0,SEARCHING,2.409,0.800,0.442,-0.066
19:53:01.556,SEARCHING,21.262,22.839,1.000,0.00,-0.00,-123.92,3.365,7.890,4.160,4.576,2.434,0,0,SEARCHING,2.434,0.800,0.423,-0.057
19:53:01.738,SEARCHING,21.172,22.706,1.000,0.00,-0.00,-124.58,3.365,7.627,4.086,4.670,2.434,0,0,SEARCHING,2.434,0.800,0.433,-0.052
19:53:01.946,SEARCHING,21.081,22.575,1.000,0.00,-0.00,-125.21,3.365,7.381,4.086,4.670,2.460,0,0,SEARCHING,2.460,0.800,0.423,-0.052
19:53:02.142,SEARCHING,20.965,22.412,1.000,0.00,-0.00,-125.97,3.223,7.381,4.014,4.670,2.460,0,0,SEARCHING,2.460,0.800,0.423,-0.061
19:53:02.352,SEARCHING,20.870,22.283,1.000,0.00,-0.00,-126.67,3.092,7.381,3.878,4.576,2.460,0,0,SEARCHING,2.460,0.800,0.413,-0.066
19:53:02.541,SEARCHING,20.798,22.187,1.000,0.00,-0.00,-127.24,3.092,7.151,3.945,4.576,2.409,0,0,SEARCHING,2.409,0.800,0.433,-0.070
19:53:02.751,SEARCHING,20.700,22.061,1.000,0.00,-0.00,-128.06,3.316,7.151,3.751,4.317,2.434,0,0,SEARCHING,2.434,0.800,0.394,0.000
19:53:02.945,SEARCHING,20.576,21.904,1.000,0.00,-0.00,-128.43,3.415,6.934,3.751,4.160,2.487,0,0,SEARCHING,2.487,0.800,0.356,0.000
19:53:03.150,SEARCHING,20.477,21.778,1.000,0.00,-0.00,-128.43,3.632,6.730,3.751,4.086,2.460,0,0,SEARCHING,2.460,0.800,0.356,0.000
19:53:03.355,SEARCHING,20.377,21.653,1.000,0.00,-0.00,-128.43,3.632,6.730,3.751,3.945,2.434,0,0,SEARCHING,2.434,0.800,0.346,0.000
19:53:03.543,SEARCHING,20.303,21.559,1.000,0.00,-0.00,-128.43,3.632,6.538,3.691,3.751,2.434,0,0,SEARCHING,2.434,0.800,0.317,0.000
19:53:03.754,SEARCHING,20.178,21.402,1.000,0.00,-0.00,-128.43,3.691,6.356,3.575,3.632,2.460,0,0,SEARCHING,2.460,0.800,0.288,0.000
19:53:03.957,SEARCHING,20.104,21.308,1.000,0.00,-0.00,-128.43,3.691,6.356,3.575,3.575,2.434,0,0,SEARCHING,2.434,0.800,0.288,0.000
19:53:04.154,SEARCHING,19.979,21.152,1.000,0.00,-0.00,-128.43,3.751,6.184,3.467,3.520,2.409,0,0,SEARCHING,2.409,0.800,0.288,0.000
19:53:04.349,SEARCHING,19.880,21.026,1.000,0.00,-0.00,-128.43,3.878,6.356,3.415,3.365,2.434,0,0,SEARCHING,2.434,0.800,0.250,0.000
19:53:04.557,SEARCHING,19.781,20.901,1.000,0.00,-0.00,-128.43,4.014,6.356,3.415,3.269,2.460,0,0,SEARCHING,2.460,0.800,0.221,0.000
19:53:04.749,SEARCHING,19.706,20.807,1.000,0.00,-0.00,-128.43,3.945,5.867,3.316,3.269,2.460,0,0,SEARCHING,2.460,0.800,0.221,0.000
19:53:04.957,SEARCHING,19.606,20.682,1.000,0.00,-0.00,-128.43,4.086,5.200,3.269,3.269,2.434,0,0,SEARCHING,2.434,0.800,0.231,0.061
19:53:05.150,SEARCHING,19.508,20.556,1.000,0.00,-0.00,-127.81,4.014,4.670,3.178,3.269,2.460,0,0,SEARCHING,2.460,0.800,0.221,0.066
19:53:05.373,SEARCHING,19.410,20.429,1.000,0.00,-0.00,-127.08,3.878,4.317,3.269,3.269,2.434,0,0,SEARCHING,2.434,0.800,0.231,0.000
19:53:05.577,SEARCHING,19.290,20.269,1.000,0.00,-0.00,-126.72,3.878,4.086,3.223,3.269,2.460,0,0,SEARCHING,2.460,0.800,0.221,0.052
19:53:05.762,SEARCHING,19.195,20.140,1.000,0.00,-0.00,-126.54,3.691,3.878,3.178,3.269,2.460,0,0,SEARCHING,2.460,0.800,0.221,0.000
19:53:05.953,SEARCHING,19.123,20.044,1.000,0.00,-0.00,-126.54,3.632,3.691,3.223,3.269,2.460,0,0,SEARCHING,2.460,0.800,0.221,0.000
19:53:06.162,SEARCHING,19.028,19.915,1.000,0.00,-0.00,-126.54,3.316,3.575,3.134,3.269,2.434,0,0,SEARCHING,2.434,0.800,0.231,0.000
19:53:06.363,SEARCHING,18.933,19.787,1.000,0.00,-0.00,-126.54,3.011,3.365,3.092,3.269,2.434,0,0,SEARCHING,2.434,0.800,0.231,0.000
19:53:06.559,SEARCHING,18.814,19.626,1.000,0.00,-0.00,-126.54,2.860,2.790,2.934,3.223,2.460,0,0,SEARCHING,2.460,0.800,0.212,0.000
19:53:06.755,SEARCHING,18.719,19.498,1.000,0.00,-0.00,-126.54,2.692,2.724,3.011,2.896,2.434,0,0,SEARCHING,2.434,0.800,0.144,0.000
19:53:06.970,SEARCHING,18.623,19.369,1.000,0.00,-0.00,-126.54,2.571,2.724,2.934,3.011,2.434,0,0,SEARCHING,2.434,0.800,0.173,0.000
19:53:07.178,SEARCHING,18.528,19.241,1.000,0.00,-0.00,-126.54,2.359,2.288,2.692,2.514,2.409,0,0,SEARCHING,2.288,0.732,0.038,-0.052
19:53:07.381,SEARCHING,18.438,19.120,1.000,0.00,-0.00,-127.13,2.266,2.222,2.542,2.409,2.409,0,0,SEARCHING,2.222,0.711,0.000,0.000
19:53:07.561,SEARCHING,18.351,19.006,1.000,0.00,-0.00,-127.13,2.080,2.159,2.359,2.222,2.434,0,0,SEARCHING,2.080,0.691,-0.087,-0.057
19:53:07.759,SEARCHING,18.293,18.929,1.000,0.00,-0.00,-127.42,1.990,1.956,2.200,2.061,2.460,0,0,SEARCHING,1.956,0.626,-0.173,0.000
19:53:07.967,SEARCHING,18.194,18.801,1.000,0.00,-0.00,-127.69,1.845,1.860,2.099,1.956,2.434,0,0,SEARCHING,1.845,0.595,-0.221,-0.066
19:53:08.164,SEARCHING,18.118,18.703,1.000,0.00,-0.00,-128.19,1.760,1.845,1.973,1.816,2.409,0,0,SEARCHING,1.760,0.590,-0.298,-0.061
19:53:08.371,SEARCHING,18.045,18.611,1.000,0.00,-0.00,-128.87,1.646,1.708,1.876,1.733,2.409,0,0,SEARCHING,1.646,0.546,-0.356,-0.074
19:53:08.573,SEARCHING,17.976,18.526,1.000,0.00,-0.00,-129.70,1.567,1.646,1.760,1.634,2.434,0,0,SEARCHING,1.567,0.527,-0.442,-0.070
19:53:08.760,SEARCHING,17.924,18.465,1.000,0.00,-0.00,-130.35,1.430,1.567,1.670,1.525,2.434,0,0,SEARCHING,1.430,0.502,-0.538,-0.101
19:53:08.975,SEARCHING,17.858,18.389,1.000,0.00,-0.00,-131.40,1.370,1.457,1.589,1.430,2.434,0,0,SEARCHING,1.370,0.466,-0.635,-0.101
19:53:09.166,SEARCHING,17.780,18.301,1.000,0.00,-0.00,-132.99,1.293,1.387,1.505,1.354,2.384,0,0,SEARCHING,1.293,0.444,-0.702,-0.109
19:53:09.381,SEARCHING,17.718,18.237,1.000,0.00,-0.00,-134.40,1.211,1.308,1.430,1.271,2.409,0,0,SEARCHING,1.211,0.418,-0.817,-0.127
19:53:09.580,SEARCHING,17.674,18.192,1.000,0.00,-0.00,-135.57,1.156,1.237,1.354,1.192,2.409,0,0,SEARCHING,1.156,0.396,-0.933,-0.127
19:53:09.780,SEARCHING,17.602,18.123,1.000,0.00,-0.00,-137.29,1.217,1.204,1.330,1.138,2.409,0,0,SEARCHING,1.138,0.385,-1.000,-0.070
19:53:09.964,SEARCHING,17.559,18.085,1.000,0.00,-0.00,-138.08,1.230,1.127,1.271,1.054,2.409,0,0,SEARCHING,1.054,0.361,-1.000,0.000
19:53:10.173,SEARCHING,17.491,18.024,1.000,0.00,-0.00,-138.43,1.133,1.192,1.198,1.008,2.409,0,0,SEARCHING,1.008,0.381,-1.000,0.000
19:53:10.543,SEARCHING,17.449,17.987,1.000,0.00,-0.00,-138.43,1.127,1.127,1.133,0.946,2.409,0,0,SEARCHING,0.946,0.361,-1.000,0.000
19:53:10.794,SEARCHING,17.408,17.950,1.000,0.00,-0.00,-138.43,1.162,1.059,1.069,0.887,2.434,0,0,SEARCHING,0.887,0.339,-1.000,0.037
19:53:10.978,SEARCHING,17.381,17.926,1.000,0.00,-0.00,-138.43,1.138,1.257,1.116,0.829,2.409,0,0,SEARCHING,0.829,0.402,-1.000,0.000
19:53:11.174,SEARCHING,17.354,17.902,1.000,0.00,-0.00,-138.43,1.100,1.144,1.720,0.750,2.409,0,0,SEARCHING,0.750,0.366,-1.000,-0.164
19:53:11.350,SEARCHING,17.313,17.866,1.000,0.00,-0.00,-138.43,1.244,1.127,1.708,0.722,2.409,0,0,SEARCHING,0.722,0.361,-1.000,-0.109
19:53:11.516,SEARCHING,17.260,17.819,1.000,0.00,-0.00,-138.12,1.144,1.150,1.682,0.652,2.434,0,0,SEARCHING,0.652,0.368,-1.000,-0.140
19:53:11.879,SEARCHING,17.159,17.729,1.000,0.00,-0.00,-139.51,1.138,1.167,1.127,0.540,2.359,0,0,SEARCHING,0.540,0.374,-1.000,0.000
19:53:12.046,SEARCHING,17.117,17.694,1.000,0.00,-0.00,-140.53,1.285,1.111,1.074,0.480,2.266,0,0,SEARCHING,0.480,0.355,-1.000,0.076
19:53:12.227,SEARCHING,17.059,17.647,1.000,0.00,-0.00,-141.51,1.198,1.167,1.330,0.453,2.266,0,0,SEARCHING,0.453,0.374,-1.000,-0.042
19:53:12.596,SEARCHING,16.957,17.563,1.000,0.00,-0.00,-138.92,1.144,1.156,1.515,0.427,2.288,0,0,SEARCHING,0.427,0.370,-1.000,-0.107
19:53:12.789,SEARCHING,16.899,17.511,1.000,0.00,-0.00,-137.79,3.092,1.111,1.476,0.488,2.243,0,0,SEARCHING,0.488,0.355,-1.000,0.177
19:53:12.971,SEARCHING,16.857,17.473,1.000,0.00,-0.00,-137.85,1.695,1.217,1.467,0.452,2.200,0,0,SEARCHING,0.452,0.389,-1.000,0.046
19:53:13.168,SEARCHING,16.801,17.422,1.000,0.00,-0.00,-137.40,5.200,1.237,1.430,0.428,2.200,0,0,SEARCHING,0.428,0.396,-1.000,0.253
19:53:13.369,SEARCHING,16.747,17.373,1.000,0.00,-0.00,-137.13,2.724,1.224,1.362,0.478,2.243,0,0,SEARCHING,0.478,0.392,-1.000,0.184
19:53:13.561,SEARCHING,16.694,17.322,1.000,0.00,-0.00,-135.20,2.384,1.217,1.244,0.430,2.288,0,0,SEARCHING,0.430,0.389,-1.000,0.192
19:53:13.748,SEARCHING,16.639,17.267,1.000,0.00,-0.00,-133.39,2.222,2.600,1.179,0.426,2.409,0,0,SEARCHING,0.426,0.800,-1.000,0.199
19:53:14.091,SEARCHING,16.548,17.162,1.000,0.00,-0.00,-129.04,2.080,1.156,1.505,0.439,2.359,0,0,SEARCHING,0.439,0.370,-1.000,0.092
19:53:14.260,SEARCHING,16.504,17.106,1.000,0.00,-0.00,-127.50,1.990,2.571,1.536,0.423,2.335,0,0,SEARCHING,0.423,0.800,-1.000,0.074
19:53:14.588,SEARCHING,16.341,16.879,1.000,0.00,-0.00,-124.04,1.816,3.316,1.623,0.436,2.335,0,0,SEARCHING,0.436,0.800,-1.000,0.033
19:53:14.755,SEARCHING,16.293,16.808,1.000,0.00,-0.00,-123.22,1.747,3.632,1.623,0.438,2.266,0,0,SEARCHING,0.438,0.800,-1.000,0.000
19:53:14.948,SEARCHING,16.207,16.674,1.000,0.00,-0.00,-122.37,1.682,3.814,1.634,0.435,2.335,0,0,SEARCHING,0.435,0.800,-1.000,0.000
19:53:15.283,SEARCHING,16.059,16.436,1.000,0.00,-0.00,-121.53,1.536,3.878,1.611,0.427,2.288,0,0,SEARCHING,0.427,0.800,-1.000,0.000
19:53:15.450,SEARCHING,15.996,16.334,1.000,0.00,-0.00,-121.50,1.515,3.878,1.536,0.438,2.311,0,0,SEARCHING,0.438,0.800,-1.000,0.000
19:53:15.763,SEARCHING,15.850,16.095,1.000,0.00,-0.00,-121.50,4.974,3.814,1.250,1.816,2.311,0,0,SEARCHING,1.250,0.800,-0.260,0.599
19:53:15.931,SEARCHING,15.766,15.959,1.000,0.00,-0.00,-121.50,4.868,3.632,1.192,1.845,2.311,0,0,SEARCHING,1.192,0.800,-0.240,0.634
19:53:16.112,SEARCHING,15.644,15.752,1.000,0.00,-0.00,-118.59,4.487,3.691,1.362,2.692,2.288,0,0,SEARCHING,1.362,0.800,0.144,0.511
19:53:16.296,SEARCHING,15.546,15.533,1.000,0.00,-0.00,-108.35,3.691,5.321,2.061,2.630,2.288,0,0,SEARCHING,2.061,0.800,0.125,0.214
19:53:16.488,SEARCHING,15.472,15.222,1.000,0.00,-0.00,-100.79,2.790,4.576,5.321,2.571,2.243,0,0,SEARCHING,2.243,0.800,0.125,-0.170
19:53:16.693,SEARCHING,15.440,15.066,1.000,0.00,-0.00,-102.75,2.724,4.670,5.321,2.600,2.222,0,0,SEARCHING,2.222,0.800,0.144,-0.179
19:53:16.884,SEARCHING,15.412,14.949,1.000,0.00,-0.00,-104.27,2.860,4.767,5.448,2.600,2.179,0,0,SEARCHING,2.179,0.800,0.163,-0.166
19:53:17.090,SEARCHING,15.359,14.756,1.000,0.00,-0.00,-106.70,2.972,4.868,5.581,2.571,2.179,0,0,SEARCHING,2.179,0.800,0.154,-0.157
19:53:17.290,SEARCHING,15.311,14.603,1.000,0.00,-0.00,-108.50,3.011,4.670,5.321,2.600,2.179,0,0,SEARCHING,2.179,0.800,0.163,-0.144
19:53:17.499,SEARCHING,15.258,14.452,1.000,0.00,-0.00,-110.14,3.051,4.576,4.974,2.600,2.179,0,0,SEARCHING,2.179,0.800,0.163,-0.127
19:53:17.693,SEARCHING,15.215,14.340,1.000,0.00,-0.00,-111.24,3.092,4.487,4.400,2.600,2.200,0,0,SEARCHING,2.200,0.800,0.154,-0.096
19:53:17.892,SEARCHING,15.156,14.192,1.000,0.00,-0.00,-112.37,3.223,4.670,4.237,2.542,2.138,0,0,SEARCHING,2.138,0.800,0.163,-0.074
19:53:18.099,SEARCHING,15.094,14.044,1.000,0.00,-0.00,-113.30,3.269,4.670,4.237,2.571,2.119,0,0,SEARCHING,2.119,0.800,0.183,-0.070
19:53:18.286,SEARCHING,15.030,13.898,1.000,0.00,-0.00,-114.15,3.269,4.670,4.086,4.767,2.025,0,0,SEARCHING,2.025,0.800,0.625,-0.061
19:53:18.493,SEARCHING,14.964,13.752,1.000,0.00,-0.00,-114.85,3.178,4.576,4.014,4.974,1.956,0,0,SEARCHING,1.956,0.800,0.683,-0.066
19:53:18.702,SEARCHING,14.878,13.571,1.000,0.00,-0.00,-115.76,3.178,4.767,3.945,4.974,1.956,0,0,SEARCHING,1.956,0.800,0.683,-0.061
19:53:18.894,SEARCHING,14.826,13.463,1.000,0.00,-0.00,-116.27,3.092,4.868,3.814,5.085,1.939,0,0,SEARCHING,1.939,0.800,0.702,-0.061
19:53:19.102,SEARCHING,14.736,13.284,1.000,0.00,-0.00,-117.14,3.134,4.767,3.751,5.085,1.939,0,0,SEARCHING,1.939,0.800,0.702,-0.052
19:53:19.299,SEARCHING,14.662,13.142,1.000,0.00,-0.00,-117.81,2.934,4.767,3.691,5.200,1.939,0,0,SEARCHING,1.939,0.800,0.711,-0.070
19:53:19.496,SEARCHING,14.606,13.037,1.000,0.00,-0.00,-118.37,2.825,4.767,3.575,5.200,1.956,0,0,SEARCHING,1.956,0.800,0.702,-0.074
19:53:19.703,SEARCHING,14.529,12.896,1.000,0.00,-0.00,-119.16,2.757,4.974,3.467,5.321,1.956,0,0,SEARCHING,1.956,0.800,0.711,-0.074
19:53:19.909,SEARCHING,14.450,12.757,1.000,0.00,-0.00,-120.02,2.757,5.085,3.365,5.321,1.939,0,0,SEARCHING,1.939,0.800,0.721,-0.066
19:53:20.105,SEARCHING,14.369,12.619,1.000,0.00,-0.00,-120.85,2.790,5.085,3.269,5.200,1.923,0,0,SEARCHING,1.923,0.800,0.721,-0.052
19:53:20.307,SEARCHING,14.286,12.482,1.000,0.00,-0.00,-121.52,2.790,3.945,3.178,5.200,1.876,0,0,SEARCHING,1.876,0.800,0.750,0.000
19:53:20.503,SEARCHING,14.202,12.346,1.000,0.00,-0.00,-121.85,2.825,3.269,3.051,5.085,1.788,0,0,SEARCHING,1.788,0.800,0.798,0.000
19:53:20.705,SEARCHING,14.118,12.210,1.000,0.00,-0.00,-121.85,2.757,3.051,3.011,4.974,1.682,0,0,SEARCHING,1.682,0.800,0.865,0.000
19:53:20.914,SEARCHING,14.012,12.040,1.000,0.00,-0.00,-121.85,2.692,2.896,2.860,4.868,1.557,0,0,SEARCHING,1.557,0.800,0.961,0.000
19:53:21.106,SEARCHING,13.949,11.938,1.000,0.00,-0.00,-121.85,2.757,2.825,2.757,4.767,1.476,0,0,SEARCHING,1.476,0.800,1.000,0.000
19:53:21.307,SEARCHING,13.843,11.768,1.000,0.00,-0.00,-121.85,2.724,2.661,2.487,4.576,1.467,0,0,SEARCHING,1.467,0.800,1.000,0.000
19:53:22.761,SEARCHING,13.780,11.666,1.000,0.00,-0.00,-121.85,2.630,2.487,2.359,4.670,1.467,0,0,SEARCHING,1.467,0.796,1.000,0.000
19:53:22.850,SEARCHING,13.738,11.599,1.000,0.00,-0.00,-121.85,2.487,2.335,2.159,4.487,1.467,0,0,SEARCHING,1.467,0.747,1.000,0.061
19:53:23.021,SEARCHING,13.531,11.265,1.000,0.00,-0.00,-121.44,2.119,2.007,1.876,4.317,1.486,0,0,SEARCHING,1.486,0.642,0.971,0.061
19:53:23.222,SEARCHING,13.462,11.151,1.000,0.00,-0.00,-120.77,1.990,1.923,1.788,4.014,1.486,0,0,SEARCHING,1.486,0.615,0.933,0.057
19:53:23.428,SEARCHING,13.384,11.018,1.000,0.00,-0.00,-119.94,1.891,1.831,1.682,3.878,1.457,0,0,SEARCHING,1.457,0.586,0.942,0.066
19:53:23.628,SEARCHING,13.327,10.918,1.000,0.00,-0.00,-119.17,1.802,1.708,1.589,3.691,1.467,0,0,SEARCHING,1.467,0.546,0.904,0.074
19:53:23.851,SEARCHING,13.274,10.822,1.000,0.00,-0.00,-118.32,1.720,1.634,1.496,3.575,1.476,0,0,SEARCHING,1.476,0.523,0.875,0.087
19:53:24.023,SEARCHING,13.226,10.730,1.000,0.00,-0.00,-117.30,1.623,1.515,1.395,3.467,1.412,0,0,SEARCHING,1.395,0.485,0.923,0.101
19:53:24.229,SEARCHING,13.182,10.644,1.000,0.00,-0.00,-116.03,1.515,1.448,1.346,3.269,1.346,0,0,SEARCHING,1.346,0.463,0.961,0.083
19:53:24.434,SEARCHING,13.152,10.581,1.000,0.00,-0.00,-115.19,1.467,1.338,1.257,3.092,1.278,0,0,SEARCHING,1.257,0.428,1.000,0.114
19:53:24.628,SEARCHING,13.107,10.482,1.000,0.00,-0.00,-113.67,1.467,1.370,1.338,3.134,1.186,0,0,SEARCHING,1.186,0.438,1.000,0.066
19:53:24.834,SEARCHING,13.081,10.423,1.000,0.00,-0.00,-113.00,1.395,1.346,1.346,2.972,1.116,0,0,SEARCHING,1.116,0.431,1.000,0.000
19:53:25.038,SEARCHING,13.048,10.343,1.000,0.00,-0.00,-112.97,1.378,1.278,1.264,2.896,1.040,0,0,SEARCHING,1.040,0.409,1.000,0.066
19:53:25.330,SEARCHING,13.007,10.247,1.000,0.00,-0.00,-112.46,1.338,1.338,1.315,2.860,0.974,0,0,SEARCHING,0.974,0.428,1.000,0.000
19:53:25.528,SEARCHING,12.991,10.208,1.000,0.00,-0.00,-112.27,1.323,1.362,1.308,2.825,0.953,0,0,SEARCHING,0.953,0.436,1.000,0.000
19:53:25.718,SEARCHING,12.975,10.169,1.000,0.00,-0.00,-112.27,1.264,1.362,1.285,2.790,0.912,0,0,SEARCHING,0.912,0.436,1.000,0.000
19:53:25.896,SEARCHING,12.959,10.129,1.000,0.00,-0.00,-112.27,1.224,1.338,1.285,2.724,0.844,0,0,SEARCHING,0.844,0.428,1.000,0.000
19:53:26.261,SEARCHING,12.926,10.049,1.000,0.00,-0.00,-112.27,1.362,1.370,1.338,2.600,0.693,0,0,SEARCHING,0.693,0.438,1.000,0.000
19:53:26.460,SEARCHING,12.893,9.969,1.000,0.00,-0.00,-112.27,1.278,1.338,1.285,2.487,0.617,0,0,SEARCHING,0.617,0.428,1.000,0.000
19:53:26.759,SEARCHING,12.853,9.872,1.000,0.00,-0.00,-112.18,1.395,1.285,1.315,2.384,0.530,0,0,SEARCHING,0.530,0.411,1.000,0.000
19:53:26.954,SEARCHING,12.813,9.771,1.000,0.00,-0.00,-111.99,1.285,1.315,1.362,2.288,0.485,0,0,SEARCHING,0.485,0.421,1.000,0.000
19:53:27.146,SEARCHING,12.780,9.691,1.000,0.00,-0.00,-111.99,1.230,1.285,1.362,2.243,0.501,0,0,SEARCHING,0.501,0.411,1.000,-0.039
19:53:27.332,SEARCHING,12.756,9.631,1.000,0.00,-0.00,-111.99,1.448,1.257,1.330,2.099,0.472,0,0,SEARCHING,0.472,0.402,1.000,0.031
19:53:27.518,SEARCHING,12.725,9.553,1.000,0.00,-0.00,-111.99,1.430,1.285,1.330,2.043,0.503,0,0,SEARCHING,0.503,0.411,1.000,0.026
19:53:27.706,SEARCHING,12.694,9.476,1.000,0.00,-0.00,-112.19,1.421,1.237,1.346,1.990,0.467,0,0,SEARCHING,0.467,0.396,1.000,0.000
19:53:27.905,SEARCHING,12.663,9.401,1.000,0.00,-0.00,-112.29,1.370,1.230,1.285,1.923,0.493,0,0,SEARCHING,0.493,0.394,1.000,0.000
19:53:28.102,SEARCHING,12.632,9.325,1.000,0.00,-0.00,-111.95,1.330,1.244,1.323,1.831,0.471,0,0,SEARCHING,0.471,0.398,1.000,0.000
19:53:28.297,SEARCHING,12.602,9.250,1.000,0.00,-0.00,-111.68,1.300,1.192,1.264,1.774,0.483,0,0,SEARCHING,0.483,0.381,1.000,0.000
19:53:28.642,SEARCHING,12.551,9.121,1.000,0.00,-0.00,-111.68,1.257,1.600,1.250,1.623,0.467,0,0,SEARCHING,0.467,0.512,1.000,0.000
19:53:28.824,SEARCHING,12.529,9.066,1.000,0.00,-0.00,-111.68,1.224,1.315,1.250,1.557,0.471,0,0,SEARCHING,0.471,0.421,1.000,0.000
19:53:29.006,SEARCHING,12.500,8.995,1.000,0.00,-0.00,-111.68,1.198,1.250,2.514,1.486,0.483,0,0,SEARCHING,0.483,0.400,1.000,-0.219
19:53:29.221,SEARCHING,12.471,8.921,1.000,0.00,-0.00,-111.68,1.162,1.430,2.460,1.404,0.490,0,0,SEARCHING,0.490,0.458,1.000,-0.227
19:53:29.419,SEARCHING,12.437,8.836,1.000,0.00,-0.00,-112.94,1.144,1.404,2.409,1.387,0.468,0,0,SEARCHING,0.468,0.449,1.000,-0.229
19:53:29.605,SEARCHING,12.404,8.760,1.000,0.00,-0.00,-113.31,1.162,1.412,2.409,1.421,0.478,0,0,SEARCHING,0.478,0.452,1.000,-0.223
19:53:29.803,SEARCHING,12.369,8.682,1.000,0.00,-0.00,-115.86,1.095,1.439,2.860,1.496,0.486,0,0,SEARCHING,0.486,0.461,1.000,-0.282
