timestamp,state,x,y,z,roll_deg,pitch_deg,yaw_deg,dist_left,dist_center,dist_right,dist_top,dist_bottom,dtof_alert,collision_event,best_dir,max_space,cmd_vx,cmd_vz,cmd_yaw
22:19:48.736,SEARCHING,0.000,0.000,1.000,0.00,0.00,0.00,7.336,8.401,7.567,8.401,7.738,0,0,SEARCHING,0.000,0.240,0.000,-0.001
22:19:48.886,SEARCHING,0.057,-0.000,1.007,0.00,0.00,-0.54,1.171,4.678,1.937,4.678,2.517,0,0,SEARCHING,0.000,0.666,0.141,-0.163
22:19:49.087,SEARCHING,0.174,-0.003,1.039,0.00,0.00,-2.61,1.029,4.157,1.818,4.148,2.518,0,0,SEARCHING,0.000,0.768,0.186,-0.281
22:19:49.288,SEARCHING,0.299,-0.011,1.076,0.00,0.00,-5.55,0.902,3.504,1.688,3.528,2.548,0,0,SEARCHING,0.000,0.792,0.159,-0.361
22:19:49.489,SEARCHING,0.425,-0.027,1.104,0.00,0.00,-9.04,2.866,2.492,1.545,2.512,2.370,0,0,SEARCHING,0.000,0.798,0.076,-0.197
22:19:49.689,SEARCHING,0.551,-0.047,1.114,0.00,0.00,-8.57,6.465,2.143,1.432,2.143,2.135,0,0,SEARCHING,0.000,0.800,0.018,0.248
22:19:49.889,SEARCHING,0.693,-0.065,1.116,0.00,0.00,-5.09,7.187,2.415,1.407,2.291,2.283,0,0,SEARCHING,0.000,0.794,0.004,0.402
22:19:50.089,SEARCHING,0.852,-0.073,1.116,0.00,0.00,-0.27,6.123,3.341,1.422,3.311,2.669,0,0,SEARCHING,0.000,0.799,0.027,0.433
22:19:50.290,SEARCHING,0.980,-0.070,1.126,0.00,0.00,3.63,4.784,4.162,1.494,4.172,2.695,0,0,SEARCHING,0.000,0.800,0.110,0.403
22:19:50.491,SEARCHING,1.108,-0.059,1.151,0.00,0.00,7.10,3.865,4.865,1.815,4.948,2.806,0,0,SEARCHING,0.000,0.800,0.158,0.325
22:19:50.691,SEARCHING,1.234,-0.040,1.185,0.00,0.00,9.57,3.553,5.535,2.184,5.350,2.873,0,0,SEARCHING,0.000,0.800,0.184,0.212
22:19:50.892,SEARCHING,1.360,-0.017,1.222,0.00,0.00,11.13,3.280,6.320,2.478,5.410,2.984,0,0,SEARCHING,0.000,0.800,0.185,0.127
22:19:51.092,SEARCHING,1.486,0.008,1.259,0.00,0.00,11.98,3.100,6.838,2.909,5.383,3.062,0,0,SEARCHING,0.000,0.800,0.176,0.057
22:19:51.293,SEARCHING,1.611,0.035,1.293,0.00,0.00,12.31,3.025,6.933,3.042,5.310,3.174,0,0,SEARCHING,0.000,0.800,0.163,0.018
22:19:51.493,SEARCHING,1.736,0.063,1.325,0.00,0.00,12.38,2.993,7.236,3.074,5.213,3.224,0,0,SEARCHING,0.000,0.800,0.152,0.001
22:19:51.694,SEARCHING,1.861,0.090,1.355,0.00,0.00,12.36,2.996,7.364,3.051,5.106,3.308,0,0,SEARCHING,0.000,0.800,0.138,-0.004
22:19:51.894,SEARCHING,1.986,0.117,1.382,0.00,0.00,12.32,2.955,7.271,2.990,5.015,3.381,0,0,SEARCHING,0.000,0.800,0.124,-0.004
22:19:52.094,SEARCHING,2.111,0.145,1.406,0.00,0.00,12.30,2.935,7.340,2.909,4.953,3.447,0,0,SEARCHING,0.000,0.800,0.114,-0.000
22:19:52.295,SEARCHING,2.236,0.172,1.428,0.00,0.00,12.31,2.912,7.290,2.878,4.922,3.503,0,0,SEARCHING,0.000,0.800,0.104,0.002
22:19:52.496,SEARCHING,2.361,0.199,1.448,0.00,0.00,12.33,2.875,7.273,2.860,4.859,3.568,0,0,SEARCHING,0.000,0.800,0.096,0.003
22:19:52.696,SEARCHING,2.486,0.227,1.467,0.00,0.00,12.35,2.834,7.357,2.844,4.816,3.563,0,0,SEARCHING,0.000,0.800,0.090,0.000
22:19:52.894,SEARCHING,2.611,0.254,1.485,0.00,0.00,12.35,2.850,7.184,2.831,4.771,3.665,0,0,SEARCHING,0.000,0.800,0.082,0.000
22:19:53.093,SEARCHING,2.736,0.281,1.501,0.00,0.00,12.37,2.893,7.156,2.818,4.768,3.737,0,0,SEARCHING,0.000,0.800,0.074,0.005
22:19:53.294,SEARCHING,2.861,0.309,1.515,0.00,0.00,12.42,2.922,7.032,2.828,4.681,3.719,0,0,SEARCHING,0.000,0.800,0.068,0.007
22:19:53.494,SEARCHING,2.986,0.336,1.528,0.00,0.00,12.49,2.953,6.916,2.835,4.671,3.808,0,0,SEARCHING,0.000,0.800,0.064,0.010
22:19:53.695,SEARCHING,3.111,0.364,1.541,0.00,0.00,12.59,2.974,6.828,2.859,4.616,3.837,0,0,SEARCHING,0.000,0.800,0.057,0.011
22:19:53.896,SEARCHING,3.236,0.392,1.552,0.00,0.00,12.69,2.945,6.741,2.854,4.616,3.861,0,0,SEARCHING,0.000,0.800,0.053,0.010
22:19:54.096,SEARCHING,3.361,0.420,1.560,0.00,0.00,12.77,2.910,6.561,2.819,4.627,3.899,0,0,SEARCHING,0.000,0.800,0.013,0.009
22:19:54.297,SEARCHING,3.486,0.449,1.563,0.00,0.00,12.86,2.888,6.542,2.808,4.627,3.872,0,0,SEARCHING,0.000,0.800,0.036,0.009
22:19:54.497,SEARCHING,3.610,0.477,1.570,0.00,0.00,12.93,2.840,6.538,2.790,4.602,3.908,0,0,SEARCHING,0.000,0.800,0.014,0.007
22:19:54.698,SEARCHING,3.735,0.506,1.573,0.00,0.00,12.98,2.772,6.445,2.770,4.578,3.885,0,0,SEARCHING,0.000,0.800,0.021,0.004
22:19:54.897,SEARCHING,3.860,0.535,1.576,0.00,0.00,13.00,2.740,6.367,2.770,4.577,3.915,0,0,SEARCHING,0.000,0.800,0.005,-0.000
22:19:55.098,SEARCHING,4.016,0.571,1.576,0.00,0.00,12.99,2.780,6.233,2.746,4.567,3.894,0,0,SEARCHING,0.000,0.800,0.001,0.001
22:19:55.298,SEARCHING,4.172,0.607,1.576,0.00,0.00,13.01,2.757,6.107,2.729,4.534,3.919,0,0,SEARCHING,0.000,0.800,0.000,0.003
22:19:55.499,SEARCHING,4.312,0.639,1.578,0.00,0.00,13.04,2.744,6.040,2.742,4.571,3.924,0,0,SEARCHING,0.000,0.800,0.018,0.001
22:19:55.699,SEARCHING,4.452,0.672,1.580,0.00,0.00,13.05,2.746,5.945,2.752,4.538,3.943,0,0,SEARCHING,0.000,0.800,0.004,0.001
22:19:55.899,SEARCHING,4.608,0.708,1.580,0.00,0.00,13.05,2.714,5.801,2.776,4.535,3.953,0,0,SEARCHING,0.000,0.800,0.001,-0.003
22:19:56.101,SEARCHING,4.764,0.744,1.580,0.00,0.00,13.00,2.720,5.650,2.774,4.564,3.946,0,0,SEARCHING,0.000,0.800,0.000,-0.006
22:19:56.302,SEARCHING,4.920,0.780,1.580,0.00,0.00,12.94,2.747,5.593,2.747,4.552,3.938,0,0,SEARCHING,0.000,0.800,0.000,-0.002
22:19:56.501,SEARCHING,5.076,0.816,1.580,0.00,0.00,12.92,2.683,5.407,2.721,4.495,3.889,0,0,SEARCHING,0.000,0.800,0.000,-0.003
22:19:56.702,SEARCHING,5.232,0.851,1.580,0.00,0.00,12.89,2.641,5.338,2.656,4.527,3.891,0,0,SEARCHING,0.000,0.800,0.000,-0.002
22:19:56.902,SEARCHING,5.388,0.887,1.580,0.00,0.00,12.87,2.584,5.223,2.570,4.568,3.889,0,0,SEARCHING,0.000,0.800,0.000,-0.000
22:19:57.103,SEARCHING,5.544,0.923,1.580,0.00,0.00,12.88,2.590,5.141,2.543,4.575,3.925,0,0,SEARCHING,0.000,0.800,0.000,0.003
22:19:57.304,SEARCHING,5.700,0.958,1.580,0.00,0.00,12.93,2.582,5.039,2.506,4.563,3.943,0,0,SEARCHING,0.000,0.800,0.000,0.007
22:19:57.504,SEARCHING,5.856,0.994,1.580,0.00,0.00,13.02,2.582,4.928,2.511,4.575,3.983,0,0,SEARCHING,0.000,0.800,0.000,0.008
22:19:57.705,SEARCHING,6.012,1.030,1.580,0.00,0.00,13.11,2.570,4.878,2.500,4.570,3.999,0,0,SEARCHING,0.000,0.800,0.000,0.008
22:19:57.905,SEARCHING,6.167,1.067,1.580,0.00,0.00,13.20,2.555,4.793,2.520,4.558,3.955,0,0,SEARCHING,0.000,0.800,0.000,0.007
22:19:58.106,SEARCHING,6.323,1.104,1.580,0.00,0.00,13.26,2.558,4.637,2.541,4.563,3.946,0,0,SEARCHING,0.000,0.800,0.000,0.003
22:19:58.306,SEARCHING,6.479,1.140,1.580,0.00,0.00,13.29,2.585,4.544,2.532,4.507,3.906,0,0,SEARCHING,0.000,0.800,0.000,0.004
22:19:58.507,SEARCHING,6.635,1.177,1.580,0.00,0.00,13.34,2.555,4.435,2.508,4.416,3.840,0,0,SEARCHING,0.000,0.800,0.000,0.005
22:19:58.707,SEARCHING,6.790,1.214,1.580,0.00,0.00,13.41,2.555,4.352,2.515,4.349,3.927,0,0,SEARCHING,0.000,0.800,0.000,0.005
22:19:58.909,SEARCHING,6.946,1.251,1.580,0.00,0.00,13.46,2.542,4.216,2.515,4.215,3.803,0,0,SEARCHING,0.000,0.800,0.000,0.004
22:19:59.109,SEARCHING,7.101,1.289,1.580,0.00,0.00,13.51,2.502,4.047,2.504,4.029,3.891,0,0,SEARCHING,0.000,0.800,0.000,0.003
22:19:59.309,SEARCHING,7.257,1.326,1.580,0.00,0.00,13.54,2.441,3.928,2.437,3.954,3.860,0,0,SEARCHING,0.000,0.800,0.000,0.001
22:19:59.509,SEARCHING,7.413,1.363,1.580,0.00,0.00,13.44,2.352,3.761,3.298,3.838,3.822,0,0,SEARCHING,0.000,0.800,0.000,-0.045
22:19:59.711,SEARCHING,7.568,1.400,1.580,0.00,0.00,12.66,2.272,3.717,3.551,3.780,3.796,0,0,SEARCHING,0.000,0.800,0.000,-0.100
22:19:59.910,SEARCHING,7.725,1.433,1.580,0.00,0.00,11.39,2.254,5.061,3.512,3.772,3.813,0,0,SEARCHING,0.000,0.800,0.000,-0.122
22:20:00.111,SEARCHING,7.882,1.463,1.580,0.00,0.00,9.98,2.251,5.300,3.391,3.691,3.878,0,0,SEARCHING,0.000,0.800,0.000,-0.122
22:20:00.312,SEARCHING,8.040,1.489,1.580,0.00,0.00,8.61,2.257,3.789,3.248,3.518,3.927,0,0,SEARCHING,0.000,0.800,0.000,-0.115
22:20:00.513,SEARCHING,8.198,1.512,1.580,0.00,0.00,7.34,2.279,3.332,3.076,3.301,3.924,0,0,SEARCHING,0.000,0.800,-0.017,-0.102
22:20:00.714,SEARCHING,8.325,1.527,1.573,0.00,0.00,6.47,2.302,3.183,2.981,3.161,3.831,0,0,SEARCHING,0.000,0.800,-0.054,-0.087
22:20:00.914,SEARCHING,8.453,1.541,1.561,0.00,0.00,5.72,2.313,3.022,2.892,3.012,3.873,0,0,SEARCHING,0.000,0.800,-0.076,-0.076
22:20:01.114,SEARCHING,8.580,1.553,1.545,0.00,0.00,5.06,2.314,2.833,2.795,2.840,3.831,0,0,SEARCHING,0.000,0.800,-0.095,-0.067
22:20:01.314,SEARCHING,8.708,1.564,1.525,0.00,0.00,4.50,2.302,2.715,2.705,2.728,3.797,0,0,SEARCHING,0.000,0.800,-0.113,-0.057
22:20:01.515,SEARCHING,8.835,1.573,1.502,0.00,0.00,4.01,2.291,2.594,2.581,2.615,3.744,0,0,SEARCHING,0.000,0.800,-0.127,-0.048
22:20:01.715,SEARCHING,8.963,1.582,1.475,0.00,0.00,3.62,2.269,2.484,2.455,2.500,3.682,0,0,SEARCHING,0.000,0.800,-0.142,-0.036
22:20:01.916,SEARCHING,9.091,1.590,1.446,0.00,0.00,3.35,2.257,2.367,2.316,2.366,3.605,0,0,SEARCHING,0.000,0.800,-0.161,-0.022
22:20:02.116,SEARCHING,9.218,1.597,1.413,0.00,0.00,3.60,5.571,2.252,2.162,2.252,3.490,0,0,SEARCHING,0.000,0.800,-0.177,0.119
22:20:02.317,SEARCHING,9.346,1.607,1.376,0.00,0.00,5.21,5.875,2.183,2.017,2.180,3.427,0,0,SEARCHING,0.000,0.800,-0.193,0.219
22:20:02.517,SEARCHING,9.473,1.620,1.337,0.00,0.00,7.43,5.846,2.121,1.923,2.122,3.355,0,0,SEARCHING,0.000,0.800,-0.203,0.260
22:20:02.718,SEARCHING,9.600,1.639,1.296,0.00,0.00,9.94,5.865,7.120,1.787,2.834,3.274,0,0,SEARCHING,0.000,0.800,-0.166,0.290
22:20:02.919,SEARCHING,9.726,1.664,1.276,0.00,0.00,12.34,2.079,7.546,1.586,5.153,3.191,0,0,SEARCHING,0.000,0.800,0.044,0.201
22:20:03.119,SEARCHING,9.850,1.693,1.291,0.00,0.00,13.78,1.734,7.123,1.499,5.329,3.210,0,0,SEARCHING,0.000,0.800,0.123,0.117
22:20:03.320,SEARCHING,9.974,1.724,1.317,0.00,0.00,14.62,1.574,6.801,1.439,5.322,3.245,0,0,SEARCHING,0.000,0.800,0.140,0.070
22:20:03.522,SEARCHING,10.098,1.757,1.345,0.00,0.00,15.16,2.046,6.592,1.375,5.239,3.312,0,0,SEARCHING,0.000,0.800,0.139,0.096
22:20:03.722,SEARCHING,10.221,1.791,1.372,0.00,0.00,16.58,2.314,6.406,1.308,5.205,3.354,0,0,SEARCHING,0.000,0.800,0.131,0.209
22:20:03.921,SEARCHING,10.343,1.830,1.398,0.00,0.00,18.22,2.246,5.925,3.293,5.141,3.389,0,0,SEARCHING,0.000,0.800,0.125,0.059
22:20:04.122,SEARCHING,10.465,1.870,1.423,0.00,0.00,17.92,2.162,5.635,3.906,5.086,3.457,0,0,SEARCHING,0.000,0.800,0.117,-0.101
22:20:04.323,SEARCHING,10.587,1.908,1.446,0.00,0.00,16.71,4.326,5.693,3.791,5.046,3.534,0,0,SEARCHING,0.000,0.800,0.108,-0.092
22:20:04.523,SEARCHING,10.710,1.944,1.467,0.00,0.00,16.42,4.781,5.737,3.628,4.986,3.591,0,0,SEARCHING,0.000,0.800,0.099,0.012
22:20:04.723,SEARCHING,10.833,1.981,1.486,0.00,0.00,16.71,4.774,5.681,3.650,4.953,3.630,0,0,SEARCHING,0.000,0.800,0.093,0.043
22:20:04.924,SEARCHING,10.955,2.018,1.504,0.00,0.00,17.13,4.704,5.467,3.854,4.884,3.702,0,0,SEARCHING,0.000,0.800,0.084,0.043
22:20:05.125,SEARCHING,11.077,2.056,1.521,0.00,0.00,17.47,4.603,5.352,4.710,4.829,3.705,0,0,SEARCHING,0.000,0.800,0.079,0.022
22:20:05.326,SEARCHING,11.199,2.095,1.536,0.00,0.00,17.53,4.521,5.159,5.103,4.760,3.837,0,0,SEARCHING,0.000,0.800,0.069,-0.006
22:20:05.526,SEARCHING,11.321,2.133,1.549,0.00,0.00,17.39,4.390,5.105,5.505,4.687,3.893,0,0,SEARCHING,0.000,0.800,0.059,-0.026
22:20:05.726,SEARCHING,11.444,2.171,1.559,0.00,0.00,17.09,4.234,5.036,5.589,4.611,3.941,0,0,SEARCHING,0.000,0.800,0.019,-0.038
22:20:05.927,SEARCHING,11.581,2.213,1.561,0.00,0.00,16.65,4.061,4.989,5.572,4.592,3.945,0,0,SEARCHING,0.000,0.800,0.005,-0.048
22:20:06.127,SEARCHING,11.735,2.258,1.561,0.00,0.00,16.07,3.881,4.977,5.594,4.579,3.956,0,0,SEARCHING,0.000,0.800,0.001,-0.057
22:20:06.328,SEARCHING,11.889,2.301,1.561,0.00,0.00,15.25,2.411,4.959,5.569,4.573,3.926,0,0,SEARCHING,0.000,0.800,0.000,-0.120
22:20:06.529,SEARCHING,12.044,2.342,1.561,0.00,0.00,13.75,3.311,5.013,5.216,4.590,3.910,0,0,SEARCHING,0.000,0.800,0.000,-0.117
22:20:06.729,SEARCHING,12.200,2.378,1.561,0.00,0.00,12.56,3.342,5.265,4.388,4.551,3.882,0,0,SEARCHING,0.000,0.800,0.000,-0.080
22:20:06.930,SEARCHING,12.356,2.412,1.561,0.00,0.00,11.76,3.201,5.858,3.947,4.503,3.833,0,0,SEARCHING,0.000,0.800,0.000,-0.057
22:20:07.131,SEARCHING,12.513,2.444,1.561,0.00,0.00,11.13,3.081,6.780,3.912,4.517,3.800,0,0,SEARCHING,0.000,0.800,0.015,-0.055
22:20:07.331,SEARCHING,12.638,2.468,1.565,0.00,0.00,10.61,3.048,6.757,3.914,4.533,3.816,0,0,SEARCHING,0.000,0.800,0.027,-0.057
22:20:07.532,SEARCHING,12.764,2.491,1.569,0.00,0.00,10.10,3.061,6.624,3.732,4.501,3.797,0,0,SEARCHING,0.000,0.800,0.006,-0.052
22:20:07.733,SEARCHING,12.922,2.518,1.569,0.00,0.00,9.54,3.026,6.638,3.674,4.484,3.852,0,0,SEARCHING,0.000,0.800,0.002,-0.046
22:20:07.933,SEARCHING,13.080,2.544,1.569,0.00,0.00,8.99,3.022,6.716,4.066,4.555,3.862,0,0,SEARCHING,0.000,0.800,0.000,-0.055
22:20:08.133,SEARCHING,13.238,2.568,1.569,0.00,0.00,8.24,2.987,6.728,5.176,4.514,3.871,0,0,SEARCHING,0.000,0.800,0.000,-0.088
22:20:08.333,SEARCHING,13.397,2.590,1.569,0.00,0.00,7.12,2.997,6.880,5.039,4.569,3.886,0,0,SEARCHING,0.000,0.800,0.000,-0.106
22:20:08.534,SEARCHING,13.556,2.608,1.569,0.00,0.00,5.94,3.045,6.716,4.349,4.564,3.911,0,0,SEARCHING,0.000,0.800,0.000,-0.092
22:20:08.735,SEARCHING,13.715,2.624,1.569,0.00,0.00,4.93,3.078,6.502,4.304,4.527,3.922,0,0,SEARCHING,0.000,0.800,0.000,-0.083
22:20:08.935,SEARCHING,13.874,2.636,1.569,0.00,0.00,4.03,3.078,6.451,4.112,4.566,3.887,0,0,SEARCHING,0.000,0.800,0.000,-0.071
22:20:09.136,SEARCHING,14.034,2.646,1.569,0.00,0.00,3.24,3.412,6.254,4.101,4.548,3.776,0,0,SEARCHING,0.000,0.800,0.016,-0.059
22:20:09.336,SEARCHING,14.162,2.653,1.575,0.00,0.00,3.17,7.948,6.063,4.054,4.556,3.664,0,0,SEARCHING,0.000,0.800,0.050,0.042
22:20:09.536,SEARCHING,14.290,2.661,1.586,0.00,0.00,3.80,8.183,6.059,4.082,4.574,3.573,0,0,SEARCHING,0.000,0.800,0.065,0.085
22:20:09.737,SEARCHING,14.417,2.670,1.600,0.00,0.00,4.60,7.693,6.084,4.393,4.535,3.456,0,0,SEARCHING,0.000,0.800,0.075,0.084
22:20:09.937,SEARCHING,14.545,2.681,1.615,0.00,0.00,5.34,7.327,6.260,4.361,4.492,3.311,0,0,SEARCHING,0.000,0.800,0.087,0.077
22:20:10.139,SEARCHING,14.672,2.694,1.633,0.00,0.00,6.03,6.851,6.413,4.230,4.435,3.170,0,0,SEARCHING,0.000,0.800,0.098,0.074
22:20:10.338,SEARCHING,14.799,2.708,1.653,0.00,0.00,6.70,6.509,6.681,4.029,4.378,3.050,0,0,SEARCHING,0.000,0.800,0.109,0.074
22:20:10.539,SEARCHING,14.926,2.724,1.676,0.00,0.00,7.38,6.305,6.891,3.950,4.348,2.976,0,0,SEARCHING,0.000,0.800,0.121,0.075
22:20:10.739,SEARCHING,15.053,2.741,1.700,0.00,0.00,8.08,6.167,6.825,3.828,4.284,2.872,0,0,SEARCHING,0.000,0.800,0.130,0.078
22:20:10.940,SEARCHING,15.180,2.759,1.727,0.00,0.00,8.81,6.116,6.813,3.778,4.170,2.768,0,0,SEARCHING,0.000,0.800,0.139,0.080
22:20:11.141,SEARCHING,15.306,2.780,1.756,0.00,0.00,9.55,6.049,6.744,3.776,4.126,2.643,0,0,SEARCHING,0.000,0.800,0.153,0.080
22:20:11.341,SEARCHING,15.432,2.802,1.787,0.00,0.00,10.28,5.988,6.692,3.779,4.061,2.628,0,0,SEARCHING,0.000,0.800,0.159,0.079
22:20:11.541,SEARCHING,15.558,2.825,1.819,0.00,0.00,11.00,5.889,6.725,3.768,3.972,2.608,0,0,SEARCHING,0.000,0.800,0.159,0.078
22:20:11.742,SEARCHING,15.684,2.850,1.850,0.00,0.00,11.71,5.832,6.740,3.796,3.887,2.644,0,0,SEARCHING,0.000,0.800,0.154,0.076
22:20:11.943,SEARCHING,15.809,2.877,1.880,0.00,0.00,12.38,5.732,6.886,3.812,3.792,2.745,0,0,SEARCHING,0.000,0.800,0.137,0.072
22:20:12.143,SEARCHING,15.934,2.905,1.906,0.00,0.00,13.04,5.713,6.885,3.804,3.716,2.836,0,0,SEARCHING,0.000,0.800,0.113,0.072
22:20:12.343,SEARCHING,16.058,2.935,1.928,0.00,0.00,13.69,5.471,6.864,3.793,3.662,2.920,0,0,SEARCHING,0.000,0.800,0.094,0.069
22:20:12.544,SEARCHING,16.183,2.965,1.946,0.00,0.00,14.30,5.366,6.790,3.780,3.635,2.980,0,0,SEARCHING,0.000,0.800,0.080,0.064
22:20:12.745,SEARCHING,16.306,2.998,1.961,0.00,0.00,14.87,5.335,6.804,3.837,3.566,3.006,0,0,SEARCHING,0.000,0.800,0.070,0.061
22:20:12.945,SEARCHING,16.430,3.031,1.974,0.00,0.00,15.40,5.099,6.802,3.903,3.512,3.038,0,0,SEARCHING,0.000,0.800,0.059,0.053
22:20:13.145,SEARCHING,16.553,3.065,1.986,0.00,0.00,15.85,5.073,6.855,4.095,3.452,3.046,0,0,SEARCHING,0.000,0.800,0.038,0.044
22:20:13.346,SEARCHING,16.676,3.101,1.991,0.00,0.00,16.20,4.928,6.728,4.576,3.454,3.074,0,0,SEARCHING,0.000,0.800,0.009,0.028
22:20:13.547,SEARCHING,16.830,3.146,1.991,0.00,0.00,16.43,4.625,6.671,4.695,3.510,3.112,0,0,SEARCHING,0.000,0.800,0.002,0.008
22:20:13.746,SEARCHING,16.983,3.191,1.991,0.00,0.00,16.48,4.623,6.723,4.625,3.521,3.501,0,0,SEARCHING,0.000,0.800,0.001,0.001
22:20:13.947,SEARCHING,17.137,3.236,1.991,0.00,0.00,16.48,4.442,6.409,4.507,3.504,3.838,0,0,SEARCHING,0.000,0.800,0.000,-0.001
22:20:14.147,SEARCHING,17.290,3.282,1.991,0.00,0.00,16.47,4.325,6.471,4.358,3.548,3.983,0,0,SEARCHING,0.000,0.800,0.000,-0.001
22:20:14.347,SEARCHING,17.444,3.327,1.991,0.00,0.00,16.46,4.338,6.320,4.263,3.451,4.009,0,0,SEARCHING,0.000,0.800,0.000,0.001
22:20:14.549,SEARCHING,17.597,3.373,1.991,0.00,0.00,16.49,4.191,6.173,4.067,3.397,4.014,0,0,SEARCHING,0.000,0.800,-0.016,0.005
22:20:14.750,SEARCHING,17.720,3.409,1.985,0.00,0.00,16.54,4.143,6.004,3.978,3.490,4.014,0,0,SEARCHING,0.000,0.800,-0.028,0.006
22:20:14.949,SEARCHING,17.842,3.445,1.981,0.00,0.00,16.59,5.381,5.924,3.856,3.544,4.046,0,0,SEARCHING,0.000,0.800,-0.007,0.022
22:20:15.150,SEARCHING,17.996,3.491,1.981,0.00,0.00,16.94,6.392,5.791,3.773,3.524,4.151,0,0,SEARCHING,0.000,0.800,-0.017,0.050
22:20:15.350,SEARCHING,18.118,3.529,1.976,0.00,0.00,17.61,8.025,5.495,3.753,3.525,4.254,0,0,SEARCHING,0.000,0.800,-0.046,0.093
22:20:15.551,SEARCHING,18.240,3.569,1.966,0.00,0.00,18.55,6.762,5.456,3.711,3.581,4.387,0,0,SEARCHING,0.000,0.800,-0.056,0.104
22:20:15.752,SEARCHING,18.361,3.610,1.955,0.00,0.00,19.35,3.749,5.356,3.765,3.635,4.475,0,0,SEARCHING,0.000,0.800,-0.061,0.050
22:20:15.951,SEARCHING,18.481,3.653,1.942,0.00,0.00,19.72,7.536,5.289,3.758,3.674,4.447,0,0,SEARCHING,0.000,0.800,-0.060,0.065
22:20:16.152,SEARCHING,18.602,3.697,1.930,0.00,0.00,20.51,8.295,5.252,3.779,3.688,4.480,0,0,SEARCHING,0.000,0.800,-0.058,0.101
22:20:16.352,SEARCHING,18.721,3.743,1.919,0.00,0.00,21.50,8.487,5.249,3.796,3.708,4.486,0,0,SEARCHING,0.000,0.800,-0.057,0.113
22:20:16.553,SEARCHING,18.840,3.791,1.908,0.00,0.00,22.56,9.031,5.251,3.774,3.738,4.487,0,0,SEARCHING,0.000,0.800,-0.056,0.118
22:20:16.753,SEARCHING,18.958,3.841,1.897,0.00,0.00,23.67,7.431,5.263,3.828,3.753,4.487,0,0,SEARCHING,0.000,0.800,-0.053,0.116
22:20:16.957,SEARCHING,19.075,3.893,1.886,0.00,0.00,24.47,5.527,5.279,3.725,3.772,4.447,0,0,SEARCHING,0.000,0.800,-0.036,0.066
22:20:17.158,SEARCHING,19.191,3.947,1.881,0.00,0.00,25.20,9.113,5.305,3.489,3.812,4.408,0,0,SEARCHING,0.000,0.800,-0.009,0.106
22:20:17.360,SEARCHING,19.335,4.016,1.881,0.00,0.00,26.60,9.896,5.282,3.446,3.813,4.443,0,0,SEARCHING,0.000,0.800,-0.002,0.141
22:20:17.561,SEARCHING,19.477,4.090,1.881,0.00,0.00,28.20,6.308,5.278,3.864,3.814,4.445,0,0,SEARCHING,0.000,0.800,-0.000,0.119
22:20:17.761,SEARCHING,19.617,4.167,1.881,0.00,0.00,29.22,3.132,5.361,3.765,3.800,4.471,0,0,SEARCHING,0.000,0.800,-0.000,0.025
22:20:17.960,SEARCHING,19.757,4.245,1.881,0.00,0.00,29.59,8.814,5.393,3.651,3.822,4.479,0,0,SEARCHING,0.000,0.800,-0.000,0.080
22:20:18.160,SEARCHING,19.895,4.325,1.881,0.00,0.00,30.74,9.843,5.356,3.581,3.810,4.495,0,0,SEARCHING,0.000,0.800,-0.000,0.125
22:20:18.360,SEARCHING,20.032,4.408,1.881,0.00,0.00,32.25,9.968,5.468,3.527,3.816,4.488,0,0,SEARCHING,0.000,0.800,-0.000,0.141
22:20:18.562,SEARCHING,20.166,4.496,1.881,0.00,0.00,33.88,9.951,5.644,3.560,3.808,4.493,0,0,SEARCHING,0.000,0.800,-0.000,0.144
22:20:20.917,SEARCHING,20.272,4.568,1.879,0.00,0.00,35.21,9.950,5.727,3.551,3.723,4.490,0,0,SEARCHING,0.000,0.800,-0.036,0.145
22:20:20.941,SEARCHING,20.350,4.624,1.871,0.00,0.00,36.20,9.950,5.727,3.551,3.723,4.490,0,0,SEARCHING,0.000,0.800,-0.051,0.145
22:20:21.097,SEARCHING,20.452,4.701,1.862,0.00,0.00,37.53,9.623,6.003,3.610,3.832,4.492,0,0,SEARCHING,0.000,0.800,-0.018,0.143
22:20:21.291,SEARCHING,20.565,4.790,1.861,0.00,0.00,38.98,9.860,6.234,3.631,3.831,4.461,0,0,SEARCHING,0.000,0.800,-0.004,0.139
22:20:21.491,SEARCHING,20.688,4.892,1.861,0.00,0.00,40.57,9.193,6.511,3.655,3.800,4.466,0,0,SEARCHING,0.000,0.800,-0.001,0.136
22:20:21.691,SEARCHING,20.809,4.997,1.861,0.00,0.00,42.10,8.213,6.828,3.745,3.835,4.480,0,0,SEARCHING,0.000,0.800,-0.000,0.126
22:20:21.891,SEARCHING,20.926,5.106,1.861,0.00,0.00,43.50,7.618,7.696,3.828,3.849,4.461,0,0,SEARCHING,0.000,0.800,-0.000,0.113
22:20:22.093,SEARCHING,21.041,5.217,1.861,0.00,0.00,44.74,7.152,8.413,3.952,3.845,4.497,0,0,SEARCHING,0.000,0.800,-0.000,0.099
22:20:22.293,SEARCHING,21.154,5.331,1.861,0.00,0.00,45.82,6.898,8.634,4.067,3.842,4.547,0,0,SEARCHING,0.000,0.800,-0.000,0.088
22:20:22.492,SEARCHING,21.264,5.446,1.861,0.00,0.00,46.79,6.664,8.806,4.107,3.826,4.573,0,0,SEARCHING,0.000,0.800,-0.015,0.079
22:20:22.693,SEARCHING,21.352,5.540,1.857,0.00,0.00,47.49,6.552,8.929,4.126,3.876,4.567,0,0,SEARCHING,0.000,0.800,-0.009,0.074
22:20:22.894,SEARCHING,21.459,5.659,1.857,0.00,0.00,48.33,6.420,8.870,4.164,3.840,4.562,0,0,SEARCHING,0.000,0.800,-0.002,0.070
22:20:23.095,SEARCHING,21.564,5.779,1.857,0.00,0.00,49.11,6.302,8.775,4.174,3.843,4.575,0,0,SEARCHING,0.000,0.800,-0.001,0.067
22:20:23.295,SEARCHING,21.668,5.901,1.857,0.00,0.00,49.86,6.069,8.561,4.259,3.887,4.576,0,0,SEARCHING,0.000,0.800,-0.000,0.061
22:20:23.495,SEARCHING,21.771,6.023,1.857,0.00,0.00,50.54,5.910,8.396,4.342,3.875,4.576,0,0,SEARCHING,0.000,0.800,-0.000,0.054
22:20:23.696,SEARCHING,21.872,6.147,1.857,0.00,0.00,51.13,5.841,8.380,4.393,3.874,4.558,0,0,SEARCHING,0.000,0.800,-0.000,0.048
22:20:23.897,SEARCHING,21.972,6.272,1.857,0.00,0.00,51.66,5.700,8.060,4.441,3.868,4.541,0,0,SEARCHING,0.000,0.800,-0.000,0.043
22:20:24.096,SEARCHING,22.071,6.398,1.857,0.00,0.00,52.13,5.508,7.914,4.575,3.877,4.558,0,0,SEARCHING,0.000,0.800,-0.000,0.036
22:20:24.298,SEARCHING,22.169,6.525,1.857,0.00,0.00,52.51,5.372,7.767,4.718,3.869,4.555,0,0,SEARCHING,0.000,0.800,-0.000,0.027
22:20:24.498,SEARCHING,22.266,6.652,1.857,0.00,0.00,52.78,5.309,7.592,5.082,3.877,4.574,0,0,SEARCHING,0.000,0.800,-0.000,0.016
22:20:24.699,SEARCHING,22.362,6.780,1.857,0.00,0.00,52.91,5.213,7.461,5.278,3.855,4.576,0,0,SEARCHING,0.000,0.800,-0.000,0.004
22:20:24.899,SEARCHING,22.459,6.907,1.857,0.00,0.00,52.93,5.166,7.391,5.316,3.828,4.576,0,0,SEARCHING,0.000,0.800,-0.015,-0.002
22:20:25.099,SEARCHING,22.536,7.009,1.852,0.00,0.00,52.90,5.096,7.325,5.321,3.861,4.549,0,0,SEARCHING,0.000,0.800,-0.027,-0.005
22:20:25.299,SEARCHING,22.613,7.111,1.848,0.00,0.00,52.85,5.070,7.171,5.313,3.907,4.542,0,0,SEARCHING,0.000,0.800,-0.007,-0.006
22:20:25.500,SEARCHING,22.710,7.239,1.848,0.00,0.00,52.78,5.027,6.988,5.228,3.868,4.572,0,0,SEARCHING,0.000,0.800,-0.002,-0.007
22:20:25.701,SEARCHING,22.807,7.366,1.848,0.00,0.00,52.70,4.958,6.849,5.216,3.865,4.477,0,0,SEARCHING,0.000,0.800,-0.000,-0.007
22:20:25.902,SEARCHING,22.904,7.494,1.848,0.00,0.00,52.61,4.985,6.765,5.208,3.865,4.486,0,0,SEARCHING,0.000,0.800,-0.000,-0.008
22:20:26.103,SEARCHING,23.001,7.621,1.848,0.00,0.00,52.53,5.210,6.636,5.201,3.867,4.513,0,0,SEARCHING,0.000,0.800,-0.000,-0.003
22:20:26.302,SEARCHING,23.098,7.748,1.848,0.00,0.00,52.51,5.326,6.398,5.178,3.853,4.569,0,0,SEARCHING,0.000,0.800,-0.000,0.001
22:20:26.503,SEARCHING,23.196,7.875,1.848,0.00,0.00,52.54,5.532,6.364,5.198,3.891,4.575,0,0,SEARCHING,0.000,0.800,-0.000,0.006
22:20:26.703,SEARCHING,23.293,8.002,1.848,0.00,0.00,52.63,5.779,6.177,5.104,3.908,4.576,0,0,SEARCHING,0.000,0.800,-0.000,0.012
22:20:26.904,SEARCHING,23.380,8.116,1.847,0.00,0.00,52.79,6.186,6.029,5.087,3.884,4.596,0,0,SEARCHING,0.000,0.800,-0.018,0.022
22:20:27.104,SEARCHING,23.467,8.231,1.845,0.00,0.00,53.05,6.414,5.925,5.052,3.869,4.579,0,0,SEARCHING,0.000,0.800,-0.004,0.029
22:20:27.302,SEARCHING,23.563,8.359,1.845,0.00,0.00,53.40,6.204,5.767,5.015,3.874,4.583,0,0,SEARCHING,0.000,0.800,-0.001,0.031
22:20:27.502,SEARCHING,23.658,8.488,1.845,0.00,0.00,53.75,6.065,5.512,4.978,3.906,4.577,0,0,SEARCHING,0.000,0.800,-0.000,0.030
22:20:27.702,SEARCHING,23.752,8.617,1.845,0.00,0.00,54.09,6.006,5.455,4.975,3.897,4.615,0,0,SEARCHING,0.000,0.800,-0.000,0.029
22:20:27.903,SEARCHING,23.836,8.734,1.843,0.00,0.00,54.37,5.804,5.289,4.980,3.882,4.597,0,0,SEARCHING,0.000,0.800,-0.008,0.025
22:20:28.102,SEARCHING,23.929,8.864,1.843,0.00,0.00,54.65,5.712,5.120,4.953,3.909,4.586,0,0,SEARCHING,0.000,0.800,-0.002,0.023
22:20:28.303,SEARCHING,24.022,8.995,1.843,0.00,0.00,54.90,5.573,4.988,4.974,3.910,4.551,0,0,SEARCHING,0.000,0.800,-0.000,0.020
22:20:28.504,SEARCHING,24.113,9.126,1.843,0.00,0.00,55.12,5.489,4.937,4.928,3.927,4.573,0,0,SEARCHING,0.000,0.800,-0.000,0.018
22:20:28.707,SEARCHING,24.205,9.257,1.843,0.00,0.00,55.33,5.406,4.838,4.739,3.895,4.576,0,0,SEARCHING,0.000,0.800,-0.000,0.019
22:20:28.906,SEARCHING,24.295,9.389,1.843,0.00,0.00,55.55,5.277,4.868,4.688,3.895,4.576,0,0,SEARCHING,0.000,0.800,-0.000,0.019
22:20:29.107,SEARCHING,24.386,9.521,1.843,0.00,0.00,55.77,5.224,4.866,4.510,3.926,4.576,0,0,SEARCHING,0.000,0.800,-0.000,0.021
22:20:29.308,SEARCHING,24.475,9.654,1.843,0.00,0.00,56.03,5.177,4.894,4.309,3.933,4.576,0,0,SEARCHING,0.000,0.800,-0.000,0.027
22:20:29.509,SEARCHING,24.564,9.787,1.843,0.00,0.00,56.37,5.098,6.311,4.051,3.890,4.576,0,0,SEARCHING,0.000,0.800,-0.000,0.035
22:20:29.710,SEARCHING,24.653,9.920,1.843,0.00,0.00,56.80,5.014,8.049,3.872,3.801,4.508,0,0,SEARCHING,0.000,0.800,-0.000,0.042
22:20:29.910,SEARCHING,24.731,10.041,1.842,0.00,0.00,57.26,4.969,9.190,3.796,3.769,4.502,0,0,SEARCHING,0.000,0.800,-0.034,0.048
22:20:30.110,SEARCHING,24.800,10.149,1.834,0.00,0.00,57.71,4.877,9.804,5.583,3.686,4.494,0,0,SEARCHING,0.000,0.800,-0.051,0.028
22:20:30.311,SEARCHING,24.868,10.257,1.823,0.00,0.00,57.73,4.859,9.902,6.048,3.624,4.497,0,0,SEARCHING,0.000,0.800,-0.059,-0.015
22:20:30.511,SEARCHING,24.937,10.365,1.811,0.00,0.00,57.52,4.800,9.854,6.145,3.560,4.488,0,0,SEARCHING,0.000,0.800,-0.065,-0.030
22:20:30.712,SEARCHING,25.006,10.473,1.797,0.00,0.00,57.22,4.778,9.572,6.131,3.462,4.461,0,0,SEARCHING,0.000,0.800,-0.073,-0.035
22:20:30.913,SEARCHING,25.075,10.580,1.783,0.00,0.00,56.89,4.800,9.538,6.085,3.428,4.407,0,0,SEARCHING,0.000,0.800,-0.076,-0.036
22:20:31.112,SEARCHING,25.146,10.687,1.767,0.00,0.00,56.56,4.792,9.381,5.983,3.370,4.378,0,0,SEARCHING,0.000,0.800,-0.082,-0.035
22:20:31.314,SEARCHING,25.216,10.794,1.750,0.00,0.00,56.25,4.785,9.265,5.955,3.333,4.324,0,0,SEARCHING,0.000,0.800,-0.083,-0.033
22:20:31.514,SEARCHING,25.288,10.900,1.734,0.00,0.00,55.95,4.826,9.166,5.859,3.452,4.318,0,0,SEARCHING,0.000,0.800,-0.075,-0.031
22:20:31.714,SEARCHING,25.360,11.006,1.722,0.00,0.00,55.68,4.853,8.921,5.776,3.877,4.282,0,0,SEARCHING,0.000,0.800,-0.025,-0.028
22:20:31.915,SEARCHING,25.432,11.112,1.718,0.00,0.00,55.43,4.925,8.815,5.698,4.107,4.268,0,0,SEARCHING,0.000,0.800,-0.006,-0.025
22:20:32.114,SEARCHING,25.523,11.243,1.718,0.00,0.00,55.17,5.041,8.802,5.595,4.214,4.258,0,0,SEARCHING,0.000,0.800,-0.001,-0.019
22:20:32.315,SEARCHING,25.615,11.375,1.718,0.00,0.00,54.98,5.218,8.513,5.465,4.243,4.284,0,0,SEARCHING,0.000,0.800,-0.000,-0.012
22:20:32.515,SEARCHING,25.707,11.505,1.718,0.00,0.00,54.87,5.368,8.388,5.399,4.242,4.279,0,0,SEARCHING,0.000,0.800,-0.000,-0.005
22:20:32.716,SEARCHING,25.799,11.636,1.718,0.00,0.00,54.84,5.500,8.213,5.294,4.268,4.309,0,0,SEARCHING,0.000,0.800,-0.000,0.001
22:20:32.916,SEARCHING,25.891,11.767,1.718,0.00,0.00,54.88,5.694,8.092,5.203,4.230,4.274,0,0,SEARCHING,0.000,0.800,-0.000,0.008
22:20:33.117,SEARCHING,25.983,11.898,1.718,0.00,0.00,55.00,5.865,7.907,5.168,4.237,4.240,0,0,SEARCHING,0.000,0.800,-0.000,0.015
22:20:33.318,SEARCHING,26.074,12.029,1.718,0.00,0.00,55.18,5.808,7.759,5.195,4.221,4.290,0,0,SEARCHING,0.000,0.800,-0.000,0.016
22:20:33.518,SEARCHING,26.165,12.161,1.718,0.00,0.00,55.36,5.685,7.643,5.140,4.226,4.297,0,0,SEARCHING,0.000,0.800,-0.000,0.016
22:20:33.718,SEARCHING,26.256,12.293,1.718,0.00,0.00,55.54,5.758,7.433,5.167,4.239,4.287,0,0,SEARCHING,0.000,0.800,-0.000,0.015
22:20:33.919,SEARCHING,26.347,12.425,1.718,0.00,0.00,55.71,5.659,7.356,5.153,4.262,4.284,0,0,SEARCHING,0.000,0.800,-0.000,0.014
22:20:34.120,SEARCHING,26.437,12.557,1.718,0.00,0.00,55.87,5.517,7.136,5.145,4.252,4.285,0,0,SEARCHING,0.000,0.800,-0.000,0.013
22:20:34.320,SEARCHING,26.526,12.689,1.718,0.00,0.00,56.01,5.313,6.968,5.107,4.252,4.288,0,0,SEARCHING,0.000,0.800,-0.000,0.009
22:20:34.520,SEARCHING,26.616,12.822,1.718,0.00,0.00,56.10,5.260,6.937,5.121,4.253,4.291,0,0,SEARCHING,0.000,0.800,-0.000,0.007
22:20:34.725,SEARCHING,26.705,12.955,1.718,0.00,0.00,56.17,5.188,6.934,5.091,4.240,4.264,0,0,SEARCHING,0.000,0.800,-0.000,0.005
22:20:34.925,SEARCHING,26.794,13.088,1.718,0.00,0.00,56.22,5.115,6.913,5.002,4.219,4.240,0,0,SEARCHING,0.000,0.800,-0.000,0.004
22:20:35.126,SEARCHING,26.883,13.221,1.718,0.00,0.00,56.26,5.032,6.751,5.036,4.219,4.276,0,0,SEARCHING,0.000,0.800,-0.000,0.002
22:20:35.322,SEARCHING,26.971,13.354,1.718,0.00,0.00,56.26,4.959,6.606,5.091,4.216,4.272,0,0,SEARCHING,0.000,0.800,-0.000,-0.002
22:20:35.521,SEARCHING,27.060,13.487,1.718,0.00,0.00,56.23,4.957,6.491,5.112,4.235,4.271,0,0,SEARCHING,0.000,0.800,-0.000,-0.004
22:20:35.721,SEARCHING,27.149,13.620,1.718,0.00,0.00,56.18,4.881,6.316,5.187,4.173,4.309,0,0,SEARCHING,0.000,0.800,-0.000,-0.006
22:20:35.923,SEARCHING,27.239,13.753,1.718,0.00,0.00,56.09,4.878,6.158,5.382,4.157,4.279,0,0,SEARCHING,0.000,0.800,-0.000,-0.011
22:20:36.123,SEARCHING,27.328,13.886,1.718,0.00,0.00,55.94,4.870,6.038,5.396,4.232,4.242,0,0,SEARCHING,0.000,0.800,-0.000,-0.015
22:20:36.323,SEARCHING,27.418,14.018,1.718,0.00,0.00,55.77,4.861,5.895,5.305,4.194,4.238,0,0,SEARCHING,0.000,0.800,-0.000,-0.015
22:20:36.523,SEARCHING,27.508,14.150,1.718,0.00,0.00,55.61,4.852,5.748,5.128,4.256,4.237,0,0,SEARCHING,0.000,0.800,-0.000,-0.012
22:20:36.724,SEARCHING,27.598,14.282,1.718,0.00,0.00,55.49,4.787,5.580,4.998,4.240,4.246,0,0,SEARCHING,0.000,0.800,-0.000,-0.008
22:20:36.924,SEARCHING,27.689,14.414,1.718,0.00,0.00,55.40,4.769,5.399,4.838,4.220,4.244,0,0,SEARCHING,0.000,0.800,-0.000,-0.005
22:20:37.125,SEARCHING,27.780,14.546,1.718,0.00,0.00,55.36,4.708,5.251,4.701,4.222,4.262,0,0,SEARCHING,0.000,0.800,-0.000,-0.002
22:20:37.326,SEARCHING,27.871,14.677,1.718,0.00,0.00,55.35,4.712,5.119,4.603,4.158,4.256,0,0,SEARCHING,0.000,0.800,-0.000,0.002
22:20:37.526,SEARCHING,27.962,14.809,1.718,0.00,0.00,55.39,4.682,4.960,4.534,4.234,4.282,0,0,SEARCHING,0.000,0.800,-0.000,0.004
22:20:37.726,SEARCHING,28.053,14.941,1.718,0.00,0.00,55.44,4.662,4.802,4.420,4.237,4.285,0,0,SEARCHING,0.000,0.800,-0.000,0.007
22:20:37.926,SEARCHING,28.143,15.072,1.718,0.00,0.00,55.54,4.591,4.685,4.277,4.209,4.314,0,0,SEARCHING,0.000,0.800,-0.000,0.010
22:20:38.127,SEARCHING,28.234,15.204,1.718,0.00,0.00,55.67,4.453,4.508,4.135,4.267,4.317,0,0,SEARCHING,0.000,0.800,-0.000,0.013
22:20:38.328,SEARCHING,28.324,15.337,1.718,0.00,0.00,55.82,4.409,4.376,3.999,4.242,4.268,0,0,SEARCHING,0.000,0.800,-0.000,0.016
22:20:38.528,SEARCHING,28.414,15.469,1.718,0.00,0.00,56.02,4.328,4.235,3.853,4.187,4.194,0,0,SEARCHING,0.000,0.800,-0.000,0.020
22:20:38.728,SEARCHING,28.503,15.602,1.718,0.00,0.00,56.26,4.234,4.058,3.679,4.033,4.052,0,0,SEARCHING,0.000,0.800,-0.000,0.025
22:20:38.930,SEARCHING,28.591,15.735,1.718,0.00,0.00,56.57,4.165,3.930,3.580,3.931,3.919,0,0,SEARCHING,0.000,0.800,-0.000,0.028
22:20:39.132,SEARCHING,28.679,15.869,1.718,0.00,0.00,56.91,4.055,3.740,3.444,3.744,3.757,0,0,SEARCHING,0.000,0.800,-0.000,0.032
22:20:39.331,SEARCHING,28.766,16.003,1.718,0.00,0.00,57.29,3.964,3.669,3.322,3.655,3.646,0,0,SEARCHING,0.000,0.800,-0.000,0.036
22:20:39.531,SEARCHING,28.852,16.138,1.718,0.00,0.00,57.72,3.880,3.529,3.185,3.512,3.531,0,0,SEARCHING,0.000,0.800,-0.000,0.041
22:20:39.732,SEARCHING,28.937,16.274,1.718,0.00,0.00,58.21,3.736,3.374,2.995,3.367,3.364,0,0,SEARCHING,0.000,0.800,-0.000,0.048
22:20:39.933,SEARCHING,29.021,16.410,1.718,0.00,0.00,58.78,3.600,3.243,2.879,3.242,3.233,0,0,SEARCHING,0.000,0.800,-0.000,0.053
22:20:40.133,SEARCHING,29.103,16.547,1.718,0.00,0.00,59.41,3.474,3.082,2.769,3.082,3.081,0,0,SEARCHING,0.000,0.800,-0.000,0.056
22:20:40.333,SEARCHING,29.184,16.685,1.718,0.00,0.00,60.07,3.329,2.890,2.604,2.904,2.902,0,0,SEARCHING,0.000,0.800,-0.000,0.062
22:20:40.534,SEARCHING,29.263,16.825,1.718,0.00,0.00,60.80,3.218,2.800,2.492,2.805,2.802,0,0,SEARCHING,0.000,0.800,-0.000,0.068
22:20:40.735,SEARCHING,29.340,16.965,1.718,0.00,0.00,61.60,3.050,2.670,2.377,2.680,2.679,0,0,SEARCHING,0.000,0.800,-0.000,0.073
22:20:40.936,SEARCHING,29.415,17.106,1.718,0.00,0.00,62.45,2.885,2.522,2.231,2.527,2.523,0,0,SEARCHING,0.000,0.800,-0.000,0.077
22:20:41.135,SEARCHING,29.488,17.248,1.718,0.00,0.00,63.37,2.776,2.386,2.097,2.403,2.396,0,0,SEARCHING,0.000,0.800,-0.000,0.087
22:20:41.337,SEARCHING,29.559,17.392,1.718,0.00,0.00,64.40,2.641,2.271,1.981,2.273,2.279,0,0,SEARCHING,0.000,0.800,-0.000,0.095
22:20:41.537,SEARCHING,29.627,17.537,1.718,0.00,0.00,65.53,2.495,2.129,1.850,2.126,2.134,0,0,SEARCHING,0.000,0.800,-0.000,0.105
22:20:41.737,SEARCHING,29.692,17.683,1.718,0.00,0.00,66.78,2.373,2.006,1.725,2.009,2.008,0,0,SEARCHING,0.000,0.788,-0.000,0.117
22:20:41.937,SEARCHING,29.751,17.825,1.718,0.00,0.00,68.18,2.260,1.899,1.624,1.899,1.897,0,0,SEARCHING,0.000,0.725,-0.000,0.131
22:20:42.138,SEARCHING,29.801,17.955,1.718,0.00,0.00,69.74,2.111,1.748,1.481,1.744,1.747,0,0,SEARCHING,0.000,0.638,-0.000,0.148
22:20:42.338,SEARCHING,29.841,18.069,1.718,0.00,0.00,71.52,2.047,1.661,1.399,1.663,1.660,0,0,SEARCHING,0.000,0.560,-0.000,0.168
22:20:42.539,SEARCHING,29.874,18.172,1.718,0.00,0.00,73.53,2.000,1.587,1.320,1.587,1.586,0,0,SEARCHING,0.000,0.504,-0.000,0.190
22:20:42.739,SEARCHING,29.900,18.266,1.718,0.00,0.00,75.79,1.958,1.525,1.252,1.527,1.525,0,0,SEARCHING,0.000,0.461,-0.000,0.213
22:20:42.939,SEARCHING,29.920,18.353,1.718,0.00,0.00,78.34,1.936,1.472,1.202,1.476,1.472,0,0,SEARCHING,0.000,0.423,-0.000,0.237
22:20:43.140,SEARCHING,29.935,18.434,1.718,0.00,0.00,81.15,1.932,1.442,1.155,1.446,1.443,0,0,SEARCHING,0.000,0.398,-0.000,0.262
22:20:43.341,SEARCHING,29.946,18.512,1.718,0.00,0.00,84.23,1.846,1.427,1.115,1.423,1.424,0,0,SEARCHING,0.000,0.382,-0.000,0.278
22:20:43.542,SEARCHING,29.951,18.587,1.718,0.00,0.00,87.44,1.778,1.418,1.093,1.419,1.427,0,0,SEARCHING,0.000,0.371,-0.000,0.282
22:20:43.762,SEARCHING,29.953,18.661,1.718,0.00,0.00,90.67,1.697,1.432,1.075,1.431,1.427,0,0,SEARCHING,0.000,0.369,-0.000,0.279
22:20:43.963,SEARCHING,29.950,18.735,1.718,0.00,0.00,93.82,1.626,1.455,1.062,1.458,1.455,0,0,SEARCHING,0.000,0.374,-0.000,0.268
22:20:44.162,SEARCHING,29.943,18.810,1.718,0.00,0.00,96.85,1.555,1.481,1.059,1.475,1.484,0,0,SEARCHING,0.000,0.383,-0.000,0.254
22:20:44.363,SEARCHING,29.932,18.887,1.718,0.00,0.00,99.68,1.488,1.508,1.052,1.514,1.509,0,0,SEARCHING,0.000,0.394,-0.000,0.236
22:20:44.564,SEARCHING,29.917,18.965,1.718,0.00,0.00,102.31,1.427,1.532,1.051,1.538,1.545,0,0,SEARCHING,0.000,0.404,-0.000,0.216
22:20:44.765,SEARCHING,29.898,19.044,1.718,0.00,0.00,104.69,1.359,1.545,1.050,1.548,1.546,0,0,SEARCHING,0.000,0.416,-0.000,0.192
22:20:44.965,SEARCHING,29.876,19.124,1.718,0.00,0.00,106.77,1.297,1.466,1.047,1.470,1.467,0,0,SEARCHING,0.000,0.401,-0.000,0.165
22:20:45.166,SEARCHING,29.852,19.198,1.718,0.00,0.00,108.55,1.234,1.385,1.047,1.386,1.386,0,0,SEARCHING,0.000,0.370,-0.000,0.136
22:20:45.366,SEARCHING,29.829,19.266,1.718,0.00,0.00,109.99,1.176,1.304,1.051,1.306,1.305,0,0,SEARCHING,0.000,0.336,-0.000,0.105
22:20:45.567,SEARCHING,29.806,19.327,1.718,0.00,0.00,111.05,1.117,1.237,1.045,1.236,1.236,0,0,SEARCHING,0.000,0.307,-0.000,0.071
22:20:45.767,SEARCHING,29.784,19.382,1.718,0.00,0.00,111.74,1.070,1.178,1.041,1.177,1.178,0,0,SEARCHING,0.000,0.281,-0.000,0.042
22:20:45.968,SEARCHING,29.764,19.433,1.718,0.00,0.00,112.10,1.021,1.120,1.033,1.120,1.120,0,0,SEARCHING,0.000,0.260,-0.000,0.011
22:20:46.168,SEARCHING,29.745,19.480,1.718,0.00,0.00,112.11,0.975,1.071,1.017,1.070,1.071,0,0,SEARCHING,0.000,0.252,-0.000,-0.017
22:20:46.368,SEARCHING,29.726,19.527,1.718,0.00,0.00,111.82,0.932,1.022,0.996,1.021,1.021,0,0,SEARCHING,0.000,0.251,-0.000,-0.040
22:20:46.569,SEARCHING,29.707,19.574,1.718,0.00,0.00,111.27,0.888,0.973,0.974,0.974,0.974,0,0,SEARCHING,0.000,0.250,-0.000,-0.063
22:20:46.770,SEARCHING,29.689,19.620,1.718,0.00,0.00,110.45,0.837,0.920,0.935,0.920,0.921,0,0,SEARCHING,0.000,0.250,-0.000,-0.085
22:20:46.970,SEARCHING,29.672,19.667,1.718,0.00,0.00,109.40,0.799,0.885,0.904,0.885,0.885,0,0,SEARCHING,0.000,0.250,-0.000,-0.104
22:20:47.170,SEARCHING,29.656,19.715,1.718,0.00,0.00,108.13,0.755,0.841,0.868,0.840,0.841,0,0,SEARCHING,0.000,0.250,-0.000,-0.123
22:20:47.417,INSPECTING,29.641,19.762,1.718,0.00,0.00,106.64,0.711,0.797,0.824,0.797,0.798,0,0,SEARCHING,0.000,0.175,-0.000,-0.142
22:20:47.572,INSPECTING,29.631,19.800,1.718,0.00,0.00,103.58,0.670,0.760,0.774,0.760,0.760,0,0,INSPECT_RIGHT,0.000,0.163,-0.000,-0.414
22:20:47.772,INSPECTING,29.624,19.831,1.718,0.00,0.00,98.47,0.643,0.745,0.702,0.745,0.744,0,0,INSPECT_RIGHT,0.000,0.150,-0.000,-0.479
22:20:47.973,INSPECTING,29.621,19.859,1.718,0.00,0.00,92.89,0.624,0.743,0.636,0.745,0.744,0,0,INSPECT_RIGHT,0.000,0.136,-0.000,-0.495
22:20:48.173,INSPECTING,29.621,19.884,1.717,0.00,0.00,88.46,0.615,0.755,0.581,0.755,0.756,0,0,INSPECT_BOTTOM,0.000,0.141,-0.204,-0.244
22:20:48.374,INSPECTING,29.622,19.907,1.665,0.00,0.00,87.29,0.604,0.723,0.546,0.722,0.721,0,0,INSPECT_BOTTOM,0.000,0.146,-0.353,-0.059
22:20:48.575,INSPECTING,29.623,19.930,1.592,0.00,0.00,87.01,0.594,0.700,0.529,0.700,0.699,0,0,INSPECT_BOTTOM,0.000,0.142,-0.389,-0.014
22:20:48.775,INSPECTING,29.624,19.952,1.513,0.00,0.00,86.94,0.580,0.676,0.512,0.679,0.677,0,0,INSPECT_BOTTOM,0.000,0.138,-0.397,-0.003
22:20:48.976,INSPECTING,29.625,19.974,1.434,0.00,0.00,86.93,0.563,0.659,0.496,0.660,0.659,0,0,INSPECT_BOTTOM,0.000,0.134,-0.399,-0.001
22:20:49.176,INSPECTING,29.627,19.995,1.354,0.00,0.00,86.92,0.548,0.639,0.487,0.639,0.641,0,0,INSPECT_BOTTOM,0.000,0.131,-0.400,-0.000
22:20:49.377,INSPECTING,29.628,20.016,1.274,0.00,0.00,86.92,0.534,0.621,0.475,0.621,0.627,0,0,INSPECT_BOTTOM,0.000,0.127,-0.400,-0.000
22:20:49.578,INSPECTING,29.629,20.036,1.194,0.00,0.00,86.92,0.520,0.610,0.460,0.603,0.605,0,0,INSPECT_BOTTOM,0.000,0.124,-0.400,-0.000
22:20:49.778,INSPECTING,29.630,20.056,1.114,0.00,0.00,86.92,0.506,0.593,0.446,0.585,0.584,0,0,INSPECT_BOTTOM,0.000,0.120,-0.400,-0.000
22:20:49.978,INSPECTING,29.631,20.074,1.034,0.00,0.00,86.92,0.490,0.566,0.429,0.572,0.564,0,0,INSPECT_BOTTOM,0.000,0.116,-0.400,-0.000
22:20:50.184,INSPECTING,29.632,20.093,0.954,0.00,0.00,86.92,0.480,0.551,0.422,0.558,0.551,0,0,INSPECT_BOTTOM,0.000,0.112,-0.400,-0.000
22:20:50.384,INSPECTING,29.633,20.110,0.874,0.00,0.00,86.92,0.467,0.533,0.413,0.535,0.536,0,0,INSPECT_BOTTOM,0.000,0.109,-0.400,-0.000
22:20:50.586,INSPECTING,29.634,20.128,0.794,0.00,0.00,86.92,0.456,0.523,0.404,0.520,0.524,0,0,INSPECT_BOTTOM,0.000,0.107,-0.400,-0.000
22:20:50.786,INSPECTING,29.635,20.145,0.714,0.00,0.00,86.92,0.444,0.507,0.390,0.506,0.513,0,0,INSPECT_BOTTOM,0.000,0.104,-0.400,-0.000
22:20:51.019,TURNING,29.636,20.161,0.634,0.00,0.00,86.92,0.433,0.496,0.378,0.494,0.501,0,0,TURNING,0.000,0.087,-0.280,-0.420
22:20:51.220,TURNING,29.636,20.170,0.588,0.00,0.00,81.74,0.430,0.465,0.361,0.464,0.467,1,0,TURNING,0.000,0.063,-0.096,-1.064
22:20:51.415,TURNING,29.637,20.174,0.574,0.00,0.00,76.13,0.445,0.425,0.337,0.422,0.423,1,0,TURNING,0.000,0.053,-0.023,-1.319
22:20:51.613,TURNING,29.638,20.178,0.571,0.00,0.00,69.90,0.463,0.387,0.320,0.387,0.386,1,0,TURNING,0.000,0.051,-0.006,-1.381
22:20:51.815,TURNING,29.643,20.187,0.571,0.00,0.00,54.03,0.399,0.345,0.302,0.345,0.345,1,0,TURNING,0.000,0.050,-0.001,-1.395
22:20:52.010,TURNING,29.650,20.195,0.571,0.00,0.00,38.03,0.319,0.307,0.296,0.307,0.307,1,0,TURNING,0.000,0.050,-0.000,-1.399
22:20:52.221,TURNING,29.658,20.200,0.571,0.00,0.00,22.00,0.274,0.288,0.305,0.288,0.288,1,0,TURNING,0.000,0.050,-0.000,-1.400
22:20:52.486,TURNING,29.670,20.202,0.571,0.00,0.00,1.95,0.254,0.292,0.344,0.292,0.292,1,0,TURNING,0.000,0.050,-0.000,-1.400
22:20:52.620,TURNING,29.678,20.202,0.571,0.00,0.00,-10.08,0.263,0.332,0.457,0.331,0.333,1,0,TURNING,0.000,0.050,-0.000,-1.400
22:20:52.791,TURNING,29.687,20.199,0.571,0.00,0.00,-26.13,0.297,0.416,0.700,0.415,0.415,0,0,TURNING,0.000,0.050,-0.000,-1.400
22:20:52.991,TURNING,29.696,20.194,0.571,0.00,0.00,-42.17,0.391,0.658,2.358,0.665,0.662,0,0,TURNING,0.000,0.050,-0.000,-1.400
22:20:54.985,TURNING,29.702,20.186,0.571,0.00,0.00,-58.21,0.570,1.373,3.716,1.459,1.154,0,0,TURNING,0.000,0.050,-0.000,-1.400
22:20:55.050,RETURNING,29.706,20.177,0.571,0.00,0.00,-74.25,0.619,1.877,3.827,1.890,1.210,0,0,TURNING,0.000,0.035,-0.000,-0.980
22:20:55.093,RETURNING,29.708,20.166,0.573,0.00,0.00,-84.76,2.709,3.236,4.416,4.128,1.299,0,0,RETURNING,0.000,0.221,0.354,-0.993
22:20:55.274,RETURNING,29.709,20.116,0.660,0.00,0.00,-92.78,3.867,4.968,5.048,5.847,1.484,0,0,RETURNING,0.000,0.393,0.558,-0.772
22:20:55.470,RETURNING,29.702,20.045,0.773,0.00,0.00,-99.28,4.394,5.908,5.775,6.353,1.748,0,0,RETURNING,0.000,0.493,0.544,-0.651
22:20:55.670,RETURNING,29.685,19.963,0.878,0.00,0.00,-104.87,4.871,6.547,6.449,6.397,2.018,0,0,RETURNING,0.000,0.561,0.466,-0.567
22:20:55.872,RETURNING,29.657,19.873,0.967,0.00,0.00,-109.77,5.377,7.255,6.569,6.230,2.245,0,0,RETURNING,0.000,0.613,0.391,-0.498
22:20:56.072,RETURNING,29.620,19.779,1.041,0.00,0.00,-114.05,5.936,7.822,4.928,6.073,2.432,0,0,RETURNING,0.000,0.653,0.329,-0.431
22:20:56.272,RETURNING,29.574,19.683,1.104,0.00,0.00,-117.72,6.253,8.471,3.741,5.815,2.628,0,0,RETURNING,0.000,0.683,0.280,-0.366
22:20:56.473,RETURNING,29.520,19.586,1.157,0.00,0.00,-120.83,6.651,8.230,3.280,5.636,2.795,0,0,RETURNING,0.000,0.707,0.240,-0.311
22:20:56.673,RETURNING,29.459,19.489,1.203,0.00,0.00,-123.47,7.382,7.889,2.932,5.510,2.929,0,0,RETURNING,0.000,0.725,0.211,-0.263
22:20:56.873,RETURNING,29.392,19.392,1.244,0.00,0.00,-125.71,8.093,7.358,2.793,5.411,3.016,0,0,RETURNING,0.000,0.739,0.188,-0.223
22:20:57.075,RETURNING,29.322,19.297,1.281,0.00,0.00,-127.61,8.803,6.876,2.665,5.223,3.111,0,0,RETURNING,0.000,0.750,0.169,-0.191
22:20:57.277,RETURNING,29.247,19.202,1.313,0.00,0.00,-129.24,9.306,5.929,2.504,4.861,3.210,0,0,RETURNING,0.000,0.758,0.146,-0.162
22:20:57.475,RETURNING,29.169,19.109,1.341,0.00,0.00,-130.62,9.332,4.573,2.366,4.383,3.301,0,0,RETURNING,0.000,0.764,0.112,-0.138
22:20:57.677,RETURNING,29.088,19.016,1.361,0.00,0.00,-131.79,9.344,3.987,2.256,4.055,3.344,0,0,RETURNING,0.000,0.770,0.083,-0.117
22:20:57.878,RETURNING,29.005,18.925,1.376,0.00,0.00,-132.78,9.512,3.686,2.177,3.797,3.363,0,0,RETURNING,0.000,0.773,0.044,-0.099
22:20:58.079,RETURNING,28.920,18.834,1.382,0.00,0.00,-133.61,9.725,3.449,2.101,3.500,3.306,0,0,RETURNING,0.000,0.777,0.011,-0.083
22:20:58.279,RETURNING,28.823,18.734,1.383,0.00,0.00,-134.41,9.892,3.261,2.038,3.289,3.195,0,0,RETURNING,0.000,0.779,0.003,-0.069
22:20:58.480,RETURNING,28.713,18.623,1.383,0.00,0.00,-135.15,9.881,3.057,1.947,3.063,3.029,0,0,RETURNING,0.000,0.781,0.001,-0.056
22:20:58.681,RETURNING,28.602,18.513,1.383,0.00,0.00,-135.73,9.795,2.902,1.841,2.888,2.894,0,0,RETURNING,0.000,0.783,0.000,-0.042
22:20:58.881,RETURNING,28.489,18.404,1.383,0.00,0.00,-136.16,9.326,2.759,1.749,2.765,2.756,0,0,RETURNING,0.000,0.785,0.000,-0.030
22:20:59.085,RETURNING,28.376,18.296,1.383,0.00,0.00,-136.46,9.634,2.602,1.641,2.610,2.612,0,0,RETURNING,0.000,0.786,0.000,-0.018
22:20:59.285,RETURNING,28.262,18.188,1.383,0.00,0.00,-136.62,9.588,2.441,1.539,2.454,2.456,0,0,RETURNING,0.000,0.786,0.000,-0.006
22:20:59.486,RETURNING,28.147,18.080,1.383,0.00,0.00,-136.65,9.601,2.313,1.468,2.327,2.320,0,0,RETURNING,0.000,0.786,0.000,0.003
22:20:59.687,RETURNING,28.033,17.972,1.383,0.00,0.00,-136.59,9.127,2.173,1.423,2.187,2.176,0,0,RETURNING,0.000,0.786,0.000,0.008
22:20:59.888,RETURNING,27.919,17.864,1.383,0.00,0.00,-136.48,8.728,2.082,1.375,2.074,2.068,0,0,RETURNING,0.000,0.764,0.000,0.012
22:21:00.094,RETURNING,27.811,17.761,1.383,0.00,0.00,-136.33,8.821,1.975,1.340,1.943,1.933,0,0,RETURNING,0.000,0.715,0.000,0.015
22:21:00.294,RETURNING,27.710,17.664,1.383,0.00,0.00,-136.16,8.753,1.951,1.299,1.926,1.906,0,0,RETURNING,0.000,0.671,0.000,0.017
22:21:00.495,RETURNING,27.615,17.573,1.383,0.00,0.00,-135.95,8.792,1.897,1.253,1.909,1.883,0,0,RETURNING,0.000,0.637,0.000,0.020
22:21:00.695,RETURNING,27.525,17.486,1.383,0.00,0.00,-135.70,8.816,1.887,1.222,1.925,1.880,0,0,RETURNING,0.000,0.612,0.000,0.023
22:21:00.898,RETURNING,27.439,17.401,1.383,0.00,0.00,-135.43,8.914,1.871,1.195,1.950,1.934,0,0,RETURNING,0.000,0.596,0.000,0.024
22:21:01.094,RETURNING,27.353,17.316,1.383,0.00,0.00,-135.15,9.406,1.985,1.151,1.969,1.987,0,0,RETURNING,0.000,0.624,0.000,0.027
22:21:01.293,RETURNING,27.263,17.226,1.383,0.00,0.00,-134.82,9.664,2.098,1.047,1.954,2.007,0,0,RETURNING,0.000,0.669,0.000,0.037
22:21:01.493,RETURNING,27.168,17.130,1.383,0.00,0.00,-134.32,9.549,2.114,0.917,2.072,2.090,0,0,RETURNING,0.000,0.680,0.000,0.056
22:21:01.694,RETURNING,27.073,17.032,1.383,0.00,0.00,-133.58,9.660,2.143,0.817,2.224,2.212,0,0,RETURNING,0.000,0.683,0.000,0.081
22:21:01.894,RETURNING,26.977,16.929,1.383,0.00,0.00,-132.60,9.734,3.000,0.828,2.400,2.513,0,0,RETURNING,0.000,0.742,0.000,0.085
22:21:02.094,RETURNING,26.876,16.818,1.383,0.00,0.00,-131.69,9.648,3.158,0.854,3.067,2.944,0,0,RETURNING,0.000,0.763,0.000,0.070
22:21:02.295,RETURNING,26.775,16.703,1.383,0.00,0.00,-130.96,9.581,3.165,0.896,3.139,3.141,0,0,RETURNING,0.000,0.765,0.000,0.049
22:21:02.495,RETURNING,26.675,16.587,1.383,0.00,0.00,-130.48,9.666,3.141,0.916,3.126,3.121,0,0,RETURNING,0.000,0.764,0.000,0.032
22:21:02.696,RETURNING,26.577,16.471,1.383,0.00,0.00,-130.18,9.556,3.095,0.962,3.092,3.104,0,0,RETURNING,0.000,0.762,0.000,0.015
22:21:02.897,RETURNING,26.478,16.354,1.383,0.00,0.00,-130.07,9.566,2.994,0.983,2.987,3.000,0,0,RETURNING,0.000,0.761,0.000,0.002
22:21:03.096,RETURNING,26.381,16.238,1.383,0.00,0.00,-130.07,9.538,2.903,1.000,2.878,2.922,0,0,RETURNING,0.000,0.760,0.000,-0.005
22:21:03.296,RETURNING,26.283,16.122,1.383,0.00,0.00,-130.15,9.268,2.816,1.020,2.810,2.836,0,0,RETURNING,0.000,0.760,0.000,-0.011
22:21:03.497,RETURNING,26.185,16.006,1.383,0.00,0.00,-130.29,9.132,2.708,1.037,2.708,2.703,0,0,RETURNING,0.000,0.760,0.000,-0.015
22:21:03.698,RETURNING,26.086,15.890,1.383,0.00,0.00,-130.48,9.232,2.543,1.047,2.551,2.550,0,0,RETURNING,0.000,0.760,0.000,-0.018
22:21:03.898,RETURNING,25.987,15.774,1.383,0.00,0.00,-130.68,9.045,2.411,1.139,2.412,2.414,0,0,RETURNING,0.000,0.760,0.000,-0.023
22:21:04.098,RETURNING,25.888,15.659,1.383,0.00,0.00,-131.07,8.758,2.294,1.337,2.276,2.279,0,0,RETURNING,0.000,0.761,0.000,-0.051
22:21:04.298,RETURNING,25.787,15.545,1.383,0.00,0.00,-131.70,8.624,2.135,1.306,2.130,2.137,0,0,RETURNING,0.000,0.756,0.000,-0.057
22:21:04.499,RETURNING,25.688,15.435,1.383,0.00,0.00,-132.33,8.377,2.000,1.239,2.000,1.998,0,0,RETURNING,0.000,0.702,0.000,-0.047
22:21:04.700,RETURNING,25.597,15.335,1.383,0.00,0.00,-132.82,6.857,1.842,1.175,1.855,1.846,0,0,RETURNING,0.000,0.620,0.000,-0.037
22:21:04.900,RETURNING,25.516,15.249,1.383,0.00,0.00,-133.20,5.546,1.735,1.116,1.740,1.733,0,0,RETURNING,0.000,0.546,0.000,-0.027
22:21:05.100,RETURNING,25.445,15.173,1.383,0.00,0.00,-133.51,2.853,1.623,1.072,1.626,1.622,0,0,RETURNING,0.000,0.482,0.000,-0.036
22:21:05.301,RETURNING,25.381,15.106,1.383,0.00,0.00,-134.01,2.183,1.524,1.025,1.532,1.524,0,0,RETURNING,0.000,0.427,0.000,-0.054
22:21:05.501,RETURNING,25.324,15.047,1.383,0.00,0.00,-133.56,2.022,1.442,0.988,1.442,1.440,0,0,RETURNING,0.000,0.381,0.000,0.252
22:21:05.703,RETURNING,25.274,14.993,1.383,0.00,0.00,-129.99,5.442,1.388,1.000,1.428,1.403,0,0,RETURNING,0.000,0.344,0.000,0.446
22:21:05.903,RETURNING,25.232,14.937,1.383,0.00,0.00,-125.69,7.816,1.706,1.086,1.709,1.716,0,0,RETURNING,0.000,0.393,0.000,0.119
22:21:06.103,RETURNING,25.183,14.869,1.383,0.00,0.00,-125.28,8.432,1.723,1.120,1.717,1.726,0,0,RETURNING,0.000,0.451,0.000,-0.054
22:21:06.303,RETURNING,25.130,14.795,1.383,0.00,0.00,-126.12,8.118,1.642,1.076,1.638,1.642,0,0,RETURNING,0.000,0.447,0.000,-0.089
22:21:06.502,RETURNING,25.078,14.725,1.383,0.00,0.00,-127.12,7.952,1.564,1.000,1.564,1.561,0,0,RETURNING,0.000,0.414,0.000,-0.078
22:21:06.704,RETURNING,25.029,14.661,1.383,0.00,0.00,-127.92,7.644,1.479,0.926,1.473,1.476,0,0,RETURNING,0.000,0.376,0.000,0.184
22:21:06.904,RETURNING,24.986,14.603,1.383,0.00,0.00,-123.28,8.000,1.417,0.844,1.412,1.415,0,0,RETURNING,0.000,0.334,0.000,0.662
22:21:07.104,RETURNING,24.955,14.548,1.383,0.00,0.00,-114.99,7.592,1.389,1.027,1.382,1.382,0,0,RETURNING,0.000,0.300,0.000,0.738
22:21:07.305,RETURNING,24.928,14.480,1.383,0.00,0.00,-109.08,6.528,6.572,1.159,3.985,2.870,0,0,RETURNING,0.000,0.505,0.035,0.041
22:21:07.505,RETURNING,24.899,14.396,1.395,0.00,0.00,-110.31,6.261,7.391,1.124,4.858,3.341,0,0,RETURNING,0.000,0.586,0.095,-0.232
22:21:07.706,RETURNING,24.864,14.306,1.415,0.00,0.00,-112.73,6.445,7.377,1.051,4.896,3.417,0,0,RETURNING,0.000,0.618,0.105,-0.270
22:21:07.906,RETURNING,24.823,14.214,1.436,0.00,0.00,-115.13,6.800,7.350,0.971,3.951,3.377,0,0,RETURNING,0.000,0.641,0.087,-0.243
22:21:08.107,RETURNING,24.777,14.121,1.450,0.00,0.00,-117.18,7.029,7.479,0.890,3.674,3.348,0,0,RETURNING,0.000,0.659,0.026,-0.200
22:21:08.307,RETURNING,24.728,14.027,1.453,0.00,0.00,-118.83,7.288,7.410,0.808,3.364,3.357,0,0,RETURNING,0.000,0.673,0.006,-0.154
22:21:08.507,RETURNING,24.668,13.921,1.451,0.00,0.00,-120.22,7.575,7.004,0.709,3.406,3.276,0,0,RETURNING,0.000,0.684,-0.024,-0.102
22:21:08.708,RETURNING,24.612,13.826,1.448,0.00,0.00,-120.92,7.853,6.972,0.618,3.604,3.201,0,0,RETURNING,0.000,0.691,-0.006,-0.045
22:21:08.908,RETURNING,24.540,13.707,1.448,0.00,0.00,-121.26,8.059,6.834,0.511,3.474,3.257,0,0,RETURNING,0.000,0.695,-0.001,-0.012
22:21:09.107,RETURNING,24.468,13.589,1.448,0.00,0.00,-121.36,8.159,6.992,0.397,4.429,3.407,0,0,RETURNING,0.000,0.695,0.024,-0.004
22:21:09.307,RETURNING,24.410,13.494,1.456,0.00,0.00,-121.38,8.170,7.010,2.648,4.766,3.460,0,0,RETURNING,0.000,0.695,0.075,-0.092
22:21:09.508,RETURNING,24.351,13.399,1.472,0.00,0.00,-123.09,8.018,6.882,2.574,4.735,3.539,0,0,RETURNING,0.000,0.700,0.086,-0.236
22:21:09.708,RETURNING,24.288,13.306,1.489,0.00,0.00,-125.27,7.185,6.662,1.310,4.699,3.585,0,0,RETURNING,0.000,0.711,0.084,-0.210
22:21:09.909,RETURNING,24.220,13.213,1.506,0.00,0.00,-127.02,6.556,5.903,0.913,4.648,3.598,0,0,RETURNING,0.000,0.722,0.079,-0.149
22:21:10.109,RETURNING,24.149,13.121,1.521,0.00,0.00,-128.02,6.338,5.250,1.378,4.553,3.675,0,0,RETURNING,0.000,0.730,0.070,-0.111
22:21:10.309,RETURNING,24.076,13.030,1.535,0.00,0.00,-129.23,6.101,4.722,1.980,4.374,3.668,0,0,RETURNING,0.000,0.736,0.060,-0.155
22:21:10.509,RETURNING,24.001,12.939,1.545,0.00,0.00,-130.75,6.067,4.121,1.422,4.104,3.675,0,0,RETURNING,0.000,0.742,0.020,-0.154
22:21:10.710,RETURNING,23.912,12.838,1.546,0.00,0.00,-132.07,5.933,3.710,0.936,3.786,3.459,0,0,RETURNING,0.000,0.749,0.005,-0.081
22:21:10.911,RETURNING,23.811,12.727,1.546,0.00,0.00,-132.70,5.715,3.359,0.926,3.371,3.228,0,0,RETURNING,0.000,0.754,0.001,-0.027
22:21:11.111,RETURNING,23.708,12.617,1.546,0.00,0.00,-132.97,5.438,3.207,0.932,3.249,3.146,0,0,RETURNING,0.000,0.755,0.000,-0.020
22:21:11.311,RETURNING,23.605,12.506,1.546,0.00,0.00,-133.21,5.276,3.103,1.277,3.147,3.098,0,0,RETURNING,0.000,0.756,0.000,-0.043
22:21:11.511,RETURNING,23.501,12.396,1.546,0.00,0.00,-133.94,5.029,2.964,1.482,3.019,3.005,0,0,RETURNING,0.000,0.758,0.000,-0.091
22:21:11.712,RETURNING,23.394,12.288,1.546,0.00,0.00,-135.04,4.886,2.773,1.434,2.778,2.768,0,0,RETURNING,0.000,0.761,0.000,-0.097
22:21:11.912,RETURNING,23.286,12.181,1.546,0.00,0.00,-136.11,4.711,2.560,1.355,2.581,2.568,0,0,RETURNING,0.000,0.765,0.000,-0.084
22:21:12.112,RETURNING,23.174,12.076,1.546,0.00,0.00,-137.00,4.535,2.346,1.281,2.350,2.330,0,0,RETURNING,0.000,0.769,0.000,-0.067
22:21:12.313,RETURNING,23.061,11.971,1.546,0.00,0.00,-137.69,4.474,2.185,1.217,2.186,2.166,0,0,RETURNING,0.000,0.770,0.000,-0.049
22:21:12.514,RETURNING,22.949,11.870,1.546,0.00,0.00,-138.19,4.362,2.005,1.150,2.025,1.986,0,0,RETURNING,0.000,0.714,0.000,-0.033
22:21:12.714,RETURNING,22.847,11.779,1.546,0.00,0.00,-138.51,4.219,1.883,1.086,1.917,1.870,0,0,RETURNING,0.000,0.628,0.000,-0.019
22:21:12.914,RETURNING,22.756,11.699,1.546,0.00,0.00,-138.67,4.220,1.807,1.039,1.841,1.814,0,0,RETURNING,0.000,0.567,0.000,-0.006
22:21:13.114,RETURNING,22.674,11.627,1.546,0.00,0.00,-138.69,4.650,1.709,0.998,1.728,1.741,0,0,RETURNING,0.000,0.514,0.000,0.006
22:21:13.315,RETURNING,22.599,11.561,1.546,0.00,0.00,-138.57,5.151,1.657,0.966,1.682,1.709,0,0,RETURNING,0.000,0.470,0.000,0.019
22:21:13.516,RETURNING,22.530,11.500,1.546,0.00,0.00,-138.31,5.620,1.627,0.937,1.656,1.673,0,0,RETURNING,0.000,0.443,0.000,0.028
22:21:13.716,RETURNING,22.465,11.442,1.546,0.00,0.00,-137.95,5.928,1.627,0.913,1.641,1.636,0,0,RETURNING,0.000,0.431,0.000,0.035
22:21:13.916,RETURNING,22.402,11.385,1.546,0.00,0.00,-137.53,6.077,1.584,0.890,1.617,1.604,0,0,RETURNING,0.000,0.417,0.000,0.039
22:21:14.117,RETURNING,22.342,11.329,1.546,0.00,0.00,-137.08,6.191,1.576,0.876,1.592,1.576,0,0,RETURNING,0.000,0.398,0.000,0.039
22:21:14.317,RETURNING,22.284,11.275,1.546,0.00,0.00,-136.63,6.264,1.578,0.855,1.561,1.557,0,0,RETURNING,0.000,0.397,0.000,0.040
22:21:14.518,RETURNING,22.226,11.220,1.546,0.00,0.00,-136.16,6.194,1.649,0.812,1.587,1.585,0,0,RETURNING,0.000,0.405,0.000,0.044
22:21:14.718,RETURNING,22.167,11.163,1.546,0.00,0.00,-135.63,6.409,1.705,0.779,1.664,1.675,0,0,RETURNING,0.000,0.428,0.000,0.051
22:21:14.919,RETURNING,22.105,11.102,1.546,0.00,0.00,-135.04,6.550,1.710,0.781,1.677,1.697,0,0,RETURNING,0.000,0.439,0.000,0.050
22:21:15.118,RETURNING,22.043,11.039,1.546,0.00,0.00,-134.49,6.481,1.699,0.776,1.654,1.700,0,0,RETURNING,0.000,0.437,0.000,0.044
22:21:15.318,RETURNING,21.982,10.977,1.546,0.00,0.00,-134.00,6.452,1.737,0.775,1.718,1.736,0,0,RETURNING,0.000,0.442,0.000,0.039
22:21:15.519,RETURNING,21.921,10.912,1.546,0.00,0.00,-133.58,6.367,1.774,0.780,1.828,1.780,0,0,RETURNING,0.000,0.456,0.000,0.032
22:21:15.719,RETURNING,21.857,10.846,1.546,0.00,0.00,-133.25,6.232,1.786,0.768,1.833,1.796,0,0,RETURNING,0.000,0.464,0.000,0.027
22:21:15.920,RETURNING,21.793,10.777,1.546,0.00,0.00,-132.94,6.241,1.851,0.752,1.860,1.855,0,0,RETURNING,0.000,0.480,0.000,0.027
22:21:16.120,RETURNING,21.727,10.705,1.546,0.00,0.00,-132.63,6.109,1.884,0.735,1.861,1.879,0,0,RETURNING,0.000,0.500,0.000,0.028
22:21:16.321,RETURNING,21.659,10.631,1.546,0.00,0.00,-132.30,6.036,1.880,0.745,1.853,1.886,0,0,RETURNING,0.000,0.508,0.000,0.026
22:21:16.521,RETURNING,21.591,10.556,1.546,0.00,0.00,-132.04,6.014,1.835,0.763,1.819,1.851,0,0,RETURNING,0.000,0.499,0.000,0.015
22:21:16.722,RETURNING,21.525,10.483,1.546,0.00,0.00,-131.91,6.005,1.778,0.764,1.763,1.774,0,0,RETURNING,0.000,0.477,0.000,0.007
22:21:16.921,RETURNING,21.463,10.413,1.546,0.00,0.00,-131.84,5.962,1.730,0.744,1.723,1.731,0,0,RETURNING,0.000,0.452,0.000,0.008
22:21:17.123,RETURNING,21.404,10.347,1.546,0.00,0.00,-131.74,5.868,1.647,0.746,1.641,1.644,0,0,RETURNING,0.000,0.421,0.000,0.008
22:21:17.323,RETURNING,21.349,10.286,1.546,0.00,0.00,-131.65,5.931,1.567,0.736,1.578,1.569,0,0,RETURNING,0.000,0.386,0.000,0.008
22:21:17.524,RETURNING,21.300,10.230,1.546,0.00,0.00,-131.56,6.035,1.494,0.739,1.500,1.482,0,0,RETURNING,0.000,0.354,0.000,0.291
22:21:17.724,RETURNING,21.256,10.177,1.546,0.00,0.00,-125.48,5.706,2.638,0.812,2.729,2.082,0,0,RETURNING,0.000,0.442,0.041,0.470
22:21:17.925,RETURNING,21.205,10.103,1.558,0.00,0.00,-123.78,5.783,3.888,0.952,3.846,3.122,0,0,RETURNING,0.000,0.631,0.076,-0.000
22:21:18.125,RETURNING,21.146,10.016,1.573,0.00,0.00,-124.54,5.720,3.922,1.036,3.913,3.226,0,0,RETURNING,0.000,0.676,0.070,-0.134
22:21:18.325,RETURNING,21.083,9.926,1.587,0.00,0.00,-125.95,5.971,3.864,1.026,3.847,3.204,0,0,RETURNING,0.000,0.692,0.064,-0.160
22:21:18.526,RETURNING,21.017,9.837,1.599,0.00,0.00,-127.37,6.183,3.775,0.971,3.761,3.191,0,0,RETURNING,0.000,0.703,0.060,-0.145
22:21:18.727,RETURNING,20.947,9.748,1.611,0.00,0.00,-128.58,6.573,3.666,0.891,3.660,3.160,0,0,RETURNING,0.000,0.711,0.056,-0.114
22:21:18.927,RETURNING,20.875,9.659,1.622,0.00,0.00,-129.48,6.932,3.561,0.793,3.561,3.084,0,0,RETURNING,0.000,0.717,0.054,-0.075
22:21:19.128,RETURNING,20.802,9.570,1.633,0.00,0.00,-129.98,7.150,3.469,0.696,3.481,2.879,0,0,RETURNING,0.000,0.721,0.064,-0.030
22:21:19.328,RETURNING,20.727,9.482,1.644,0.00,0.00,-130.06,7.105,3.343,0.591,3.349,3.111,0,0,RETURNING,0.000,0.723,0.023,0.018
22:21:19.527,RETURNING,20.653,9.393,1.647,0.00,0.00,-129.76,7.002,3.245,0.808,3.242,3.150,0,0,RETURNING,0.000,0.722,0.005,0.010
22:21:19.728,RETURNING,20.561,9.282,1.647,0.00,0.00,-130.09,6.973,3.075,1.106,3.099,3.031,0,0,RETURNING,0.000,0.721,0.001,-0.087
22:21:19.929,RETURNING,20.467,9.173,1.647,0.00,0.00,-131.24,6.675,2.944,1.017,2.956,2.882,0,0,RETURNING,0.000,0.724,0.000,-0.107
22:21:20.129,RETURNING,20.370,9.064,1.647,0.00,0.00,-132.40,6.666,2.834,0.939,2.834,2.745,0,0,RETURNING,0.000,0.729,0.000,-0.086
22:21:20.329,RETURNING,20.271,8.957,1.647,0.00,0.00,-133.30,6.465,2.708,0.880,2.696,2.603,0,0,RETURNING,0.000,0.734,0.000,-0.063
22:21:20.530,RETURNING,20.169,8.851,1.647,0.00,0.00,-133.81,6.255,2.533,0.685,2.531,2.452,0,0,RETURNING,0.000,0.738,0.000,-0.005
22:21:20.730,RETURNING,20.067,8.744,1.647,0.00,0.00,-133.67,5.905,2.397,0.758,2.385,2.321,0,0,RETURNING,0.000,0.738,0.000,0.019
22:21:20.930,RETURNING,19.966,8.637,1.647,0.00,0.00,-133.57,5.737,2.255,0.772,2.257,2.234,0,0,RETURNING,0.000,0.728,0.000,-0.004
22:21:21.131,RETURNING,19.867,8.534,1.647,0.00,0.00,-133.65,5.020,2.109,0.751,2.107,2.098,0,0,RETURNING,0.000,0.672,0.000,-0.010
22:21:21.331,RETURNING,19.775,8.437,1.647,0.00,0.00,-134.20,3.026,1.966,2.174,1.966,1.967,0,0,RETURNING,0.000,0.699,0.000,-0.148
22:21:21.531,RETURNING,19.674,8.337,1.647,0.00,0.00,-136.36,2.056,1.828,2.340,1.830,1.828,0,0,RETURNING,0.000,0.701,0.000,-0.236
22:21:21.731,RETURNING,19.574,8.246,1.647,0.00,0.00,-139.18,1.765,1.683,2.214,1.687,1.685,0,0,RETURNING,0.000,0.616,0.000,-0.251
22:21:21.932,RETURNING,19.485,8.172,1.647,0.00,0.00,-142.01,1.579,1.553,2.047,1.557,1.559,0,0,RETURNING,0.000,0.526,0.000,-0.236
22:21:22.132,RETURNING,19.405,8.112,1.647,0.00,0.00,-144.42,1.442,1.442,1.869,1.443,1.448,0,0,RETURNING,0.000,0.450,0.000,-0.162
22:21:22.333,RETURNING,19.335,8.063,1.647,0.00,0.00,-146.15,1.330,1.403,1.740,1.395,1.402,0,0,RETURNING,0.000,0.401,0.000,-0.142
22:21:22.533,RETURNING,19.269,8.020,1.647,0.00,0.00,-147.80,1.238,1.458,1.657,1.447,1.471,0,0,RETURNING,0.000,0.384,0.000,-0.152
22:21:22.733,RETURNING,19.208,7.983,1.645,0.00,0.00,-149.40,1.153,1.643,1.568,1.608,1.666,0,0,RETURNING,0.000,0.434,-0.019,-0.156
22:21:22.934,RETURNING,19.137,7.942,1.644,0.00,0.00,-150.98,0.949,1.709,1.504,1.705,1.713,0,0,RETURNING,0.000,0.475,-0.005,-0.158
22:21:23.134,RETURNING,19.053,7.897,1.644,0.00,0.00,-152.80,0.955,1.627,1.418,1.629,1.630,0,0,RETURNING,0.000,0.464,-0.001,-0.151
22:21:23.338,RETURNING,18.972,7.857,1.644,0.00,0.00,-154.47,0.865,1.540,1.350,1.543,1.539,0,0,RETURNING,0.000,0.426,-0.000,-0.140
22:21:23.541,RETURNING,18.898,7.823,1.644,0.00,0.00,-156.60,0.930,1.594,1.358,1.594,1.593,0,0,RETURNING,0.000,0.402,-0.000,-0.208
22:21:23.745,RETURNING,18.818,7.790,1.644,0.00,0.00,-158.40,1.095,1.791,1.451,1.798,1.792,0,0,RETURNING,0.000,0.494,-0.000,-0.090
22:21:23.945,RETURNING,18.722,7.753,1.644,0.00,0.00,-159.24,1.029,1.745,1.486,1.751,1.750,0,0,RETURNING,0.000,0.521,-0.000,-0.058
22:21:24.145,RETURNING,18.627,7.717,1.644,0.00,0.00,-159.89,0.925,1.639,1.428,1.638,1.640,0,0,RETURNING,0.000,0.483,-0.000,-0.057
22:21:24.345,RETURNING,18.540,7.686,1.644,0.00,0.00,-160.67,0.794,1.552,1.370,1.552,1.552,0,0,RETURNING,0.000,0.426,-0.000,-0.085
22:21:24.546,RETURNING,18.463,7.659,1.644,0.00,0.00,-162.46,0.783,1.457,1.309,1.458,1.457,0,0,RETURNING,0.000,0.377,-0.000,-0.307
22:21:24.747,RETURNING,18.392,7.639,1.644,0.00,0.00,-166.16,1.001,1.398,1.220,1.403,1.389,0,0,RETURNING,0.000,0.351,-0.000,-0.266
22:21:24.946,RETURNING,18.323,7.624,1.644,0.00,0.00,-168.39,1.211,1.516,1.137,1.533,1.540,0,0,RETURNING,0.000,0.377,-0.000,-0.041
22:21:25.146,RETURNING,18.247,7.608,1.644,0.00,0.00,-168.05,1.184,1.493,1.080,1.501,1.494,0,0,RETURNING,0.000,0.393,-0.000,0.080
22:21:25.346,RETURNING,18.171,7.591,1.644,0.00,0.00,-167.22,1.116,1.464,1.044,1.458,1.458,0,0,RETURNING,0.000,0.384,-0.000,0.061
22:21:25.547,RETURNING,18.097,7.574,1.644,0.00,0.00,-166.59,1.048,1.422,1.009,1.415,1.418,0,0,RETURNING,0.000,0.366,-0.000,0.044
