timestamp,state,x,y,z,roll_deg,pitch_deg,yaw_deg,dist_left,dist_center,dist_right,dist_top,dist_bottom,dtof_alert,collision_event,best_dir,max_space,cmd_vx,cmd_vz,cmd_yaw
00:00:29.051,SEARCHING,0.000,0.000,1.000,0.00,0.00,0.00,9.542,8.040,7.680,8.025,7.953,0,0,SEARCHING,0.000,0.240,0.000,0.006
00:00:29.167,SEARCHING,0.051,0.000,1.000,0.00,0.00,0.54,8.187,3.496,2.323,3.486,3.067,0,0,SEARCHING,0.000,0.666,0.000,0.165
00:00:29.368,SEARCHING,0.192,0.004,1.000,0.00,0.00,2.72,7.668,3.480,2.300,3.504,2.890,0,0,SEARCHING,0.000,0.768,0.041,0.226
00:00:29.569,SEARCHING,0.347,0.014,1.000,0.00,0.00,5.36,6.726,3.662,2.277,3.679,3.188,0,0,SEARCHING,0.000,0.792,0.032,0.233
00:00:29.769,SEARCHING,0.505,0.033,1.000,0.00,0.00,8.01,5.518,4.042,2.270,4.007,3.261,0,0,SEARCHING,0.000,0.798,0.053,0.222
00:00:29.970,SEARCHING,0.663,0.058,1.000,0.00,0.00,10.47,4.854,4.798,2.317,4.370,3.290,0,0,SEARCHING,0.000,0.800,0.075,0.198
00:00:30.171,SEARCHING,0.820,0.090,1.000,0.00,0.00,12.65,4.515,5.557,2.394,4.610,3.954,0,0,SEARCHING,0.000,0.800,0.049,0.172
00:00:30.371,SEARCHING,0.975,0.127,1.000,0.00,0.00,14.55,4.239,6.105,2.460,4.800,4.828,0,0,SEARCHING,0.000,0.800,0.012,0.151
00:00:30.571,SEARCHING,1.130,0.169,1.000,0.00,0.00,16.20,4.002,6.728,2.552,4.860,5.335,0,0,SEARCHING,0.000,0.800,0.003,0.129
00:00:30.772,SEARCHING,1.283,0.216,1.000,0.00,0.00,17.61,3.870,7.457,2.677,4.868,5.701,0,0,SEARCHING,0.000,0.800,0.001,0.108
00:00:30.972,SEARCHING,1.435,0.266,1.000,0.00,0.00,18.78,3.691,8.045,2.791,4.868,5.681,0,0,SEARCHING,0.000,0.800,0.000,0.087
00:00:31.172,SEARCHING,1.586,0.318,1.000,0.00,0.00,19.71,3.564,8.091,2.882,4.906,5.899,0,0,SEARCHING,0.000,0.800,0.000,0.067
00:00:31.373,SEARCHING,1.736,0.373,1.000,0.00,0.00,20.42,3.517,7.769,2.929,4.884,6.169,0,0,SEARCHING,0.000,0.800,-0.034,0.053
00:00:31.572,SEARCHING,1.886,0.430,1.000,0.00,0.00,20.99,3.457,7.070,3.011,4.840,6.437,0,0,SEARCHING,0.000,0.800,-0.051,0.042
00:00:31.772,SEARCHING,2.035,0.488,1.000,0.00,0.00,21.42,3.296,7.153,3.158,4.865,6.179,0,0,SEARCHING,0.000,0.800,-0.034,0.025
00:00:31.972,SEARCHING,2.184,0.546,1.000,0.00,0.00,21.61,3.201,6.824,3.590,4.838,6.257,0,0,SEARCHING,0.000,0.800,-0.051,-0.005
00:00:32.172,SEARCHING,2.333,0.605,1.000,0.00,0.00,21.44,3.080,6.911,3.801,4.865,6.387,0,0,SEARCHING,0.000,0.800,-0.056,-0.033
00:00:32.373,SEARCHING,2.482,0.663,1.000,0.00,0.00,21.01,3.007,6.999,3.755,4.836,6.090,0,0,SEARCHING,0.000,0.800,-0.054,-0.047
00:00:32.573,SEARCHING,2.631,0.720,1.000,0.00,0.00,20.45,3.016,7.299,3.688,4.850,5.981,0,0,SEARCHING,0.000,0.800,-0.018,-0.049
00:00:32.773,SEARCHING,2.782,0.775,1.000,0.00,0.00,19.90,3.042,7.720,3.597,4.831,5.937,0,0,SEARCHING,0.000,0.800,-0.004,-0.045
00:00:32.974,SEARCHING,2.932,0.829,1.000,0.00,0.00,19.40,3.041,7.898,3.538,4.849,5.961,0,0,SEARCHING,0.000,0.800,-0.001,-0.040
00:00:33.174,SEARCHING,3.083,0.882,1.000,0.00,0.00,18.96,3.060,8.248,3.460,4.881,5.995,0,0,SEARCHING,0.000,0.800,-0.000,-0.034
00:00:33.375,SEARCHING,3.235,0.933,1.000,0.00,0.00,18.59,3.052,7.633,3.365,4.870,5.947,0,0,SEARCHING,0.000,0.800,-0.000,-0.028
00:00:33.575,SEARCHING,3.387,0.984,1.000,0.00,0.00,18.29,3.031,7.410,3.272,4.869,5.835,0,0,SEARCHING,0.000,0.800,-0.000,-0.023
00:00:33.776,SEARCHING,3.539,1.034,1.000,0.00,0.00,18.05,3.045,7.890,3.150,4.797,5.886,0,0,SEARCHING,0.000,0.800,-0.000,-0.016
00:00:33.976,SEARCHING,3.691,1.083,1.000,0.00,0.00,17.91,3.187,8.080,3.076,4.834,5.740,0,0,SEARCHING,0.000,0.800,-0.000,-0.002
00:00:34.177,SEARCHING,3.843,1.132,1.000,0.00,0.00,17.94,3.403,7.494,3.059,4.864,5.894,0,0,SEARCHING,0.000,0.800,-0.000,0.014
00:00:34.377,SEARCHING,3.995,1.182,1.000,0.00,0.00,18.17,3.472,7.391,3.033,4.868,5.888,0,0,SEARCHING,0.000,0.800,-0.000,0.028
00:00:34.577,SEARCHING,4.147,1.232,1.000,0.00,0.00,18.51,3.509,7.578,3.043,4.858,5.837,0,0,SEARCHING,0.000,0.800,-0.000,0.033
00:00:34.778,SEARCHING,4.299,1.283,1.000,0.00,0.00,18.89,3.478,7.117,3.077,4.882,5.846,0,0,SEARCHING,0.000,0.800,-0.000,0.032
00:00:34.979,SEARCHING,4.450,1.335,1.000,0.00,0.00,19.25,3.443,6.824,3.048,4.878,5.908,0,0,SEARCHING,0.000,0.800,-0.000,0.031
00:00:35.179,SEARCHING,4.601,1.389,1.000,0.00,0.00,19.60,3.424,7.011,3.079,4.870,6.844,0,0,SEARCHING,0.000,0.800,-0.043,0.028
00:00:35.380,SEARCHING,4.751,1.443,1.000,0.00,0.00,19.90,3.341,6.905,3.155,4.900,6.752,0,0,SEARCHING,0.000,0.800,-0.062,0.021
00:00:35.580,SEARCHING,4.902,1.497,1.000,0.00,0.00,20.09,3.232,6.605,3.249,4.872,6.384,0,0,SEARCHING,0.000,0.800,-0.061,0.007
00:00:35.780,SEARCHING,5.052,1.552,1.000,0.00,0.00,20.09,3.097,6.621,3.641,4.869,7.029,0,0,SEARCHING,0.000,0.800,-0.068,-0.019
00:00:35.981,SEARCHING,5.202,1.607,1.000,0.00,0.00,19.79,2.999,6.566,3.755,4.832,6.727,0,0,SEARCHING,0.000,0.800,-0.071,-0.041
00:00:36.182,SEARCHING,5.353,1.661,1.000,0.00,0.00,19.27,2.969,6.316,3.777,4.864,6.446,0,0,SEARCHING,0.000,0.800,-0.065,-0.053
00:00:36.382,SEARCHING,5.504,1.713,1.000,0.00,0.00,18.66,2.991,6.126,3.666,4.850,6.057,0,0,SEARCHING,0.000,0.800,-0.042,-0.052
00:00:36.582,SEARCHING,5.656,1.763,1.000,0.00,0.00,18.08,3.011,5.986,3.616,4.841,5.991,0,0,SEARCHING,0.000,0.800,-0.028,-0.048
00:00:36.783,SEARCHING,5.809,1.812,1.000,0.00,0.00,17.55,3.011,5.853,3.527,4.865,6.067,0,0,SEARCHING,0.000,0.800,-0.007,-0.042
00:00:36.983,SEARCHING,5.961,1.860,1.000,0.00,0.00,17.08,3.038,5.681,3.479,4.884,5.979,0,0,SEARCHING,0.000,0.800,-0.002,-0.037
00:00:37.184,SEARCHING,6.114,1.906,1.000,0.00,0.00,16.68,3.049,5.505,3.393,4.894,5.940,0,0,SEARCHING,0.000,0.800,-0.000,-0.031
00:00:37.385,SEARCHING,6.268,1.952,1.000,0.00,0.00,16.35,3.022,5.333,3.281,4.841,5.945,0,0,SEARCHING,0.000,0.800,-0.000,-0.024
00:00:37.584,SEARCHING,6.421,1.997,1.000,0.00,0.00,16.10,3.148,5.132,3.138,4.873,5.907,0,0,SEARCHING,0.000,0.800,-0.000,-0.012
00:00:37.785,SEARCHING,6.575,2.041,1.000,0.00,0.00,16.04,3.505,4.998,3.010,4.831,5.978,0,0,SEARCHING,0.000,0.800,-0.000,0.015
00:00:37.986,SEARCHING,6.729,2.085,1.000,0.00,0.00,16.32,3.682,4.799,2.982,4.765,5.880,0,0,SEARCHING,0.000,0.800,-0.000,0.040
00:00:38.186,SEARCHING,6.882,2.131,1.000,0.00,0.00,16.82,3.678,4.649,2.973,4.620,6.039,0,0,SEARCHING,0.000,0.800,-0.038,0.049
00:00:38.386,SEARCHING,7.035,2.178,1.000,0.00,0.00,17.38,3.623,4.392,2.982,4.270,5.934,0,0,SEARCHING,0.000,0.800,-0.063,0.049
00:00:38.587,SEARCHING,7.188,2.226,1.000,0.00,0.00,17.93,3.543,4.255,2.993,4.104,6.146,0,0,SEARCHING,0.000,0.800,-0.083,0.045
00:00:38.787,SEARCHING,7.340,2.276,1.000,0.00,0.00,18.42,3.453,4.319,2.979,4.141,6.895,0,0,SEARCHING,0.000,0.800,-0.097,0.040
00:00:38.989,SEARCHING,7.491,2.327,1.000,0.00,0.00,18.86,3.362,4.195,3.015,3.977,7.355,0,0,SEARCHING,0.000,0.800,-0.123,0.034
00:00:39.191,SEARCHING,7.643,2.379,1.000,0.00,0.00,19.22,3.312,3.968,3.042,3.841,7.239,0,0,SEARCHING,0.000,0.800,-0.140,0.026
00:00:39.391,SEARCHING,7.794,2.432,1.000,0.00,0.00,19.50,3.276,3.886,3.089,3.660,6.749,0,0,SEARCHING,0.000,0.800,-0.148,0.020
00:00:39.590,SEARCHING,7.944,2.486,1.000,0.00,0.00,19.69,3.201,3.744,3.174,3.483,6.918,0,0,SEARCHING,0.000,0.800,-0.162,0.009
00:00:39.790,SEARCHING,8.095,2.540,1.000,0.00,0.00,19.75,3.181,3.702,3.304,3.327,6.788,0,0,SEARCHING,0.000,0.800,-0.174,-0.002
00:00:39.990,SEARCHING,8.245,2.594,1.000,0.00,0.00,19.70,3.171,5.805,3.320,3.145,6.720,0,0,SEARCHING,0.000,0.800,-0.189,-0.009
00:00:40.191,SEARCHING,8.396,2.648,1.000,0.00,0.00,19.58,3.161,6.516,3.336,2.993,6.805,0,0,SEARCHING,0.000,0.800,-0.210,-0.012
00:00:40.392,SEARCHING,8.547,2.701,1.000,0.00,0.00,19.43,3.157,6.493,3.342,2.828,6.637,0,0,SEARCHING,0.000,0.800,-0.230,-0.014
00:00:40.592,SEARCHING,8.698,2.754,1.000,0.00,0.00,19.27,3.172,6.611,3.322,2.658,6.756,0,0,SEARCHING,0.000,0.800,-0.257,-0.012
00:00:40.793,SEARCHING,8.849,2.807,1.000,0.00,0.00,19.13,3.177,6.731,3.347,2.576,6.555,0,0,SEARCHING,0.000,0.800,-0.273,-0.012
00:00:40.993,SEARCHING,9.000,2.859,1.000,0.00,0.00,18.99,3.136,6.672,3.388,2.378,6.260,0,0,SEARCHING,0.000,0.800,-0.295,-0.016
00:00:41.193,SEARCHING,9.152,2.911,1.000,0.00,0.00,18.79,3.126,6.661,3.451,2.322,6.125,0,0,SEARCHING,0.000,0.800,-0.311,-0.021
00:00:41.395,SEARCHING,9.303,2.962,1.000,0.00,0.00,18.53,3.087,6.563,3.473,2.124,6.150,0,0,SEARCHING,0.000,0.800,-0.340,-0.026
00:00:41.594,SEARCHING,9.455,3.013,1.000,0.00,0.00,18.23,3.069,6.704,3.468,1.965,6.190,0,0,SEARCHING,0.000,0.800,-0.389,-0.029
00:00:41.796,SEARCHING,9.607,3.063,1.000,0.00,0.00,17.89,3.077,6.789,3.467,1.884,6.107,0,0,SEARCHING,0.000,0.800,-0.419,-0.030
00:00:41.995,SEARCHING,9.759,3.111,1.000,0.00,0.00,17.56,3.114,6.768,3.467,3.796,6.430,0,0,SEARCHING,0.000,0.800,-0.353,-0.028
00:00:42.196,SEARCHING,9.912,3.159,1.000,0.00,0.00,17.24,3.095,6.734,3.424,4.714,6.489,0,0,SEARCHING,0.000,0.800,-0.148,-0.026
00:00:42.397,SEARCHING,10.065,3.206,1.000,0.00,0.00,16.95,3.133,6.730,3.401,4.850,6.477,0,0,SEARCHING,0.000,0.800,-0.085,-0.024
00:00:42.597,SEARCHING,10.218,3.253,1.000,0.00,0.00,16.70,3.132,6.730,3.344,4.866,6.339,0,0,SEARCHING,0.000,0.800,-0.065,-0.019
00:00:42.798,SEARCHING,10.372,3.298,1.000,0.00,0.00,16.49,3.118,6.730,3.283,4.868,6.142,0,0,SEARCHING,0.000,0.800,-0.055,-0.016
00:00:43.000,SEARCHING,10.525,3.343,1.000,0.00,0.00,16.32,3.166,6.502,3.228,4.817,6.089,0,0,SEARCHING,0.000,0.800,-0.052,-0.010
00:00:43.199,SEARCHING,10.679,3.388,1.000,0.00,0.00,16.25,3.263,6.277,3.216,4.773,5.990,0,0,SEARCHING,0.000,0.800,-0.033,-0.000
00:00:43.400,SEARCHING,10.832,3.433,1.000,0.00,0.00,16.26,3.299,6.043,3.208,4.847,5.746,0,0,SEARCHING,0.000,0.800,-0.013,0.004
00:00:43.603,SEARCHING,10.986,3.478,1.000,0.00,0.00,16.32,3.314,6.084,3.182,4.866,5.672,0,0,SEARCHING,0.000,0.800,-0.003,0.008
00:00:43.803,SEARCHING,11.139,3.523,1.000,0.00,0.00,16.42,3.316,6.029,3.186,4.868,5.584,0,0,SEARCHING,0.000,0.800,-0.001,0.009
00:00:44.004,SEARCHING,11.293,3.568,1.000,0.00,0.00,16.53,3.316,5.876,3.195,4.868,5.558,0,0,SEARCHING,0.000,0.800,-0.000,0.010
00:00:44.205,SEARCHING,11.446,3.614,1.000,0.00,0.00,16.64,3.316,5.714,3.166,4.868,5.497,0,0,SEARCHING,0.000,0.800,-0.000,0.011
00:00:44.405,SEARCHING,11.599,3.660,1.000,0.00,0.00,16.76,3.258,5.597,3.205,4.900,5.259,0,0,SEARCHING,0.000,0.800,-0.000,0.008
00:00:44.605,SEARCHING,11.753,3.706,1.000,0.00,0.00,16.83,3.266,5.408,3.221,4.894,5.047,0,0,SEARCHING,0.000,0.800,-0.000,0.004
00:00:44.806,SEARCHING,11.906,3.753,1.000,0.00,0.00,16.88,3.329,5.295,3.344,4.898,4.999,0,0,SEARCHING,0.000,0.800,-0.000,0.003
00:00:45.007,SEARCHING,12.059,3.799,1.000,0.00,0.00,16.86,3.176,5.148,3.680,4.872,4.982,0,0,SEARCHING,0.000,0.800,-0.000,-0.017
00:00:45.207,SEARCHING,12.212,3.845,1.000,0.00,0.00,16.58,3.072,5.092,4.075,4.869,4.843,0,0,SEARCHING,0.000,0.800,-0.000,-0.042
00:00:45.407,SEARCHING,12.366,3.890,1.000,0.00,0.00,15.92,2.977,5.029,5.381,4.900,4.884,0,0,SEARCHING,0.000,0.800,-0.000,-0.092
00:00:45.608,SEARCHING,12.520,3.933,1.000,0.00,0.00,14.77,2.979,5.073,4.537,4.888,4.876,0,0,SEARCHING,0.000,0.800,-0.000,-0.105
00:00:45.809,SEARCHING,12.675,3.972,1.000,0.00,0.00,13.65,3.033,5.151,3.918,4.893,4.852,0,0,SEARCHING,0.000,0.800,-0.000,-0.079
00:00:46.009,SEARCHING,12.831,4.009,1.000,0.00,0.00,12.83,3.073,5.277,3.792,4.850,4.962,0,0,SEARCHING,0.000,0.800,-0.000,-0.059
00:00:46.210,SEARCHING,12.987,4.044,1.000,0.00,0.00,12.19,3.111,5.298,3.838,4.920,5.085,0,0,SEARCHING,0.000,0.800,-0.000,-0.051
00:00:46.409,SEARCHING,13.143,4.077,1.000,0.00,0.00,11.61,3.143,5.310,3.933,4.893,4.963,0,0,SEARCHING,0.000,0.800,-0.000,-0.050
00:00:46.610,SEARCHING,13.300,4.108,1.000,0.00,0.00,11.03,3.144,5.326,4.021,4.871,5.103,0,0,SEARCHING,0.000,0.800,-0.000,-0.053
00:00:46.811,SEARCHING,13.457,4.138,1.000,0.00,0.00,10.41,3.213,5.387,4.077,4.869,5.088,0,0,SEARCHING,0.000,0.800,-0.000,-0.054
00:00:47.012,SEARCHING,13.615,4.166,1.000,0.00,0.00,9.80,3.176,5.527,4.029,4.838,4.973,0,0,SEARCHING,0.000,0.800,-0.000,-0.053
00:00:47.212,SEARCHING,13.773,4.193,1.000,0.00,0.00,9.19,3.062,5.749,3.963,4.897,4.991,0,0,SEARCHING,0.000,0.800,-0.000,-0.056
00:00:47.412,SEARCHING,13.931,4.217,1.000,0.00,0.00,8.53,3.005,6.054,3.896,4.850,5.206,0,0,SEARCHING,0.000,0.800,-0.000,-0.060
00:00:47.613,SEARCHING,14.089,4.240,1.000,0.00,0.00,7.84,2.995,6.405,3.823,4.898,5.201,0,0,SEARCHING,0.000,0.800,-0.000,-0.059
00:00:47.815,SEARCHING,14.248,4.261,1.000,0.00,0.00,7.17,3.007,6.627,3.776,4.894,5.215,0,0,SEARCHING,0.000,0.800,-0.000,-0.056
00:00:48.015,SEARCHING,14.407,4.280,1.000,0.00,0.00,6.53,2.978,6.728,3.736,4.887,5.709,0,0,SEARCHING,0.000,0.800,-0.000,-0.055
00:00:48.215,SEARCHING,14.566,4.298,1.000,0.00,0.00,5.91,2.986,6.652,3.696,4.871,5.833,0,0,SEARCHING,0.000,0.800,-0.000,-0.053
00:00:48.416,SEARCHING,14.725,4.313,1.000,0.00,0.00,5.31,3.008,6.561,3.647,4.869,5.804,0,0,SEARCHING,0.000,0.800,-0.000,-0.049
00:00:48.616,SEARCHING,14.884,4.328,1.000,0.00,0.00,4.75,3.005,6.333,3.596,4.868,5.479,0,0,SEARCHING,0.000,0.800,-0.000,-0.046
00:00:48.816,SEARCHING,15.044,4.340,1.000,0.00,0.00,4.23,3.031,6.131,3.578,4.868,5.169,0,0,SEARCHING,0.000,0.800,-0.000,-0.043
00:00:49.017,SEARCHING,15.203,4.351,1.000,0.00,0.00,3.75,3.049,6.030,3.559,4.891,5.238,0,0,SEARCHING,0.000,0.800,-0.000,-0.040
00:00:49.216,SEARCHING,15.363,4.361,1.000,0.00,0.00,3.32,3.081,6.011,3.461,4.871,4.822,0,0,SEARCHING,0.000,0.800,-0.000,-0.034
00:00:49.417,SEARCHING,15.523,4.370,1.000,0.00,0.00,2.95,3.114,5.678,3.463,4.869,4.563,0,0,SEARCHING,0.000,0.800,-0.000,-0.028
00:00:49.617,SEARCHING,15.683,4.378,1.000,0.00,0.00,2.64,3.096,5.554,3.407,4.869,4.459,0,0,SEARCHING,0.000,0.800,-0.000,-0.025
00:00:49.818,SEARCHING,15.842,4.385,1.000,0.00,0.00,2.37,3.095,5.510,3.360,4.868,4.319,0,0,SEARCHING,0.000,0.800,-0.000,-0.022
00:00:50.019,SEARCHING,16.002,4.391,1.000,0.00,0.00,2.12,3.111,5.236,3.365,4.868,4.260,0,0,SEARCHING,0.000,0.800,-0.000,-0.020
00:00:50.219,SEARCHING,16.162,4.397,1.000,0.00,0.00,1.90,3.086,5.144,3.327,4.876,4.170,0,0,SEARCHING,0.000,0.800,-0.000,-0.019
00:00:50.420,SEARCHING,16.322,4.402,1.000,0.00,0.00,1.69,3.104,4.983,3.326,4.854,4.154,0,0,SEARCHING,0.000,0.800,-0.000,-0.017
00:00:50.620,SEARCHING,16.482,4.406,1.000,0.00,0.00,1.51,3.542,4.758,3.177,4.836,4.113,0,0,SEARCHING,0.000,0.800,-0.000,0.000
00:00:50.820,SEARCHING,16.642,4.411,1.000,0.00,0.00,1.65,3.852,4.574,3.045,4.823,4.136,0,0,SEARCHING,0.000,0.800,-0.000,0.035
00:00:51.021,SEARCHING,16.802,4.416,1.000,0.00,0.00,2.13,3.830,4.383,2.940,4.856,4.025,0,0,SEARCHING,0.000,0.800,0.015,0.055
00:00:51.223,SEARCHING,16.962,4.423,1.000,0.00,0.00,2.79,3.814,4.143,2.954,4.867,3.993,0,0,SEARCHING,0.000,0.800,0.025,0.060
00:00:51.422,SEARCHING,17.122,4.431,1.000,0.00,0.00,3.48,3.763,3.971,2.940,4.847,3.822,0,0,SEARCHING,0.000,0.800,0.056,0.059
00:00:51.622,SEARCHING,17.281,4.442,1.000,0.00,0.00,4.14,3.594,3.764,2.953,4.867,3.689,0,0,SEARCHING,0.000,0.800,0.069,0.054
00:00:51.822,SEARCHING,17.441,4.454,1.000,0.00,0.00,4.73,3.540,3.613,2.972,4.868,3.382,0,0,SEARCHING,0.000,0.800,0.091,0.046
00:00:52.023,SEARCHING,17.600,4.468,1.000,0.00,0.00,5.24,3.441,3.433,2.970,4.874,3.256,0,0,SEARCHING,0.000,0.800,0.112,0.041
00:00:52.224,SEARCHING,17.759,4.483,1.000,0.00,0.00,5.69,3.337,3.346,3.010,4.885,3.224,0,0,SEARCHING,0.000,0.800,0.121,0.033
00:00:52.424,SEARCHING,17.919,4.499,1.000,0.00,0.00,6.03,3.201,3.306,3.046,4.876,3.223,0,0,SEARCHING,0.000,0.800,0.126,0.022
00:00:52.624,SEARCHING,18.078,4.517,1.000,0.00,0.00,6.23,3.065,3.224,3.151,4.869,3.079,0,0,SEARCHING,0.000,0.800,0.133,0.006
00:00:52.825,SEARCHING,18.237,4.534,1.000,0.00,0.00,6.25,2.991,2.966,3.012,4.869,2.887,0,0,SEARCHING,0.000,0.800,0.158,-0.003
00:00:53.026,SEARCHING,18.396,4.551,1.000,0.00,0.00,6.23,2.942,2.716,2.828,4.868,2.801,0,0,SEARCHING,0.000,0.800,0.177,0.003
00:00:53.226,SEARCHING,18.555,4.569,1.000,0.00,0.00,6.30,2.922,2.661,2.694,4.838,2.723,0,0,SEARCHING,0.000,0.800,0.188,0.015
00:00:53.427,SEARCHING,18.714,4.587,1.000,0.00,0.00,6.51,2.872,2.613,2.544,4.726,2.701,0,0,SEARCHING,0.000,0.800,0.190,0.026
00:00:53.627,SEARCHING,18.873,4.605,1.000,0.00,0.00,6.86,2.830,2.378,2.406,4.615,2.578,0,0,SEARCHING,0.000,0.800,0.197,0.040
00:00:53.828,SEARCHING,19.031,4.625,1.000,0.00,0.00,7.37,2.775,2.250,2.280,4.469,2.410,0,0,SEARCHING,0.000,0.800,0.217,0.054
00:00:54.027,SEARCHING,19.190,4.646,1.000,0.00,0.00,8.03,2.680,2.245,2.143,4.315,2.306,0,0,SEARCHING,0.000,0.800,0.231,0.066
00:00:54.228,SEARCHING,19.348,4.669,1.000,0.00,0.00,8.83,2.559,2.214,1.994,4.097,2.186,0,0,SEARCHING,0.000,0.800,0.249,0.079
00:00:54.429,SEARCHING,19.506,4.695,1.000,0.00,0.00,9.79,2.475,2.030,1.822,3.856,2.023,0,0,SEARCHING,0.000,0.797,0.269,0.099
00:00:54.629,SEARCHING,19.663,4.724,1.000,0.00,0.00,11.02,2.382,3.352,1.636,3.623,3.355,0,0,SEARCHING,0.000,0.798,0.119,0.128
00:00:54.829,SEARCHING,19.820,4.756,1.000,0.00,0.00,12.60,2.251,3.397,1.487,3.427,3.229,0,0,SEARCHING,0.000,0.800,0.029,0.161
00:00:55.030,SEARCHING,19.975,4.793,1.000,0.00,0.00,14.54,2.127,3.159,1.393,3.160,3.055,0,0,SEARCHING,0.000,0.800,0.007,0.185
00:00:55.231,SEARCHING,20.129,4.836,1.000,0.00,0.00,16.72,1.987,2.937,1.304,2.942,2.934,0,0,SEARCHING,0.000,0.800,0.002,0.201
00:00:55.431,SEARCHING,20.282,4.885,1.000,0.00,0.00,18.48,1.847,2.804,3.708,2.800,2.801,0,0,SEARCHING,0.000,0.800,0.000,-0.020
00:00:55.632,SEARCHING,20.434,4.935,1.000,0.00,0.00,17.48,1.786,2.637,4.275,2.638,2.641,0,0,SEARCHING,0.000,0.800,0.000,-0.194
00:00:55.832,SEARCHING,20.587,4.980,1.000,0.00,0.00,14.99,1.777,2.499,4.587,2.500,2.504,0,0,SEARCHING,0.000,0.800,0.000,-0.252
00:00:56.032,SEARCHING,20.743,5.018,1.000,0.00,0.00,12.02,1.806,2.501,4.746,2.511,2.501,0,0,SEARCHING,0.000,0.800,0.000,-0.270
00:00:56.232,SEARCHING,20.900,5.047,1.000,0.00,0.00,8.85,1.853,2.587,6.544,2.584,2.559,0,0,SEARCHING,0.000,0.800,0.000,-0.295
00:00:56.433,SEARCHING,21.058,5.068,1.000,0.00,0.00,5.43,1.836,2.712,6.341,2.707,2.702,0,0,SEARCHING,0.000,0.800,0.000,-0.303
00:00:56.634,SEARCHING,21.218,5.078,1.000,0.00,0.00,1.93,1.771,2.903,5.672,2.915,2.854,0,0,SEARCHING,0.000,0.800,0.000,-0.310
00:00:56.834,SEARCHING,21.378,5.079,1.000,0.00,0.00,-1.61,1.808,3.300,5.185,3.325,3.029,0,0,SEARCHING,0.000,0.800,0.000,-0.300
00:00:57.035,SEARCHING,21.538,5.071,1.000,0.00,0.00,-4.97,1.892,3.711,4.715,3.762,3.530,0,0,SEARCHING,0.000,0.800,0.000,-0.274
00:00:57.235,SEARCHING,21.697,5.053,1.000,0.00,0.00,-8.00,2.001,6.064,4.353,4.639,5.276,0,0,SEARCHING,0.000,0.800,0.000,-0.241
00:00:57.436,SEARCHING,21.855,5.027,1.000,0.00,0.00,-10.63,2.112,6.578,3.964,4.841,5.786,0,0,SEARCHING,0.000,0.800,0.000,-0.203
00:00:58.373,SEARCHING,22.011,4.995,1.000,0.00,0.00,-12.81,2.264,6.373,3.825,4.862,5.469,0,0,SEARCHING,0.000,0.800,0.000,-0.165
00:00:58.399,SEARCHING,22.167,4.957,1.000,0.00,0.00,-14.66,2.264,6.373,3.825,4.862,5.469,0,0,SEARCHING,0.000,0.800,0.000,-0.149
00:00:58.556,SEARCHING,22.321,4.915,1.000,0.00,0.00,-16.25,2.653,5.357,3.583,4.899,4.632,0,0,SEARCHING,0.000,0.800,0.000,-0.108
00:00:58.751,SEARCHING,22.474,4.868,1.000,0.00,0.00,-17.36,5.731,5.012,3.461,4.872,4.406,0,0,SEARCHING,0.000,0.800,0.000,-0.031
00:00:58.950,SEARCHING,22.627,4.820,1.000,0.00,0.00,-17.21,7.554,4.915,3.284,4.844,4.316,0,0,SEARCHING,0.000,0.800,0.000,0.087
00:00:59.151,SEARCHING,22.780,4.774,1.000,0.00,0.00,-16.02,7.470,4.822,3.135,4.776,4.313,0,0,SEARCHING,0.000,0.800,0.000,0.132
00:00:59.351,SEARCHING,22.934,4.732,1.000,0.00,0.00,-14.45,6.819,4.917,3.110,4.827,4.296,0,0,SEARCHING,0.000,0.800,0.000,0.142
00:00:59.551,SEARCHING,23.090,4.694,1.000,0.00,0.00,-12.85,5.915,4.995,3.143,4.864,4.298,0,0,SEARCHING,0.000,0.800,0.000,0.131
00:00:59.752,SEARCHING,23.246,4.660,1.000,0.00,0.00,-11.42,4.996,5.069,3.205,4.868,4.325,0,0,SEARCHING,0.000,0.800,0.000,0.108
00:00:59.952,SEARCHING,23.403,4.630,1.000,0.00,0.00,-10.28,4.459,5.123,3.230,4.868,4.318,0,0,SEARCHING,0.000,0.800,0.000,0.083
00:01:00.153,SEARCHING,23.561,4.603,1.000,0.00,0.00,-9.39,4.334,5.191,3.262,4.868,4.307,0,0,SEARCHING,0.000,0.800,0.000,0.068
00:01:00.353,SEARCHING,23.719,4.578,1.000,0.00,0.00,-8.66,4.213,5.288,3.246,4.868,4.329,0,0,SEARCHING,0.000,0.800,0.000,0.059
00:01:00.553,SEARCHING,23.877,4.554,1.000,0.00,0.00,-7.98,4.121,5.389,3.282,4.868,4.343,0,0,SEARCHING,0.000,0.800,0.000,0.056
00:01:00.753,SEARCHING,24.036,4.533,1.000,0.00,0.00,-7.37,4.015,5.414,3.237,4.868,4.320,0,0,SEARCHING,0.000,0.800,0.000,0.050
00:01:00.954,SEARCHING,24.195,4.513,1.000,0.00,0.00,-6.80,3.916,5.444,3.139,4.884,4.334,0,0,SEARCHING,0.000,0.800,0.000,0.050
00:01:01.155,SEARCHING,24.354,4.495,1.000,0.00,0.00,-6.23,3.895,5.402,3.116,4.870,4.332,0,0,SEARCHING,0.000,0.800,0.000,0.051
00:01:01.355,SEARCHING,24.513,4.478,1.000,0.00,0.00,-5.65,3.882,5.443,3.076,4.869,4.347,0,0,SEARCHING,0.000,0.800,0.000,0.052
00:01:01.555,SEARCHING,24.672,4.463,1.000,0.00,0.00,-5.04,3.859,5.461,3.051,4.846,4.356,0,0,SEARCHING,0.000,0.800,0.000,0.055
00:01:01.757,SEARCHING,24.831,4.450,1.000,0.00,0.00,-4.42,3.797,5.573,3.042,4.898,4.324,0,0,SEARCHING,0.000,0.800,0.000,0.053
00:01:01.957,SEARCHING,24.991,4.438,1.000,0.00,0.00,-3.80,3.802,5.714,3.017,4.877,4.319,0,0,SEARCHING,0.000,0.800,0.000,0.054
00:01:02.157,SEARCHING,25.151,4.428,1.000,0.00,0.00,-3.18,3.768,5.897,3.009,4.869,4.335,0,0,SEARCHING,0.000,0.800,0.000,0.055
00:01:02.358,SEARCHING,25.311,4.420,1.000,0.00,0.00,-2.56,3.753,5.999,3.012,4.869,4.628,0,0,SEARCHING,0.000,0.800,0.000,0.053
00:01:02.558,SEARCHING,25.470,4.414,1.000,0.00,0.00,-1.96,3.717,6.019,3.033,4.868,4.939,0,0,SEARCHING,0.000,0.800,0.000,0.051
00:01:02.759,SEARCHING,25.630,4.409,1.000,0.00,0.00,-1.38,3.694,6.173,3.019,4.902,4.581,0,0,SEARCHING,0.000,0.800,0.000,0.049
00:01:02.958,SEARCHING,25.790,4.406,1.000,0.00,0.00,-0.83,3.656,5.993,3.047,4.872,4.399,0,0,SEARCHING,0.000,0.800,0.000,0.046
00:01:03.159,SEARCHING,25.950,4.404,1.000,0.00,0.00,-0.31,3.603,5.838,3.069,4.869,4.447,0,0,SEARCHING,0.000,0.800,0.000,0.042
00:01:03.360,SEARCHING,26.110,4.404,1.000,0.00,0.00,0.15,3.579,5.692,3.072,4.869,4.536,0,0,SEARCHING,0.000,0.800,0.000,0.038
00:01:03.560,SEARCHING,26.270,4.405,1.000,0.00,0.00,0.58,3.530,5.507,3.055,4.884,4.712,0,0,SEARCHING,0.000,0.800,0.000,0.036
00:01:03.761,SEARCHING,26.430,4.407,1.000,0.00,0.00,1.00,3.532,5.359,3.072,4.876,5.188,0,0,SEARCHING,0.000,0.800,0.000,0.035
00:01:03.961,SEARCHING,26.590,4.411,1.000,0.00,0.00,1.39,3.522,5.166,3.093,4.886,5.316,0,0,SEARCHING,0.000,0.800,0.000,0.033
00:01:04.162,SEARCHING,26.750,4.415,1.000,0.00,0.00,1.77,3.488,5.034,3.081,4.825,5.523,0,0,SEARCHING,0.000,0.800,0.000,0.031
00:01:04.363,SEARCHING,26.910,4.420,1.000,0.00,0.00,2.12,3.469,4.863,3.091,4.729,5.772,0,0,SEARCHING,0.000,0.800,0.000,0.029
00:01:04.563,SEARCHING,27.070,4.427,1.000,0.00,0.00,2.45,3.467,4.719,3.098,4.628,5.737,0,0,SEARCHING,0.000,0.800,-0.015,0.028
00:01:04.764,SEARCHING,27.230,4.434,1.000,0.00,0.00,2.77,3.441,4.552,3.109,4.524,5.797,0,0,SEARCHING,0.000,0.800,-0.045,0.027
00:01:04.964,SEARCHING,27.390,4.442,1.000,0.00,0.00,3.07,3.434,4.404,3.109,4.377,5.747,0,0,SEARCHING,0.000,0.800,-0.059,0.026
00:01:05.165,SEARCHING,27.549,4.451,1.000,0.00,0.00,3.36,3.446,4.236,3.124,4.236,5.332,0,0,SEARCHING,0.000,0.800,-0.063,0.025
00:01:05.365,SEARCHING,27.709,4.461,1.000,0.00,0.00,3.65,3.404,3.971,3.107,4.091,5.105,0,0,SEARCHING,0.000,0.800,-0.060,0.024
00:01:05.566,SEARCHING,27.869,4.471,1.000,0.00,0.00,3.91,3.370,3.771,3.120,3.915,4.731,0,0,SEARCHING,0.000,0.800,-0.058,0.021
00:01:05.766,SEARCHING,28.028,4.482,1.000,0.00,0.00,4.14,3.355,3.583,3.128,3.718,4.713,0,0,SEARCHING,0.000,0.800,-0.062,0.019
00:01:05.967,SEARCHING,28.188,4.494,1.000,0.00,0.00,4.35,3.309,3.421,3.134,3.582,5.227,0,0,SEARCHING,0.000,0.800,-0.079,0.016
00:01:06.167,SEARCHING,28.347,4.507,1.000,0.00,0.00,4.52,3.330,3.308,3.158,3.418,5.567,0,0,SEARCHING,0.000,0.800,-0.114,0.014
00:01:06.368,SEARCHING,28.507,4.519,1.000,0.00,0.00,4.67,3.306,3.187,3.215,3.286,4.706,0,0,SEARCHING,0.000,0.800,-0.120,0.010
00:01:06.568,SEARCHING,28.666,4.533,1.000,0.00,0.00,4.77,3.310,2.995,3.222,3.111,4.953,0,0,SEARCHING,0.000,0.800,-0.131,0.007
00:01:06.769,SEARCHING,28.826,4.546,1.000,0.00,0.00,4.85,3.289,2.813,3.209,2.926,4.791,0,0,SEARCHING,0.000,0.800,-0.151,0.007
00:01:06.968,SEARCHING,28.985,4.560,1.000,0.00,0.00,4.93,3.302,2.718,3.221,2.789,4.632,0,0,SEARCHING,0.000,0.800,-0.160,0.006
00:01:07.170,SEARCHING,29.145,4.573,1.000,0.00,0.00,5.01,3.300,2.590,3.022,2.637,4.501,0,0,SEARCHING,0.000,0.800,-0.176,0.013
00:01:07.370,SEARCHING,29.304,4.588,1.000,0.00,0.00,5.22,3.277,2.446,2.577,2.464,4.434,0,0,SEARCHING,0.000,0.800,-0.198,0.039
00:01:07.570,SEARCHING,29.463,4.603,1.000,0.00,0.00,5.81,3.239,2.315,2.372,2.309,4.482,0,0,SEARCHING,0.000,0.800,-0.227,0.073
00:01:07.771,SEARCHING,29.622,4.620,1.000,0.00,0.00,6.73,3.232,2.145,2.197,2.143,4.714,0,0,SEARCHING,0.000,0.800,-0.270,0.098
00:01:07.971,SEARCHING,29.781,4.640,1.000,0.00,0.00,7.96,3.143,2.017,1.991,1.985,5.276,0,0,SEARCHING,0.000,0.800,-0.330,0.128
00:01:08.172,SEARCHING,29.939,4.664,1.000,0.00,0.00,9.51,3.026,5.497,1.832,1.843,5.624,0,0,SEARCHING,0.000,0.800,-0.390,0.154
00:01:08.372,SEARCHING,30.097,4.693,1.000,0.00,0.00,11.15,2.757,7.160,3.075,1.784,6.292,0,0,SEARCHING,0.000,0.800,-0.446,0.072
00:01:08.573,SEARCHING,30.253,4.725,1.000,0.00,0.00,11.54,2.643,7.331,3.488,1.680,6.781,0,0,SEARCHING,0.000,0.800,-0.499,-0.029
00:01:08.773,SEARCHING,30.410,4.756,1.000,0.00,0.00,11.05,2.797,7.224,3.493,1.552,6.779,0,0,SEARCHING,0.000,0.800,-0.559,-0.056
00:01:08.975,SEARCHING,30.567,4.786,1.000,0.00,0.00,10.43,2.972,7.159,3.466,1.412,6.742,0,0,SEARCHING,0.000,0.800,-0.622,-0.048
00:01:09.175,SEARCHING,30.725,4.814,1.000,0.00,0.00,9.93,3.090,6.960,3.380,1.263,6.722,0,0,SEARCHING,0.000,0.800,-0.678,-0.033
00:01:09.375,SEARCHING,30.883,4.842,1.000,0.00,0.00,9.61,3.209,6.833,3.303,1.117,6.426,0,0,SEARCHING,0.000,0.800,-0.695,-0.018
00:01:09.575,SEARCHING,31.040,4.868,1.000,0.00,0.00,9.45,3.312,6.742,3.258,0.977,6.484,0,0,SEARCHING,0.000,0.800,-0.699,-0.005
00:01:09.776,SEARCHING,31.198,4.894,1.000,0.00,0.00,9.44,3.403,6.585,3.190,4.197,6.152,0,0,SEARCHING,0.000,0.800,-0.328,0.008
00:01:09.976,SEARCHING,31.356,4.921,1.000,0.00,0.00,9.56,3.432,6.451,3.143,4.720,6.013,0,0,SEARCHING,0.000,0.800,-0.130,0.017
00:01:10.177,SEARCHING,31.514,4.947,1.000,0.00,0.00,9.77,3.447,6.280,3.143,4.822,6.050,0,0,SEARCHING,0.000,0.800,-0.071,0.021
00:01:10.378,SEARCHING,31.671,4.975,1.000,0.00,0.00,10.02,3.459,6.161,3.120,4.863,5.811,0,0,SEARCHING,0.000,0.800,-0.022,0.024
00:01:10.578,SEARCHING,31.829,5.003,1.000,0.00,0.00,10.30,3.466,6.004,3.113,4.778,5.580,0,0,SEARCHING,0.000,0.800,-0.005,0.025
00:01:10.778,SEARCHING,31.986,5.032,1.000,0.00,0.00,10.59,3.442,5.839,3.106,4.797,5.311,0,0,SEARCHING,0.000,0.800,-0.001,0.025
00:01:10.978,SEARCHING,32.144,5.062,1.000,0.00,0.00,10.87,3.418,5.685,3.078,4.845,5.186,0,0,SEARCHING,0.000,0.800,-0.000,0.025
00:01:11.180,SEARCHING,32.301,5.092,1.000,0.00,0.00,11.16,3.355,5.506,3.087,4.888,5.175,0,0,SEARCHING,0.000,0.800,-0.000,0.023
00:01:11.380,SEARCHING,32.457,5.124,1.000,0.00,0.00,11.41,3.323,5.343,3.095,4.871,4.859,0,0,SEARCHING,0.000,0.800,-0.000,0.020
00:01:11.580,SEARCHING,32.614,5.155,1.000,0.00,0.00,11.63,3.268,5.189,3.123,4.853,4.788,0,0,SEARCHING,0.000,0.800,-0.000,0.016
00:01:11.780,SEARCHING,32.771,5.188,1.000,0.00,0.00,11.79,3.248,5.041,3.150,4.849,4.657,0,0,SEARCHING,0.000,0.800,-0.000,0.011
00:01:11.981,SEARCHING,32.928,5.221,1.000,0.00,0.00,11.90,3.229,4.902,3.228,4.809,4.629,0,0,SEARCHING,0.000,0.800,-0.000,0.005
00:01:12.182,SEARCHING,33.084,5.254,1.000,0.00,0.00,11.93,3.224,4.754,3.300,4.719,4.550,0,0,SEARCHING,0.000,0.800,-0.000,-0.002
00:01:12.383,SEARCHING,33.241,5.287,1.000,0.00,0.00,11.89,3.218,4.632,3.293,4.614,4.477,0,0,SEARCHING,0.000,0.800,-0.000,-0.005
00:01:12.582,SEARCHING,33.397,5.320,1.000,0.00,0.00,11.83,3.208,4.489,3.283,4.476,4.402,0,0,SEARCHING,0.000,0.800,-0.000,-0.005
00:01:12.784,SEARCHING,33.554,5.352,1.000,0.00,0.00,11.77,3.242,4.324,3.278,4.331,4.077,0,0,SEARCHING,0.000,0.800,-0.000,-0.004
00:01:12.983,SEARCHING,33.710,5.385,1.000,0.00,0.00,11.73,3.249,4.208,3.292,4.171,3.849,0,0,SEARCHING,0.000,0.800,-0.000,-0.004
00:01:13.183,SEARCHING,33.867,5.418,1.000,0.00,0.00,11.69,3.226,4.033,3.313,4.014,3.744,0,0,SEARCHING,0.000,0.800,-0.000,-0.005
00:01:13.384,SEARCHING,34.024,5.450,1.000,0.00,0.00,11.62,3.203,3.850,3.318,3.848,3.630,0,0,SEARCHING,0.000,0.800,-0.000,-0.007
00:01:13.584,SEARCHING,34.181,5.482,1.000,0.00,0.00,11.53,3.137,3.699,3.390,3.692,3.482,0,0,SEARCHING,0.000,0.800,-0.000,-0.013
00:01:13.785,SEARCHING,34.337,5.514,1.000,0.00,0.00,11.35,3.052,3.565,3.404,3.541,3.463,0,0,SEARCHING,0.000,0.800,-0.000,-0.022
00:01:13.985,SEARCHING,34.494,5.545,1.000,0.00,0.00,11.08,3.000,3.424,3.308,3.416,3.363,0,0,SEARCHING,0.000,0.800,-0.000,-0.025
00:01:14.186,SEARCHING,34.651,5.575,1.000,0.00,0.00,10.80,2.975,3.286,3.153,3.285,3.077,0,0,SEARCHING,0.000,0.800,-0.000,-0.020
00:01:14.386,SEARCHING,34.809,5.605,1.000,0.00,0.00,10.60,2.970,3.117,2.982,3.124,2.921,0,0,SEARCHING,0.000,0.800,-0.000,-0.010
00:01:14.587,SEARCHING,34.966,5.634,1.000,0.00,0.00,10.53,2.950,2.957,2.836,2.933,2.911,0,0,SEARCHING,0.000,0.800,-0.000,0.003
00:01:14.787,SEARCHING,35.123,5.664,1.000,0.00,0.00,10.60,2.900,2.810,2.711,2.807,2.801,0,0,SEARCHING,0.000,0.800,-0.000,0.013
00:01:14.987,SEARCHING,35.280,5.693,1.000,0.00,0.00,10.77,2.781,2.666,2.568,2.679,2.681,0,0,SEARCHING,0.000,0.800,-0.000,0.019
00:01:15.188,SEARCHING,35.438,5.723,1.000,0.00,0.00,11.02,2.635,2.522,2.408,2.520,2.523,0,0,SEARCHING,0.000,0.800,-0.000,0.025
00:01:15.389,SEARCHING,35.595,5.754,1.000,0.00,0.00,11.32,2.471,2.384,2.272,2.372,2.367,0,0,SEARCHING,0.000,0.800,-0.000,0.028
00:01:15.590,SEARCHING,35.751,5.786,1.000,0.00,0.00,11.65,2.321,2.223,2.120,2.227,2.221,0,0,SEARCHING,0.000,0.800,-0.000,0.030
00:01:15.790,SEARCHING,35.908,5.819,1.000,0.00,0.00,12.00,2.167,2.076,1.981,2.065,2.069,0,0,SEARCHING,0.000,0.800,-0.000,0.033
00:01:15.990,SEARCHING,36.064,5.853,1.000,0.00,0.00,12.40,2.016,1.914,1.821,1.911,1.912,0,0,SEARCHING,0.000,0.770,-0.000,0.038
00:01:16.190,SEARCHING,36.209,5.885,1.000,0.00,0.00,12.85,1.862,1.766,1.676,1.768,1.768,0,0,SEARCHING,0.000,0.679,-0.000,0.044
00:01:16.392,SEARCHING,36.336,5.914,1.000,0.00,0.00,13.37,1.732,1.631,1.553,1.626,1.622,0,0,SEARCHING,0.000,0.585,-0.000,0.049
00:01:16.592,SEARCHING,36.444,5.941,1.000,0.00,0.00,13.95,1.610,1.516,1.436,1.514,1.512,0,0,SEARCHING,0.000,0.501,-0.000,0.056
00:01:16.792,SEARCHING,36.537,5.964,1.000,0.00,0.00,14.62,1.512,1.418,1.335,1.419,1.417,0,0,SEARCHING,0.000,0.434,-0.000,0.064
00:01:16.992,SEARCHING,36.618,5.986,1.000,0.00,0.00,15.38,1.429,1.330,1.250,1.333,1.330,0,0,SEARCHING,0.000,0.380,-0.000,0.072
00:01:17.194,SEARCHING,36.688,6.006,1.000,0.00,0.00,16.25,1.353,1.260,1.181,1.259,1.263,0,0,SEARCHING,0.000,0.336,-0.000,0.081
00:01:17.393,SEARCHING,36.750,6.024,1.000,0.00,0.00,17.21,1.293,1.197,1.114,1.196,1.197,0,0,SEARCHING,0.000,0.301,-0.000,0.092
00:01:17.594,SEARCHING,36.806,6.042,1.000,0.00,0.00,18.30,1.238,1.139,1.054,1.139,1.139,0,0,SEARCHING,0.000,0.271,-0.000,0.104
00:01:17.794,SEARCHING,36.856,6.059,1.000,0.00,0.00,19.54,1.194,1.089,1.002,1.091,1.090,0,0,SEARCHING,0.000,0.255,-0.000,0.118
00:01:17.995,SEARCHING,36.903,6.076,1.000,0.00,0.00,20.95,1.154,1.044,0.955,1.043,1.043,0,0,SEARCHING,0.000,0.251,-0.000,0.134
00:01:18.195,SEARCHING,36.950,6.095,1.000,0.00,0.00,22.54,1.114,1.003,0.908,1.002,1.004,0,0,SEARCHING,0.000,0.250,-0.000,0.151
00:01:18.395,SEARCHING,36.996,6.115,1.000,0.00,0.00,24.33,1.083,0.961,0.864,0.961,0.960,0,0,SEARCHING,0.000,0.250,-0.000,0.171
00:01:18.596,SEARCHING,37.041,6.136,1.000,0.00,0.00,26.37,1.052,0.921,0.820,0.921,0.921,0,0,SEARCHING,0.000,0.250,-0.000,0.196
00:01:18.796,SEARCHING,37.086,6.159,1.000,0.00,0.00,28.72,1.028,0.887,0.780,0.887,0.888,0,0,SEARCHING,0.000,0.250,-0.000,0.226
00:01:18.997,SEARCHING,37.129,6.184,1.000,0.00,0.00,31.43,1.010,0.854,0.741,0.855,0.852,0,0,SEARCHING,0.000,0.250,-0.000,0.261
00:01:19.197,SEARCHING,37.171,6.211,1.000,0.00,0.00,34.56,0.996,0.826,0.705,0.827,0.825,0,0,SEARCHING,0.000,0.250,-0.000,0.302
00:01:19.398,SEARCHING,37.211,6.241,1.000,0.00,0.00,38.18,0.996,0.804,0.674,0.804,0.805,0,0,SEARCHING,0.000,0.250,-0.000,0.349
00:01:19.598,INSPECTING,37.248,6.271,1.000,0.00,0.00,42.35,1.010,0.789,0.649,0.788,0.791,0,0,INSPECT_LEFT,0.000,0.188,-0.000,0.439
00:01:19.798,INSPECTING,37.276,6.299,1.000,0.00,0.00,47.60,1.072,0.802,0.636,0.799,0.799,0,0,INSPECT_LEFT,0.000,0.204,-0.000,0.485
00:01:20.000,INSPECTING,37.302,6.331,1.000,0.00,0.00,53.22,1.152,0.824,0.635,0.825,0.826,0,0,INSPECT_LEFT,0.000,0.220,-0.000,0.496
00:01:20.200,INSPECTING,37.327,6.368,1.000,0.00,0.00,58.92,1.115,0.869,0.643,0.873,0.873,0,0,INSPECT_LEFT,0.000,0.225,-0.000,0.499
00:01:20.401,INSPECTING,37.349,6.407,1.000,0.00,0.00,64.64,1.070,0.943,0.662,0.945,0.946,0,0,INSPECT_LEFT,0.000,0.219,-0.000,0.500
00:01:20.601,INSPECTING,37.366,6.447,1.000,0.00,0.00,70.37,1.030,1.047,0.694,1.044,1.041,0,0,INSPECT_LEFT,0.000,0.211,-0.000,0.500
00:01:20.802,INSPECTING,37.378,6.487,1.000,0.00,0.00,76.10,1.001,1.099,0.748,1.099,1.100,0,0,INSPECT_LEFT,0.000,0.204,-0.000,0.500
00:01:21.003,INSPECTING,37.386,6.526,1.000,0.00,0.00,81.83,0.982,1.062,0.825,1.062,1.062,0,0,INSPECT_LEFT,0.000,0.199,-0.000,0.500
00:01:21.203,INSPECTING,37.390,6.566,1.000,0.00,0.00,87.56,0.980,1.022,0.941,1.021,1.022,0,0,INSPECT_LEFT,0.000,0.196,-0.000,0.500
00:01:21.404,INSPECTING,37.390,6.605,1.000,0.00,0.00,93.29,0.976,0.990,0.995,0.990,0.990,0,0,INSPECT_LEFT,0.000,0.195,-0.000,0.500
00:01:21.604,INSPECTING,37.386,6.644,1.000,0.00,0.00,99.02,0.962,0.954,0.942,0.954,0.955,0,0,INSPECT_LEFT,0.000,0.194,-0.000,0.500
00:01:21.804,INSPECTING,37.378,6.682,1.000,0.00,0.00,104.75,1.026,0.916,0.875,0.915,0.915,0,0,INSPECT_LEFT,0.000,0.196,-0.000,0.500
00:01:22.004,INSPECTING,37.366,6.720,1.000,0.00,0.00,110.47,1.046,0.882,0.821,0.883,0.886,0,0,INSPECT_LEFT,0.000,0.205,-0.000,0.500
00:01:22.204,INSPECTING,37.350,6.758,1.000,0.00,0.00,116.20,1.048,0.862,0.776,0.856,0.864,0,0,INSPECT_LEFT,0.000,0.209,-0.000,0.500
00:01:22.406,INSPECTING,37.330,6.794,1.000,0.00,0.00,121.93,1.061,0.923,0.743,0.921,0.929,0,0,INSPECT_LEFT,0.000,0.210,-0.000,0.500
00:01:22.606,INSPECTING,37.306,6.829,1.000,0.00,0.00,127.66,1.088,0.937,0.718,0.937,0.939,0,0,INSPECT_LEFT,0.000,0.214,-0.000,0.500
00:01:22.806,INSPECTING,37.278,6.862,1.000,0.00,0.00,133.39,1.124,0.935,0.735,0.934,0.937,0,0,INSPECT_LEFT,0.000,0.220,-0.000,0.500
00:01:23.007,INSPECTING,37.246,6.893,1.000,0.00,0.00,139.12,1.182,0.943,0.778,0.943,0.942,0,0,INSPECT_LEFT,0.000,0.228,-0.000,0.500
00:01:23.208,INSPECTING,37.209,6.922,1.000,0.00,0.00,144.85,1.279,0.966,0.771,0.966,0.965,0,0,INSPECT_LEFT,0.000,0.243,-0.000,0.500
00:01:23.408,INSPECTING,37.167,6.949,1.000,0.00,0.00,150.58,1.421,0.997,0.770,0.997,0.997,0,0,INSPECT_LEFT,0.000,0.266,-0.000,0.500
00:01:23.609,INSPECTING,37.118,6.973,1.000,0.00,0.00,156.31,1.612,1.051,0.779,1.048,1.051,0,0,INSPECT_LEFT,0.000,0.298,-0.000,0.500
00:01:23.809,INSPECTING,37.060,6.996,1.000,0.00,0.00,162.04,2.012,1.122,0.793,1.121,1.120,0,0,INSPECT_LEFT,0.000,0.356,-0.000,0.500
00:01:24.009,INSPECTING,36.988,7.015,1.000,0.00,0.00,167.77,2.466,1.226,0.822,1.226,1.231,0,0,INSPECT_LEFT,0.000,0.389,-0.000,0.500
00:01:24.211,INSPECTING,36.911,7.029,1.000,0.00,0.00,173.50,3.155,1.380,0.871,1.385,1.385,0,0,INSPECT_LEFT,0.000,0.397,-0.000,0.500
00:01:24.410,SEARCHING,36.831,7.034,1.000,0.00,0.00,179.44,4.718,1.739,0.942,1.734,1.741,0,0,SEARCHING,0.000,0.430,-0.000,0.591
00:01:24.611,SEARCHING,36.737,7.030,1.000,0.00,-0.00,-173.57,4.541,2.203,1.079,2.203,2.210,0,0,SEARCHING,0.000,0.606,-0.000,0.605
00:01:24.812,SEARCHING,36.606,7.007,1.000,0.00,-0.00,-166.95,4.643,3.104,1.368,3.055,2.650,0,0,SEARCHING,0.000,0.752,0.018,0.501
00:01:25.012,SEARCHING,36.459,6.966,1.000,0.00,-0.00,-161.65,4.609,4.405,1.674,4.263,3.878,0,0,SEARCHING,0.000,0.788,0.033,0.379
00:01:25.213,SEARCHING,36.310,6.911,1.000,0.00,-0.00,-157.67,4.162,4.501,1.997,4.445,6.608,0,0,SEARCHING,0.000,0.797,-0.043,0.277
00:01:25.414,SEARCHING,36.164,6.847,1.000,0.00,-0.00,-154.84,3.741,4.370,2.390,4.319,6.311,0,0,SEARCHING,0.000,0.799,-0.077,0.183
00:01:25.613,SEARCHING,36.020,6.777,1.000,0.00,-0.00,-153.03,3.526,4.216,2.698,4.150,5.624,0,0,SEARCHING,0.000,0.800,-0.079,0.109
00:01:25.814,SEARCHING,35.878,6.703,1.000,0.00,-0.00,-151.96,3.370,4.065,2.907,4.001,5.287,0,0,SEARCHING,0.000,0.800,-0.076,0.063
00:01:26.015,SEARCHING,35.738,6.627,1.000,0.00,-0.00,-151.40,3.275,3.875,3.869,3.855,5.181,0,0,SEARCHING,0.000,0.800,-0.078,0.009
00:01:26.215,SEARCHING,35.597,6.550,1.000,0.00,-0.00,-151.50,3.186,3.729,4.193,3.671,4.907,0,0,SEARCHING,0.000,0.800,-0.081,-0.039
00:01:26.415,SEARCHING,35.456,6.475,1.000,0.00,-0.00,-152.03,3.140,3.584,4.435,3.561,4.952,0,0,SEARCHING,0.000,0.800,-0.088,-0.062
00:01:26.616,SEARCHING,35.314,6.400,1.000,0.00,-0.00,-152.79,3.186,3.438,4.687,3.402,4.928,0,0,SEARCHING,0.000,0.800,-0.100,-0.074
00:01:26.816,SEARCHING,35.172,6.328,1.000,0.00,-0.00,-153.65,3.214,3.302,4.754,3.252,4.969,0,0,SEARCHING,0.000,0.800,-0.116,-0.078
00:01:27.016,SEARCHING,35.028,6.258,1.000,0.00,-0.00,-154.54,3.235,3.079,4.543,3.090,5.060,0,0,SEARCHING,0.000,0.800,-0.134,-0.075
00:01:27.217,SEARCHING,34.883,6.190,1.000,0.00,-0.00,-155.38,3.238,2.880,4.383,2.919,5.076,0,0,SEARCHING,0.000,0.800,-0.159,-0.068
00:01:27.418,SEARCHING,34.737,6.125,1.000,0.00,-0.00,-156.14,3.066,2.725,4.239,2.768,5.047,0,0,SEARCHING,0.000,0.800,-0.181,-0.066
00:01:27.619,SEARCHING,34.590,6.061,1.000,0.00,-0.00,-156.95,2.706,2.580,4.095,2.610,5.102,0,0,SEARCHING,0.000,0.800,-0.205,-0.085
00:01:27.819,SEARCHING,34.443,5.999,1.000,0.00,-0.00,-157.99,2.513,2.369,3.958,2.440,5.128,0,0,SEARCHING,0.000,0.800,-0.235,-0.104
00:01:28.019,SEARCHING,34.294,5.941,1.000,0.00,-0.00,-159.25,2.304,2.266,3.785,2.297,5.312,0,0,SEARCHING,0.000,0.800,-0.270,-0.123
00:01:28.220,SEARCHING,34.143,5.886,1.000,0.00,-0.00,-160.71,2.133,2.154,3.546,2.163,5.372,0,0,SEARCHING,0.000,0.800,-0.306,-0.139
00:01:28.420,SEARCHING,33.992,5.835,1.000,0.00,-0.00,-162.35,1.982,2.014,3.304,2.005,5.602,0,0,SEARCHING,0.000,0.800,-0.350,-0.153
00:01:28.620,SEARCHING,33.839,5.788,1.000,0.00,-0.00,-164.15,1.823,6.312,3.074,1.842,5.748,0,0,SEARCHING,0.000,0.800,-0.407,-0.167
00:01:28.821,SEARCHING,33.684,5.747,1.000,0.00,-0.00,-165.75,3.287,7.354,2.866,4.137,6.917,0,0,SEARCHING,0.000,0.800,-0.269,-0.050
00:01:29.022,SEARCHING,33.529,5.708,1.000,0.00,-0.00,-165.98,3.533,7.768,2.770,4.782,7.201,0,0,SEARCHING,0.000,0.800,-0.135,0.030
00:01:29.222,SEARCHING,33.374,5.669,1.000,0.00,-0.00,-165.52,3.497,7.605,2.837,4.853,6.652,0,0,SEARCHING,0.000,0.800,-0.089,0.051
00:01:29.422,SEARCHING,33.219,5.628,1.000,0.00,-0.00,-164.95,3.460,7.256,2.980,4.867,6.654,0,0,SEARCHING,0.000,0.800,-0.074,0.044
00:01:29.623,SEARCHING,33.065,5.586,1.000,0.00,-0.00,-164.48,3.400,6.958,3.086,4.868,6.450,0,0,SEARCHING,0.000,0.800,-0.067,0.032
00:01:29.824,SEARCHING,32.911,5.543,1.000,0.00,-0.00,-164.16,3.334,6.895,3.179,4.891,6.026,0,0,SEARCHING,0.000,0.800,-0.042,0.020
00:01:30.024,SEARCHING,32.757,5.499,1.000,0.00,-0.00,-163.98,3.278,6.653,3.322,4.876,6.070,0,0,SEARCHING,0.000,0.800,-0.010,0.006
00:01:30.225,SEARCHING,32.603,5.454,1.000,0.00,-0.00,-163.95,3.216,6.593,3.388,4.869,5.748,0,0,SEARCHING,0.000,0.800,-0.002,-0.006
00:01:30.426,SEARCHING,32.449,5.410,1.000,0.00,-0.00,-164.05,3.176,6.602,3.452,4.838,5.897,0,0,SEARCHING,0.000,0.800,-0.001,-0.015
00:01:31.570,SEARCHING,32.295,5.367,1.000,0.00,-0.00,-164.25,3.153,6.545,3.482,4.858,6.004,0,0,SEARCHING,0.000,0.800,-0.000,-0.021
00:01:31.771,SEARCHING,32.141,5.323,1.000,0.00,-0.00,-164.51,3.143,6.539,3.490,4.867,5.970,0,0,SEARCHING,0.000,0.800,-0.000,-0.024
00:01:31.971,SEARCHING,31.987,5.281,1.000,0.00,-0.00,-164.80,3.101,6.538,3.501,4.868,5.903,0,0,SEARCHING,0.000,0.800,-0.000,-0.027
00:01:32.173,SEARCHING,31.833,5.240,1.000,0.00,-0.00,-165.12,3.106,6.586,3.532,4.868,5.970,0,0,SEARCHING,0.000,0.800,-0.000,-0.030
00:01:32.372,SEARCHING,31.678,5.199,1.000,0.00,-0.00,-165.47,3.096,6.615,3.559,4.868,5.760,0,0,SEARCHING,0.000,0.800,-0.000,-0.032
00:01:32.573,SEARCHING,31.523,5.159,1.000,0.00,-0.00,-165.84,3.100,6.687,3.546,4.868,5.852,0,0,SEARCHING,0.000,0.800,-0.000,-0.033
00:01:32.773,SEARCHING,31.368,5.120,1.000,0.00,-0.00,-166.21,3.090,6.684,3.523,4.868,6.042,0,0,SEARCHING,0.000,0.800,-0.000,-0.032
00:01:32.974,SEARCHING,31.212,5.083,1.000,0.00,-0.00,-166.58,3.049,6.715,3.476,4.874,5.626,0,0,SEARCHING,0.000,0.800,-0.000,-0.032
00:01:33.175,SEARCHING,31.056,5.046,1.000,0.00,-0.00,-166.94,3.060,6.728,3.465,4.869,5.820,0,0,SEARCHING,0.000,0.800,-0.000,-0.031
00:01:33.375,SEARCHING,30.900,5.010,1.000,0.00,-0.00,-167.29,3.093,6.730,3.421,4.869,6.122,0,0,SEARCHING,0.000,0.800,-0.015,-0.027
00:01:33.576,SEARCHING,30.744,4.976,1.000,0.00,-0.00,-167.59,3.130,6.682,3.390,4.900,6.215,0,0,SEARCHING,0.000,0.800,-0.044,-0.023
00:01:33.777,SEARCHING,30.588,4.942,1.000,0.00,-0.00,-167.84,3.123,6.555,3.322,4.872,6.203,0,0,SEARCHING,0.000,0.800,-0.052,-0.019
00:01:33.977,SEARCHING,30.431,4.908,1.000,0.00,-0.00,-168.03,3.157,6.540,3.252,4.869,6.112,0,0,SEARCHING,0.000,0.800,-0.033,-0.012
00:01:34.178,SEARCHING,30.275,4.875,1.000,0.00,-0.00,-168.15,3.134,6.400,3.190,4.869,5.958,0,0,SEARCHING,0.000,0.800,-0.013,-0.008
00:01:34.378,SEARCHING,30.118,4.842,1.000,0.00,-0.00,-168.23,3.132,6.361,3.184,4.900,5.905,0,0,SEARCHING,0.000,0.800,-0.003,-0.005
00:01:34.579,SEARCHING,29.962,4.810,1.000,0.00,-0.00,-168.29,3.175,6.226,3.263,4.872,5.861,0,0,SEARCHING,0.000,0.800,-0.001,-0.005
00:01:34.779,SEARCHING,29.805,4.777,1.000,0.00,-0.00,-168.35,3.191,6.082,3.315,4.869,5.708,0,0,SEARCHING,0.000,0.800,-0.000,-0.007
00:01:34.979,SEARCHING,29.648,4.745,1.000,0.00,-0.00,-168.44,3.207,6.029,3.356,4.879,5.526,0,0,SEARCHING,0.000,0.800,-0.000,-0.010
00:01:35.180,SEARCHING,29.491,4.713,1.000,0.00,-0.00,-168.56,3.192,5.905,3.327,4.870,5.530,0,0,SEARCHING,0.000,0.800,-0.000,-0.011
00:01:35.381,SEARCHING,29.334,4.682,1.000,0.00,-0.00,-168.68,3.180,5.864,3.259,4.876,5.508,0,0,SEARCHING,0.000,0.800,-0.000,-0.009
00:01:35.580,SEARCHING,29.178,4.650,1.000,0.00,-0.00,-168.77,3.148,5.737,3.246,4.869,5.322,0,0,SEARCHING,0.000,0.800,-0.000,-0.007
00:01:35.781,SEARCHING,29.021,4.619,1.000,0.00,-0.00,-168.87,3.093,5.581,3.200,4.869,5.153,0,0,SEARCHING,0.000,0.800,-0.000,-0.010
00:01:35.983,SEARCHING,28.864,4.589,1.000,0.00,-0.00,-168.97,3.052,5.480,3.234,4.861,5.128,0,0,SEARCHING,0.000,0.800,-0.000,-0.010
00:01:36.182,SEARCHING,28.707,4.558,1.000,0.00,-0.00,-169.16,3.033,5.359,3.909,4.868,5.086,0,0,SEARCHING,0.000,0.800,-0.000,-0.038
00:01:36.383,SEARCHING,28.549,4.529,1.000,0.00,-0.00,-169.69,3.027,5.326,4.036,4.868,5.031,0,0,SEARCHING,0.000,0.800,-0.000,-0.060
00:01:36.583,SEARCHING,28.392,4.501,1.000,0.00,-0.00,-170.40,3.029,5.260,4.196,4.876,4.870,0,0,SEARCHING,0.000,0.800,-0.000,-0.067
00:01:36.784,SEARCHING,28.234,4.475,1.000,0.00,-0.00,-171.19,3.136,5.269,4.236,4.890,4.997,0,0,SEARCHING,0.000,0.800,-0.000,-0.070
00:01:36.984,SEARCHING,28.076,4.452,1.000,0.00,-0.00,-171.96,3.280,5.222,4.295,4.871,4.506,0,0,SEARCHING,0.000,0.800,-0.000,-0.061
00:01:37.185,SEARCHING,27.917,4.430,1.000,0.00,-0.00,-172.64,3.288,5.203,4.239,4.869,4.639,0,0,SEARCHING,0.000,0.800,-0.000,-0.057
00:01:37.385,SEARCHING,27.758,4.410,1.000,0.00,-0.00,-173.29,3.256,5.141,4.296,4.868,4.473,0,0,SEARCHING,0.000,0.800,-0.000,-0.057
00:01:37.586,SEARCHING,27.599,4.392,1.000,0.00,-0.00,-173.96,3.241,4.955,4.487,4.868,4.352,0,0,SEARCHING,0.000,0.800,-0.000,-0.063
00:01:37.786,SEARCHING,27.440,4.377,1.000,0.00,-0.00,-174.70,3.182,4.908,4.427,4.838,4.211,0,0,SEARCHING,0.000,0.800,-0.000,-0.067
00:01:37.987,SEARCHING,27.281,4.363,1.000,0.00,-0.00,-175.48,3.179,4.711,4.282,4.865,4.193,0,0,SEARCHING,0.000,0.800,-0.000,-0.067
00:01:38.187,SEARCHING,27.121,4.351,1.000,0.00,-0.00,-176.23,3.173,4.491,4.219,4.847,4.142,0,0,SEARCHING,0.000,0.800,-0.000,-0.064
00:01:38.388,SEARCHING,26.961,4.341,1.000,0.00,-0.00,-176.96,3.169,4.458,4.218,4.888,4.128,0,0,SEARCHING,0.000,0.800,-0.000,-0.062
00:01:38.589,SEARCHING,26.801,4.334,1.000,0.00,-0.00,-177.68,3.158,4.407,4.270,4.871,4.114,0,0,SEARCHING,0.000,0.800,-0.000,-0.064
00:01:38.789,SEARCHING,26.642,4.328,1.000,0.00,-0.00,-178.42,3.182,4.314,4.263,4.869,4.124,0,0,SEARCHING,0.000,0.800,-0.000,-0.065
00:01:38.989,SEARCHING,26.482,4.325,1.000,0.00,-0.00,-179.16,3.183,3.982,4.240,4.858,4.022,0,0,SEARCHING,0.000,0.800,0.015,-0.063
00:01:39.189,SEARCHING,26.322,4.323,1.000,0.00,-0.00,-179.88,3.167,3.753,4.190,4.867,3.902,0,0,SEARCHING,0.000,0.800,0.047,-0.062
00:01:39.390,SEARCHING,26.162,4.324,1.000,0.00,0.00,179.41,3.163,3.567,4.066,4.868,3.454,0,0,SEARCHING,0.000,0.800,0.076,-0.059
00:01:39.591,SEARCHING,26.002,4.326,1.000,0.00,0.00,178.74,3.140,3.446,3.985,4.868,3.380,0,0,SEARCHING,0.000,0.800,0.097,-0.056
00:01:39.790,SEARCHING,25.842,4.331,1.000,0.00,0.00,178.11,3.111,3.439,3.875,4.868,3.264,0,0,SEARCHING,0.000,0.800,0.113,-0.053
00:01:39.991,SEARCHING,25.682,4.337,1.000,0.00,0.00,177.52,3.034,3.296,3.780,4.868,3.234,0,0,SEARCHING,0.000,0.800,0.122,-0.051
00:01:40.192,SEARCHING,25.522,4.344,1.000,0.00,0.00,176.92,2.923,3.211,3.715,4.891,3.202,0,0,SEARCHING,0.000,0.800,0.126,-0.055
00:01:40.392,SEARCHING,25.362,4.354,1.000,0.00,0.00,176.27,2.868,2.983,3.655,4.871,3.152,0,0,SEARCHING,0.000,0.800,0.129,-0.059
00:01:40.593,SEARCHING,25.203,4.365,1.000,0.00,0.00,175.59,2.902,2.558,3.557,4.892,2.953,0,0,SEARCHING,0.000,0.800,0.144,-0.056
00:01:40.793,SEARCHING,25.043,4.378,1.000,0.00,0.00,174.98,2.979,2.640,3.465,4.871,2.890,0,0,SEARCHING,0.000,0.800,0.162,-0.046
00:01:40.993,SEARCHING,24.884,4.393,1.000,0.00,0.00,174.49,2.990,2.630,3.398,4.869,2.814,0,0,SEARCHING,0.000,0.800,0.172,-0.037
00:01:41.196,SEARCHING,24.725,4.409,1.000,0.00,0.00,174.08,2.845,2.582,3.337,4.868,2.696,0,0,SEARCHING,0.000,0.800,0.187,-0.037
00:01:41.396,SEARCHING,24.566,4.426,1.000,0.00,0.00,173.62,2.634,2.477,3.276,4.868,2.529,0,0,SEARCHING,0.000,0.800,0.210,-0.049
00:01:41.596,SEARCHING,24.407,4.444,1.000,0.00,0.00,173.00,2.410,2.336,3.209,4.858,2.347,0,0,SEARCHING,0.000,0.800,0.241,-0.068
00:01:41.796,SEARCHING,24.248,4.465,1.000,0.00,0.00,172.14,2.215,2.205,3.086,4.867,2.208,0,0,SEARCHING,0.000,0.800,0.274,-0.089
00:01:41.997,SEARCHING,24.090,4.488,1.000,0.00,0.00,171.05,2.033,2.044,2.987,4.784,2.061,0,0,SEARCHING,0.000,0.800,0.307,-0.110
00:01:42.200,SEARCHING,23.933,4.514,1.000,0.00,0.00,169.71,1.868,1.931,2.857,4.656,1.945,0,0,SEARCHING,0.000,0.774,0.340,-0.132
00:01:42.402,SEARCHING,23.784,4.543,1.000,0.00,0.00,168.11,1.710,1.896,2.732,4.391,1.947,0,0,SEARCHING,0.000,0.725,0.346,-0.158
00:01:42.601,SEARCHING,23.645,4.575,1.000,0.00,0.00,166.20,1.550,1.855,2.588,4.236,1.883,0,0,SEARCHING,0.000,0.678,0.349,-0.187
00:01:42.801,SEARCHING,23.511,4.610,1.000,0.00,0.00,163.95,1.393,3.669,2.416,4.043,3.019,0,0,SEARCHING,0.000,0.755,0.222,-0.221
00:01:43.002,SEARCHING,23.364,4.656,1.000,0.00,0.00,161.29,1.234,3.724,2.250,3.760,3.217,0,0,SEARCHING,0.000,0.789,0.106,-0.261
00:01:43.202,SEARCHING,23.215,4.710,1.000,0.00,0.00,158.19,1.214,3.474,2.055,3.479,3.131,0,0,SEARCHING,0.000,0.797,0.031,-0.278
00:01:43.403,SEARCHING,23.068,4.773,1.000,0.00,0.00,155.02,3.297,3.149,1.896,3.144,2.905,0,0,SEARCHING,0.000,0.799,0.007,-0.140
00:01:43.603,SEARCHING,22.924,4.842,1.000,0.00,0.00,154.73,4.556,2.920,1.773,2.923,2.819,0,0,SEARCHING,0.000,0.800,0.002,0.159
00:01:43.804,SEARCHING,22.778,4.908,1.000,0.00,0.00,157.00,4.896,2.865,1.733,2.841,2.730,0,0,SEARCHING,0.000,0.800,0.000,0.260
00:01:44.004,SEARCHING,22.630,4.967,1.000,0.00,0.00,160.16,6.145,2.863,1.740,2.866,2.713,0,0,SEARCHING,0.000,0.800,0.000,0.306
00:01:44.204,SEARCHING,22.478,5.017,1.000,0.00,0.00,163.76,7.642,2.896,1.890,2.924,2.848,0,0,SEARCHING,0.000,0.800,0.000,0.323
00:01:44.405,SEARCHING,22.323,5.057,1.000,0.00,0.00,167.41,8.318,2.851,2.037,2.842,2.724,0,0,SEARCHING,0.000,0.800,0.000,0.308
00:01:44.606,SEARCHING,22.166,5.088,1.000,0.00,0.00,170.86,6.412,3.053,2.081,3.032,2.654,0,0,SEARCHING,0.000,0.800,0.017,0.282
00:01:44.806,SEARCHING,22.007,5.109,1.000,0.00,0.00,173.98,5.389,3.625,2.131,3.624,2.906,0,0,SEARCHING,0.000,0.800,0.063,0.249
00:01:45.007,SEARCHING,21.848,5.122,1.000,0.00,0.00,176.72,4.847,4.430,2.171,4.185,3.181,0,0,SEARCHING,0.000,0.800,0.077,0.221
00:01:45.207,SEARCHING,21.688,5.128,1.000,0.00,0.00,179.19,4.567,5.762,2.063,4.753,3.887,0,0,SEARCHING,0.000,0.800,0.074,0.211
00:01:45.407,SEARCHING,21.528,5.128,1.000,0.00,-0.00,-178.38,4.235,6.710,2.080,4.855,4.615,0,0,SEARCHING,0.000,0.800,0.023,0.208
00:01:45.607,SEARCHING,21.368,5.120,1.000,0.00,-0.00,-176.09,3.928,7.484,2.301,4.867,5.864,0,0,SEARCHING,0.000,0.800,0.006,0.175
00:01:45.808,SEARCHING,21.209,5.107,1.000,0.00,-0.00,-174.26,3.679,7.856,2.588,4.868,6.127,0,0,SEARCHING,0.000,0.800,-0.014,0.126
00:01:46.009,SEARCHING,21.050,5.089,1.000,0.00,-0.00,-172.97,3.518,7.906,2.762,4.879,5.850,0,0,SEARCHING,0.000,0.800,-0.027,0.084
00:01:46.209,SEARCHING,20.891,5.068,1.000,0.00,-0.00,-172.13,3.401,7.197,3.067,4.865,5.290,0,0,SEARCHING,0.000,0.800,-0.006,0.050
00:01:46.409,SEARCHING,20.733,5.046,1.000,0.00,-0.00,-171.68,3.308,6.727,3.339,4.838,5.338,0,0,SEARCHING,0.000,0.800,-0.002,0.017
00:01:46.609,SEARCHING,20.574,5.022,1.000,0.00,-0.00,-171.57,3.231,6.755,3.593,4.844,5.142,0,0,SEARCHING,0.000,0.800,-0.000,-0.009
00:01:46.810,SEARCHING,20.416,4.999,1.000,0.00,-0.00,-171.75,3.200,6.825,3.720,4.864,5.034,0,0,SEARCHING,0.000,0.800,-0.000,-0.027
00:01:47.011,SEARCHING,20.258,4.976,1.000,0.00,-0.00,-172.09,3.184,7.608,3.804,4.876,5.741,0,0,SEARCHING,0.000,0.800,-0.000,-0.036
00:01:47.211,SEARCHING,20.099,4.955,1.000,0.00,-0.00,-172.53,3.124,8.237,3.812,4.869,6.180,0,0,SEARCHING,0.000,0.800,-0.034,-0.043
00:01:47.411,SEARCHING,19.940,4.935,1.000,0.00,-0.00,-173.04,3.112,8.325,3.772,4.861,6.160,0,0,SEARCHING,0.000,0.800,-0.048,-0.044
00:01:47.612,SEARCHING,19.781,4.916,1.000,0.00,-0.00,-173.54,3.089,8.190,3.703,4.868,6.103,0,0,SEARCHING,0.000,0.800,-0.035,-0.043
00:01:47.812,SEARCHING,19.622,4.899,1.000,0.00,-0.00,-174.05,2.994,7.890,3.654,4.879,6.023,0,0,SEARCHING,0.000,0.800,-0.008,-0.047
00:01:48.014,SEARCHING,19.463,4.883,1.000,0.00,-0.00,-174.59,2.928,7.677,3.575,4.881,6.022,0,0,SEARCHING,0.000,0.800,-0.002,-0.049
00:01:48.214,SEARCHING,19.304,4.868,1.000,0.00,-0.00,-175.15,2.948,7.329,3.516,4.870,5.966,0,0,SEARCHING,0.000,0.800,-0.000,-0.047
00:01:48.414,SEARCHING,19.144,4.856,1.000,0.00,-0.00,-175.67,2.999,7.183,3.449,4.869,5.924,0,0,SEARCHING,0.000,0.800,-0.000,-0.041
00:01:48.615,SEARCHING,18.985,4.844,1.000,0.00,-0.00,-176.11,3.072,6.996,3.397,4.884,5.580,0,0,SEARCHING,0.000,0.800,-0.000,-0.032
00:01:48.814,SEARCHING,18.825,4.834,1.000,0.00,-0.00,-176.44,3.099,6.772,3.326,4.860,5.445,0,0,SEARCHING,0.000,0.800,-0.000,-0.023
00:01:49.016,SEARCHING,18.665,4.824,1.000,0.00,-0.00,-176.67,3.068,6.608,3.300,4.867,5.278,0,0,SEARCHING,0.000,0.800,-0.000,-0.018
00:01:49.217,SEARCHING,18.506,4.815,1.000,0.00,-0.00,-176.89,2.973,6.427,3.277,4.858,5.020,0,0,SEARCHING,0.000,0.800,-0.000,-0.021
00:01:49.416,SEARCHING,18.346,4.807,1.000,0.00,-0.00,-177.15,2.942,6.364,3.232,4.867,4.617,0,0,SEARCHING,0.000,0.800,-0.000,-0.024
00:01:49.617,SEARCHING,18.186,4.799,1.000,0.00,-0.00,-177.41,3.007,6.107,3.207,4.868,4.578,0,0,SEARCHING,0.000,0.800,-0.000,-0.021
00:01:49.818,SEARCHING,18.026,4.792,1.000,0.00,-0.00,-177.63,3.210,5.985,3.231,4.891,4.411,0,0,SEARCHING,0.000,0.800,-0.000,-0.011
00:01:50.019,SEARCHING,17.866,4.786,1.000,0.00,-0.00,-177.69,3.555,5.881,3.241,4.901,4.427,0,0,SEARCHING,0.000,0.800,-0.000,0.008
00:01:50.218,SEARCHING,17.707,4.779,1.000,0.00,-0.00,-177.53,3.807,5.757,3.248,4.872,4.376,0,0,SEARCHING,0.000,0.800,-0.000,0.027
00:01:50.420,SEARCHING,17.547,4.772,1.000,0.00,-0.00,-177.18,3.870,5.722,3.188,4.869,4.303,0,0,SEARCHING,0.000,0.800,-0.000,0.038
00:01:50.620,SEARCHING,17.387,4.763,1.000,0.00,-0.00,-176.72,3.857,5.679,3.164,4.874,4.333,0,0,SEARCHING,0.000,0.800,-0.000,0.043
00:01:50.821,SEARCHING,17.227,4.753,1.000,0.00,-0.00,-176.22,3.852,5.546,3.160,4.950,4.286,0,0,SEARCHING,0.000,0.800,-0.000,0.045
00:01:51.023,SEARCHING,17.068,4.742,1.000,0.00,-0.00,-175.70,3.862,5.395,3.128,4.878,4.482,0,0,SEARCHING,0.000,0.800,-0.000,0.047
00:01:51.222,SEARCHING,16.908,4.730,1.000,0.00,-0.00,-175.16,3.810,5.216,3.089,4.859,4.666,0,0,SEARCHING,0.000,0.800,-0.000,0.048
00:01:51.422,SEARCHING,16.749,4.715,1.000,0.00,-0.00,-174.61,3.746,5.040,3.079,4.818,4.871,0,0,SEARCHING,0.000,0.800,-0.000,0.047
00:01:51.622,SEARCHING,16.590,4.700,1.000,0.00,-0.00,-174.06,3.774,4.889,3.053,4.747,4.730,0,0,SEARCHING,0.000,0.800,-0.000,0.049
00:01:51.823,SEARCHING,16.430,4.682,1.000,0.00,-0.00,-173.50,3.648,4.655,3.016,4.617,4.647,0,0,SEARCHING,0.000,0.800,-0.000,0.048
00:01:52.023,SEARCHING,16.272,4.664,1.000,0.00,-0.00,-172.96,3.615,4.559,3.006,4.535,4.639,0,0,SEARCHING,0.000,0.800,-0.000,0.046
00:01:52.224,SEARCHING,16.113,4.643,1.000,0.00,-0.00,-172.45,3.567,4.481,3.003,4.365,4.603,0,0,SEARCHING,0.000,0.800,-0.000,0.043
00:01:52.424,SEARCHING,15.954,4.622,1.000,0.00,-0.00,-171.97,3.499,4.336,3.034,4.217,5.082,0,0,SEARCHING,0.000,0.800,-0.000,0.039
00:01:52.625,SEARCHING,15.796,4.599,1.000,0.00,-0.00,-171.54,3.475,4.210,3.059,4.124,5.349,0,0,SEARCHING,0.000,0.800,-0.040,0.034
00:01:52.825,SEARCHING,15.638,4.575,1.000,0.00,-0.00,-171.16,3.422,4.053,3.043,3.936,5.607,0,0,SEARCHING,0.000,0.800,-0.071,0.030
00:01:53.026,SEARCHING,15.480,4.550,1.000,0.00,-0.00,-170.82,3.351,3.910,3.066,3.765,5.439,0,0,SEARCHING,0.000,0.800,-0.088,0.026
00:01:53.226,SEARCHING,15.322,4.524,1.000,0.00,-0.00,-170.54,3.361,3.766,3.076,3.548,5.046,0,0,SEARCHING,0.000,0.800,-0.098,0.023
00:01:53.429,SEARCHING,15.164,4.497,1.000,0.00,-0.00,-170.28,3.377,3.673,3.114,3.437,5.000,0,0,SEARCHING,0.000,0.800,-0.103,0.021
00:01:53.627,SEARCHING,15.006,4.470,1.000,0.00,-0.00,-170.04,3.399,3.610,3.130,3.339,4.834,0,0,SEARCHING,0.000,0.800,-0.107,0.020
00:01:53.828,SEARCHING,14.849,4.442,1.000,0.00,-0.00,-169.81,3.413,3.446,3.176,3.167,4.708,0,0,SEARCHING,0.000,0.800,-0.110,0.019
00:01:54.029,SEARCHING,14.691,4.413,1.000,0.00,-0.00,-169.60,3.415,5.213,3.152,2.999,4.638,0,0,SEARCHING,0.000,0.800,-0.126,0.018
00:01:54.230,SEARCHING,14.534,4.384,1.000,0.00,-0.00,-169.39,3.389,5.956,3.154,2.822,4.350,0,0,SEARCHING,0.000,0.800,-0.139,0.018
00:01:54.431,SEARCHING,14.377,4.355,1.000,0.00,-0.00,-169.18,3.364,6.227,3.124,2.679,4.212,0,0,SEARCHING,0.000,0.800,-0.153,0.018
00:01:54.631,SEARCHING,14.220,4.324,1.000,0.00,-0.00,-168.98,3.317,6.332,3.089,2.548,4.183,0,0,SEARCHING,0.000,0.800,-0.171,0.018
00:01:54.832,SEARCHING,14.063,4.293,1.000,0.00,-0.00,-168.77,3.285,6.427,3.076,2.447,4.204,0,0,SEARCHING,0.000,0.800,-0.192,0.018
00:01:55.033,SEARCHING,13.906,4.262,1.000,0.00,-0.00,-168.57,3.321,6.512,3.064,2.336,4.309,0,0,SEARCHING,0.000,0.800,-0.214,0.018
00:01:55.232,SEARCHING,13.749,4.230,1.000,0.00,-0.00,-168.36,3.364,6.480,3.085,2.205,4.742,0,0,SEARCHING,0.000,0.800,-0.249,0.020
00:01:55.432,SEARCHING,13.592,4.198,1.000,0.00,-0.00,-168.13,3.490,6.616,3.124,2.096,5.081,0,0,SEARCHING,0.000,0.800,-0.291,0.023
00:01:55.633,SEARCHING,13.436,4.164,1.000,0.00,-0.00,-167.84,3.665,6.794,3.127,1.958,4.574,0,0,SEARCHING,0.000,0.800,-0.328,0.031
00:01:55.834,SEARCHING,13.280,4.130,1.000,0.00,-0.00,-167.46,3.744,6.654,3.169,1.793,5.239,0,0,SEARCHING,0.000,0.800,-0.385,0.037
00:01:56.034,SEARCHING,13.124,4.095,1.000,0.00,-0.00,-167.03,3.750,6.731,3.148,1.649,5.674,0,0,SEARCHING,0.000,0.800,-0.463,0.039
00:01:56.236,SEARCHING,12.968,4.058,1.000,0.00,-0.00,-166.57,3.751,6.910,3.143,3.829,5.737,0,0,SEARCHING,0.000,0.800,-0.292,0.041
00:01:56.435,SEARCHING,12.812,4.021,1.000,0.00,-0.00,-166.10,3.760,6.620,3.140,4.691,5.712,0,0,SEARCHING,0.000,0.800,-0.104,0.042
00:01:56.636,SEARCHING,12.657,3.982,1.000,0.00,-0.00,-165.62,3.752,7.105,3.111,4.837,5.684,0,0,SEARCHING,0.000,0.800,-0.025,0.043
00:01:56.837,SEARCHING,12.502,3.941,1.000,0.00,-0.00,-165.12,3.720,6.848,3.055,4.865,5.733,0,0,SEARCHING,0.000,0.800,-0.006,0.046
00:01:57.036,SEARCHING,12.348,3.900,1.000,0.00,-0.00,-164.59,3.650,7.796,2.976,4.876,5.756,0,0,SEARCHING,0.000,0.800,-0.001,0.048
00:01:57.237,SEARCHING,12.194,3.857,1.000,0.00,-0.00,-164.04,3.570,8.099,2.884,4.875,5.822,0,0,SEARCHING,0.000,0.800,-0.000,0.051
00:01:57.438,SEARCHING,12.040,3.812,1.000,0.00,-0.00,-163.45,3.496,7.775,2.925,4.922,5.998,0,0,SEARCHING,0.000,0.800,-0.000,0.049
00:01:57.639,SEARCHING,11.887,3.766,1.000,0.00,-0.00,-162.92,3.439,8.444,3.008,4.875,6.172,0,0,SEARCHING,0.000,0.800,-0.034,0.040
00:01:57.838,SEARCHING,11.734,3.718,1.000,0.00,-0.00,-162.50,3.376,7.413,3.112,4.869,6.157,0,0,SEARCHING,0.000,0.800,-0.047,0.028
00:01:58.039,SEARCHING,11.582,3.670,1.000,0.00,-0.00,-162.22,3.309,7.810,3.211,4.847,6.177,0,0,SEARCHING,0.000,0.800,-0.052,0.016
00:01:58.240,SEARCHING,11.429,3.620,1.000,0.00,-0.00,-162.08,3.250,7.718,3.306,4.877,6.159,0,0,SEARCHING,0.000,0.800,-0.054,0.004
00:01:58.441,SEARCHING,11.277,3.571,1.000,0.00,-0.00,-162.07,3.189,7.880,3.384,4.848,6.582,0,0,SEARCHING,0.000,0.800,-0.060,-0.007
00:01:58.641,SEARCHING,11.125,3.522,1.000,0.00,-0.00,-162.19,3.112,8.100,3.457,4.866,6.447,0,0,SEARCHING,0.000,0.800,-0.063,-0.017
00:01:58.841,SEARCHING,10.973,3.473,1.000,0.00,-0.00,-162.44,3.012,8.161,3.525,4.823,6.294,0,0,SEARCHING,0.000,0.800,-0.039,-0.031
00:01:59.041,SEARCHING,10.820,3.426,1.000,0.00,-0.00,-162.83,2.939,7.771,3.524,4.895,6.238,0,0,SEARCHING,0.000,0.800,-0.031,-0.041
00:01:59.244,SEARCHING,10.667,3.379,1.000,0.00,-0.00,-163.31,2.959,7.782,3.476,4.873,6.278,0,0,SEARCHING,0.000,0.800,-0.049,-0.042
00:01:59.443,SEARCHING,10.513,3.334,1.000,0.00,-0.00,-163.76,3.054,7.665,3.397,4.876,6.041,0,0,SEARCHING,0.000,0.800,-0.017,-0.034
00:01:59.644,SEARCHING,10.360,3.289,1.000,0.00,-0.00,-164.11,3.165,7.577,3.325,4.892,6.022,0,0,SEARCHING,0.000,0.800,-0.004,-0.022
00:01:59.844,SEARCHING,10.206,3.246,1.000,0.00,-0.00,-164.31,3.261,7.574,3.278,4.871,6.022,0,0,SEARCHING,0.000,0.800,-0.001,-0.009
00:02:00.044,SEARCHING,10.052,3.203,1.000,0.00,-0.00,-164.38,3.365,7.135,3.253,4.869,5.870,0,0,SEARCHING,0.000,0.800,-0.000,0.001
00:02:00.244,SEARCHING,9.898,3.159,1.000,0.00,-0.00,-164.33,3.438,7.176,3.164,4.858,5.985,0,0,SEARCHING,0.000,0.800,-0.000,0.012
00:02:00.445,SEARCHING,9.744,3.116,1.000,0.00,-0.00,-164.15,3.485,7.217,3.111,4.867,5.955,0,0,SEARCHING,0.000,0.800,-0.018,0.022
00:02:00.645,SEARCHING,9.590,3.072,1.000,0.00,-0.00,-163.87,3.516,6.948,3.043,4.868,5.959,0,0,SEARCHING,0.000,0.800,-0.004,0.030
00:02:00.846,SEARCHING,9.436,3.027,1.000,0.00,-0.00,-163.49,3.544,7.040,2.958,4.868,5.983,0,0,SEARCHING,0.000,0.800,-0.001,0.039
00:02:01.046,SEARCHING,9.283,2.981,1.000,0.00,-0.00,-163.02,3.482,6.929,2.956,4.868,6.122,0,0,SEARCHING,0.000,0.800,-0.015,0.042
00:02:01.247,SEARCHING,9.130,2.934,1.000,0.00,-0.00,-162.55,3.416,6.732,3.043,4.868,5.931,0,0,SEARCHING,0.000,0.800,-0.028,0.036
00:02:01.447,SEARCHING,8.978,2.885,1.000,0.00,-0.00,-162.18,3.346,6.683,3.132,4.868,6.038,0,0,SEARCHING,0.000,0.800,-0.007,0.025
00:02:01.648,SEARCHING,8.825,2.836,1.000,0.00,-0.00,-161.94,3.308,6.907,3.230,4.838,5.950,0,0,SEARCHING,0.000,0.800,-0.002,0.014
00:02:01.849,SEARCHING,8.673,2.786,1.000,0.00,-0.00,-161.82,3.243,6.898,3.320,4.854,6.062,0,0,SEARCHING,0.000,0.800,-0.000,0.003
00:02:02.052,SEARCHING,8.521,2.736,1.000,0.00,-0.00,-161.83,3.234,7.121,3.378,4.867,6.236,0,0,SEARCHING,0.000,0.800,-0.036,-0.007
00:02:02.251,SEARCHING,8.369,2.687,1.000,0.00,-0.00,-161.92,3.237,7.543,3.478,4.861,6.344,0,0,SEARCHING,0.000,0.800,-0.031,-0.013
00:02:02.452,SEARCHING,8.217,2.637,1.000,0.00,-0.00,-162.10,3.099,7.005,3.520,4.868,6.364,0,0,SEARCHING,0.000,0.800,-0.052,-0.022
00:02:02.652,SEARCHING,8.065,2.588,1.000,0.00,-0.00,-162.40,3.002,6.942,3.541,4.853,6.249,0,0,SEARCHING,0.000,0.800,-0.053,-0.034
00:02:02.853,SEARCHING,7.912,2.540,1.000,0.00,-0.00,-162.82,2.970,6.745,3.523,4.889,6.034,0,0,SEARCHING,0.000,0.800,-0.037,-0.040
00:02:03.053,SEARCHING,7.759,2.494,1.000,0.00,-0.00,-163.28,3.010,6.744,3.450,4.892,5.969,0,0,SEARCHING,0.000,0.800,-0.009,-0.038
00:02:03.253,SEARCHING,7.606,2.448,1.000,0.00,-0.00,-163.69,3.077,6.297,3.381,4.887,5.935,0,0,SEARCHING,0.000,0.800,-0.002,-0.030
00:02:03.455,SEARCHING,7.452,2.404,1.000,0.00,-0.00,-164.00,3.149,6.054,3.326,4.849,5.568,0,0,SEARCHING,0.000,0.800,-0.001,-0.020
00:02:03.654,SEARCHING,7.298,2.360,1.000,0.00,-0.00,-164.19,3.266,6.059,3.285,4.845,5.854,0,0,SEARCHING,0.000,0.800,-0.000,-0.009
