timestamp,state,x,z,roll_deg,pitch_deg,yaw_deg,left,center,right,top,bottom,cmd_vx,cmd_vz,cmd_roll,cmd_yaw
2026-05-11 15:13:55.044901,SEARCHING,0.000,0.000,0.00,0.00,0.00,10.000,10.000,10.000,10.000,10.000,0.700,0.000,0.000,0.000
2026-05-11 15:13:56.220372,SEARCHING,0.042,1.000,0.00,0.00,0.00,10.000,10.000,10.000,10.000,10.000,0.700,0.000,0.000,0.000
2026-05-11 15:13:56.420352,SEARCHING,0.182,1.000,0.00,0.00,0.00,10.000,10.000,10.000,10.000,10.000,0.700,0.000,0.000,0.000
2026-05-11 15:13:56.657509,SEARCHING,0.322,1.000,0.00,0.00,0.00,10.000,10.000,10.000,10.000,10.000,0.700,0.000,0.000,0.000
2026-05-11 15:13:56.878935,SEARCHING,0.462,1.000,0.00,0.00,-1.92,0.854,4.767,4.237,4.868,2.434,0.700,0.123,-0.421,-0.842
2026-05-11 15:13:57.085695,SEARCHING,0.601,1.000,0.00,0.00,-10.29,3.092,7.151,1.973,6.022,2.487,0.700,0.142,0.083,0.165
2026-05-11 15:13:57.297175,SEARCHING,0.739,1.000,0.00,0.00,-9.89,3.575,5.200,1.670,5.200,2.487,0.700,0.126,0.144,0.287
2026-05-11 15:13:57.497295,SEARCHING,0.877,1.000,0.00,0.00,-6.63,3.520,5.448,1.682,5.321,2.384,0.700,0.139,0.140,0.279
2026-05-11 15:13:57.714588,SEARCHING,1.016,1.000,0.00,0.00,-3.60,3.134,6.538,1.733,6.022,2.222,0.700,0.170,0.116,0.232
2026-05-11 15:13:57.935812,SEARCHING,1.156,1.000,0.00,0.00,-0.94,3.134,6.538,1.733,6.022,2.222,0.700,0.170,0.116,0.232
2026-05-11 15:13:58.137118,SEARCHING,1.296,1.000,0.00,0.00,1.72,2.630,6.022,3.751,5.581,2.384,0.700,0.144,-0.051,-0.102
2026-05-11 15:13:58.356932,SEARCHING,1.436,1.000,0.00,0.00,1.32,2.630,6.022,3.751,5.581,2.384,0.700,0.144,-0.051,-0.102
2026-05-11 15:13:58.576637,SEARCHING,1.576,1.000,0.00,0.00,0.14,2.630,6.022,3.751,5.581,2.384,0.700,0.144,-0.051,-0.102
2026-05-11 15:13:58.786166,SEARCHING,1.716,1.000,0.00,0.00,-1.14,2.460,6.730,3.751,5.720,2.487,0.700,0.136,-0.063,-0.126
2026-05-11 15:13:58.987754,SEARCHING,1.856,1.000,0.00,0.00,-2.58,2.460,6.730,3.751,5.720,2.487,0.700,0.136,-0.063,-0.126
2026-05-11 15:13:59.182655,SEARCHING,1.996,1.000,0.00,0.00,-3.91,2.542,6.730,3.467,6.022,2.460,0.700,0.144,-0.047,-0.094
2026-05-11 15:13:59.404891,SEARCHING,2.136,1.000,0.00,0.00,-4.99,2.542,6.730,3.467,6.022,2.460,0.700,0.144,-0.047,-0.094
2026-05-11 15:13:59.627156,SEARCHING,2.275,1.000,0.00,0.00,-5.98,2.600,6.184,3.223,6.022,2.460,0.700,0.144,-0.033,-0.067
2026-05-11 15:13:59.821511,SEARCHING,2.414,1.000,0.00,0.00,-6.75,2.630,5.867,3.011,5.867,2.409,0.700,0.147,-0.022,-0.043
2026-05-11 15:14:00.035319,SEARCHING,2.553,1.000,0.00,0.00,-7.30,2.661,5.720,2.934,5.720,2.434,0.700,0.142,-0.016,-0.031
2026-05-11 15:14:00.254347,SEARCHING,2.692,1.000,0.00,0.00,-7.68,2.630,5.581,2.860,5.448,2.434,0.700,0.136,-0.014,-0.028
2026-05-11 15:14:00.469934,SEARCHING,2.830,1.000,0.00,0.00,-7.98,2.630,5.321,2.790,5.321,2.542,0.700,0.123,-0.010,-0.020
2026-05-11 15:14:00.675546,SEARCHING,2.969,1.000,0.00,0.00,-8.22,2.571,5.200,2.757,5.200,2.460,0.700,0.128,-0.012,-0.024
2026-05-11 15:14:00.879993,SEARCHING,3.108,1.000,0.00,0.00,-8.49,2.571,5.200,2.757,5.200,2.460,0.700,0.128,-0.012,-0.024
2026-05-11 15:14:01.103700,SEARCHING,3.246,1.000,0.00,0.00,-8.76,3.814,4.974,2.692,4.974,2.487,0.700,0.121,0.049,0.098
2026-05-11 15:14:01.314213,SEARCHING,3.384,1.000,0.00,0.00,-7.91,3.814,4.767,2.630,4.868,2.434,0.700,0.123,0.053,0.106
2026-05-11 15:14:01.519429,SEARCHING,3.523,1.000,0.00,0.00,-6.73,3.751,4.868,2.692,4.868,2.409,0.700,0.126,0.047,0.094
2026-05-11 15:14:01.729453,SEARCHING,3.662,1.000,0.00,0.00,-5.62,3.751,4.868,2.661,4.868,2.460,0.700,0.121,0.049,0.098
2026-05-11 15:14:01.932132,SEARCHING,3.802,1.000,0.00,0.00,-4.56,3.520,4.767,2.692,4.670,2.487,0.700,0.113,0.039,0.079
2026-05-11 15:14:02.137948,SEARCHING,3.942,1.000,0.00,0.00,-3.66,3.520,4.767,2.692,4.670,2.487,0.700,0.113,0.039,0.079
2026-05-11 15:14:02.354617,SEARCHING,4.081,1.000,0.00,0.00,-2.85,3.269,4.767,2.757,4.868,2.266,0.700,0.142,0.026,0.051
2026-05-11 15:14:02.581922,SEARCHING,4.221,1.000,0.00,0.00,-2.29,3.223,4.767,2.790,4.767,2.571,0.700,0.108,0.022,0.043
2026-05-11 15:14:02.811405,SEARCHING,4.361,1.000,0.00,0.00,-1.80,3.223,4.767,2.790,4.767,2.571,0.700,0.108,0.022,0.043
2026-05-11 15:14:03.041938,SEARCHING,4.501,1.000,0.00,0.00,-1.30,3.223,4.767,2.790,4.767,2.571,0.700,0.108,0.022,0.043
2026-05-11 15:14:03.237491,SEARCHING,4.641,1.000,0.00,0.00,-0.81,3.223,4.767,2.790,4.767,2.571,0.700,0.108,0.022,0.043
2026-05-11 15:14:03.437923,SEARCHING,4.781,1.000,0.00,0.00,-0.31,3.223,4.767,2.790,4.767,2.571,0.700,0.108,0.022,0.043
2026-05-11 15:14:03.662638,SEARCHING,4.921,1.000,0.00,0.00,0.18,3.223,4.767,2.790,4.767,2.571,0.700,0.108,0.022,0.043
2026-05-11 15:14:03.874191,SEARCHING,5.061,1.000,0.00,0.00,0.68,3.223,4.767,2.790,4.767,2.571,0.700,0.108,0.022,0.043
2026-05-11 15:14:04.370278,SEARCHING,5.201,1.000,0.00,0.00,1.18,2.860,4.576,2.934,4.670,2.487,0.700,0.113,-0.004,-0.008
2026-05-11 15:14:05.210125,SEARCHING,5.341,1.000,0.00,0.00,1.20,2.860,4.576,2.934,4.670,2.487,0.700,0.113,-0.004,-0.008
2026-05-11 15:14:05.425589,SEARCHING,5.481,1.000,0.00,0.00,1.11,2.860,4.576,2.934,4.670,2.487,0.700,0.113,-0.004,-0.008
2026-05-11 15:14:05.624648,SEARCHING,5.621,1.000,0.00,0.00,1.02,2.860,4.576,2.934,4.670,2.487,0.700,0.113,-0.004,-0.008
2026-05-11 15:14:05.834040,SEARCHING,5.761,1.000,0.00,0.00,1.38,4.400,4.317,2.757,4.317,2.434,0.700,0.108,0.061,0.122
2026-05-11 15:14:06.055673,SEARCHING,5.901,1.000,0.00,0.00,2.78,4.400,4.317,2.757,4.317,2.434,0.700,0.108,0.061,0.122
2026-05-11 15:14:06.276448,SEARCHING,6.041,1.000,0.00,0.00,4.17,4.086,4.767,2.630,4.487,2.487,0.700,0.108,0.061,0.122
2026-05-11 15:14:06.503832,SEARCHING,6.180,1.000,0.00,0.00,5.57,4.086,4.767,2.630,4.487,2.487,0.700,0.108,0.061,0.122
2026-05-11 15:14:06.708414,SEARCHING,6.319,1.000,0.00,0.00,6.97,4.086,4.767,2.630,4.487,2.487,0.700,0.108,0.061,0.122
2026-05-11 15:14:06.942522,SEARCHING,6.458,1.000,0.00,0.00,8.37,4.086,4.767,2.630,4.487,2.487,0.700,0.108,0.061,0.122
2026-05-11 15:14:07.150386,SEARCHING,6.596,1.000,0.00,0.00,9.76,4.086,4.767,2.630,4.487,2.487,0.700,0.108,0.061,0.122
2026-05-11 15:14:07.357480,SEARCHING,6.734,1.000,0.00,0.00,11.16,4.086,4.767,2.630,4.487,2.487,0.700,0.108,0.061,0.122
2026-05-11 15:14:07.603820,SEARCHING,6.871,1.000,0.00,0.00,12.22,3.011,5.581,2.790,4.086,2.460,0.700,0.097,0.012,0.024
2026-05-11 15:14:07.801169,SEARCHING,7.008,1.000,0.00,0.00,12.49,3.011,5.581,2.790,4.086,2.460,0.700,0.097,0.012,0.024
2026-05-11 15:14:08.009686,SEARCHING,7.144,1.000,0.00,0.00,12.76,3.011,5.581,2.790,4.086,2.460,0.700,0.097,0.012,0.024
2026-05-11 15:14:08.211096,SEARCHING,7.281,1.000,0.00,0.00,13.03,2.790,6.022,3.011,3.178,2.311,0.700,0.071,-0.012,-0.024
2026-05-11 15:14:08.417054,SEARCHING,7.417,1.000,0.00,0.00,12.87,2.790,6.022,3.011,3.178,2.311,0.700,0.071,-0.012,-0.024
2026-05-11 15:14:08.629717,SEARCHING,7.554,1.000,0.00,0.00,12.60,2.757,5.867,3.269,3.751,2.434,0.700,0.087,-0.026,-0.051
2026-05-11 15:14:08.817004,SEARCHING,7.691,1.000,0.00,0.00,12.07,2.757,5.867,3.269,3.751,2.434,0.700,0.087,-0.026,-0.051
2026-05-11 15:14:09.046638,SEARCHING,7.828,1.000,0.00,0.00,11.49,2.757,5.867,3.269,3.751,2.434,0.700,0.087,-0.026,-0.051
2026-05-11 15:14:09.249032,SEARCHING,7.965,1.000,0.00,0.00,10.90,2.757,5.867,3.269,3.751,2.434,0.700,0.087,-0.026,-0.051
2026-05-11 15:14:09.472215,SEARCHING,8.103,1.000,0.00,0.00,10.45,2.934,4.974,2.972,3.269,2.487,0.700,0.058,-0.002,-0.004
2026-05-11 15:14:09.691041,SEARCHING,8.240,1.000,0.00,0.00,10.40,2.934,4.868,2.934,3.178,2.288,0.700,0.073,0.000,0.000
2026-05-11 15:14:09.900445,SEARCHING,8.378,1.000,0.00,0.00,10.40,4.237,4.767,2.757,2.972,2.359,0.700,0.052,0.057,0.114
2026-05-11 15:14:10.114919,SEARCHING,8.515,1.000,0.00,0.00,11.52,4.400,4.670,2.661,2.860,2.460,0.700,0.034,0.067,0.134
2026-05-11 15:14:10.316363,SEARCHING,8.652,1.000,0.00,0.00,13.05,4.086,5.321,2.600,2.692,2.434,0.700,0.024,0.063,0.126
2026-05-11 15:14:10.549253,SEARCHING,8.788,1.000,0.00,0.00,14.51,3.575,5.867,2.630,2.542,2.460,0.700,0.008,0.045,0.090
2026-05-11 15:14:10.750402,SEARCHING,8.924,1.000,0.00,0.00,15.56,3.365,6.184,2.661,2.514,2.487,0.700,0.003,0.035,0.071
2026-05-11 15:14:10.965722,SEARCHING,9.058,1.000,0.00,0.00,16.37,3.365,6.184,2.661,2.514,2.487,0.700,0.003,0.035,0.071
2026-05-11 15:14:11.186265,SEARCHING,9.192,1.000,0.00,0.00,17.09,3.269,7.890,2.757,2.409,2.460,0.700,-0.005,0.026,0.051
2026-05-11 15:14:11.394844,SEARCHING,9.326,1.000,0.00,0.00,17.66,3.178,6.538,2.724,2.311,2.434,0.700,-0.013,0.024,0.047
2026-05-11 15:14:11.609764,SEARCHING,9.459,1.000,0.00,0.00,18.20,3.178,6.538,2.724,2.311,2.434,0.700,-0.013,0.024,0.047
2026-05-11 15:14:11.815823,SEARCHING,9.592,1.000,0.00,0.00,18.74,3.178,6.538,2.724,2.311,2.434,0.700,-0.013,0.024,0.047
2026-05-11 15:14:12.047748,SEARCHING,9.724,1.000,0.00,0.00,19.28,3.316,6.538,2.825,2.692,2.460,0.700,0.021,0.024,0.047
2026-05-11 15:14:12.270174,SEARCHING,9.856,1.000,0.00,0.00,19.82,3.316,6.538,2.825,2.692,2.460,0.700,0.021,0.024,0.047
2026-05-11 15:14:12.490799,SEARCHING,9.988,1.000,0.00,0.00,20.28,3.178,6.538,2.934,2.630,2.460,0.700,0.016,0.012,0.024
2026-05-11 15:14:12.691070,SEARCHING,10.119,1.000,0.00,0.00,20.55,3.178,6.538,2.934,2.630,2.460,0.700,0.016,0.012,0.024
2026-05-11 15:14:12.909256,SEARCHING,10.250,1.000,0.00,0.00,20.72,3.178,6.022,3.269,2.600,2.487,0.700,0.010,-0.004,-0.008
2026-05-11 15:14:13.126854,SEARCHING,10.381,1.000,0.00,0.00,20.62,3.178,6.022,3.269,2.600,2.487,0.700,0.010,-0.004,-0.008
2026-05-11 15:14:13.338667,SEARCHING,10.512,1.000,0.00,0.00,20.53,3.178,6.022,3.269,2.600,2.487,0.700,0.010,-0.004,-0.008
2026-05-11 15:14:13.545610,SEARCHING,10.643,1.000,0.00,0.00,20.44,3.178,6.022,3.269,2.600,2.487,0.700,0.010,-0.004,-0.008
2026-05-11 15:14:13.747890,SEARCHING,10.774,1.000,0.00,0.00,20.35,3.178,6.022,3.269,2.600,2.487,0.700,0.010,-0.004,-0.008
2026-05-11 15:14:13.970425,SEARCHING,10.906,1.000,0.00,0.00,20.26,3.178,6.022,3.269,2.600,2.487,0.700,0.010,-0.004,-0.008
2026-05-11 15:14:14.177116,SEARCHING,11.037,1.000,0.00,0.00,20.17,3.011,5.581,3.092,2.600,2.460,0.700,0.013,-0.004,-0.008
2026-05-11 15:14:14.381345,SEARCHING,11.168,1.000,0.00,0.00,20.08,3.011,5.581,3.092,2.600,2.460,0.700,0.013,-0.004,-0.008
2026-05-11 15:14:14.607628,SEARCHING,11.300,1.000,0.00,0.00,19.99,3.011,5.581,3.092,2.600,2.460,0.700,0.013,-0.004,-0.008
2026-05-11 15:14:14.818295,SEARCHING,11.432,1.000,0.00,0.00,19.90,3.011,5.581,3.092,2.600,2.460,0.700,0.013,-0.004,-0.008
2026-05-11 15:14:15.026057,SEARCHING,11.563,1.000,0.00,0.00,19.50,2.934,5.581,4.317,4.576,2.542,0.700,0.105,-0.049,-0.098
2026-05-11 15:14:15.227276,SEARCHING,11.696,1.000,0.00,0.00,18.38,2.934,5.581,4.317,4.576,2.542,0.700,0.105,-0.049,-0.098
2026-05-11 15:14:15.445520,SEARCHING,11.829,1.000,0.00,0.00,17.25,2.972,5.448,3.945,5.448,2.359,0.700,0.144,-0.037,-0.075
2026-05-11 15:14:15.637899,SEARCHING,11.963,1.000,0.00,0.00,16.34,2.972,5.448,3.945,5.448,2.359,0.700,0.144,-0.037,-0.075
2026-05-11 15:14:15.863056,SEARCHING,12.097,1.000,0.00,0.00,15.48,3.051,5.085,3.691,5.581,2.434,0.700,0.139,-0.026,-0.051
2026-05-11 15:14:16.086762,SEARCHING,12.233,1.000,0.00,0.00,14.84,3.051,5.085,3.691,5.581,2.434,0.700,0.139,-0.026,-0.051
2026-05-11 15:14:16.296709,SEARCHING,12.368,1.000,0.00,0.00,14.28,3.051,4.767,3.520,5.448,2.487,0.700,0.131,-0.020,-0.039
2026-05-11 15:14:16.494254,SEARCHING,12.504,1.000,0.00,0.00,13.82,3.051,4.767,3.520,5.448,2.487,0.700,0.131,-0.020,-0.039
2026-05-11 15:14:16.714010,SEARCHING,12.640,1.000,0.00,0.00,13.43,3.134,4.576,3.467,5.720,2.460,0.700,0.139,-0.014,-0.028
2026-05-11 15:14:16.924022,SEARCHING,12.776,1.000,0.00,0.00,13.11,3.134,4.576,3.467,5.720,2.460,0.700,0.139,-0.014,-0.028
2026-05-11 15:14:17.154417,SEARCHING,12.913,1.000,0.00,0.00,12.84,3.134,4.014,3.316,5.720,2.434,0.700,0.142,-0.008,-0.016
2026-05-11 15:14:17.346018,SEARCHING,13.049,1.000,0.00,0.00,12.66,3.223,3.691,3.316,5.720,2.487,0.700,0.136,-0.004,-0.008
2026-05-11 15:14:17.559960,SEARCHING,13.186,1.000,0.00,0.00,12.55,3.223,3.691,3.316,5.720,2.487,0.700,0.136,-0.004,-0.008
2026-05-11 15:14:17.767120,SEARCHING,13.322,1.000,0.00,0.00,12.50,3.269,3.223,3.223,5.867,2.460,0.700,0.142,0.002,0.004
2026-05-11 15:14:17.975420,SEARCHING,13.459,1.000,0.00,0.00,12.52,3.134,3.092,3.178,5.867,2.460,0.700,0.142,-0.002,-0.004
2026-05-11 15:14:18.191576,SEARCHING,13.596,1.000,0.00,0.00,12.47,2.860,2.860,2.934,5.867,2.434,0.700,0.144,-0.004,-0.008
2026-05-11 15:14:18.391177,SEARCHING,13.733,1.000,0.00,0.00,12.39,2.860,2.860,2.934,5.867,2.434,0.700,0.144,-0.004,-0.008
2026-05-11 15:14:18.599415,SEARCHING,13.869,1.000,0.00,0.00,12.30,2.514,2.571,2.600,5.581,2.460,0.700,0.136,-0.006,-0.012
2026-05-11 15:14:18.838500,SEARCHING,14.006,1.000,0.00,0.00,12.17,2.514,2.571,2.600,5.581,2.460,0.700,0.136,-0.006,-0.012
2026-05-11 15:14:19.022598,SEARCHING,14.143,1.000,0.00,0.00,12.05,2.311,2.311,2.359,5.581,2.335,0.700,0.149,-0.004,-0.008
2026-05-11 15:14:19.237809,SEARCHING,14.280,1.000,0.00,0.00,11.96,2.311,2.311,2.359,5.581,2.335,0.700,0.149,-0.004,-0.008
2026-05-11 15:14:19.464132,SEARCHING,14.417,1.000,0.00,0.00,11.83,1.990,2.007,1.990,5.581,1.939,0.700,0.202,0.000,0.000
2026-05-11 15:14:19.674625,SEARCHING,14.554,1.000,0.00,0.00,11.80,1.973,1.990,1.956,5.720,1.876,0.696,0.215,0.002,0.004
2026-05-11 15:14:19.882335,SEARCHING,14.690,1.000,0.00,0.00,11.84,1.774,1.802,1.802,5.581,1.747,0.631,0.236,-0.004,-0.008
2026-05-11 15:14:20.080174,SEARCHING,14.815,1.000,0.00,0.00,11.80,1.720,1.760,1.733,5.581,1.733,0.616,0.239,-0.002,-0.004
2026-05-11 15:14:20.310807,SEARCHING,14.936,1.000,0.00,0.00,11.75,1.505,1.546,1.546,5.448,1.486,0.541,0.294,-0.008,-0.016
2026-05-11 15:14:20.524848,SEARCHING,15.044,1.000,0.00,0.00,11.64,1.476,1.486,1.486,5.448,1.421,0.520,0.312,-0.002,-0.004
2026-05-11 15:14:20.742150,SEARCHING,15.144,1.000,0.00,0.00,11.61,1.457,1.439,1.457,5.448,1.293,0.504,0.354,0.000,0.000
2026-05-11 15:14:20.958355,SEARCHING,15.243,1.000,0.00,0.00,11.61,1.354,1.330,1.338,5.321,1.211,0.466,0.383,0.004,0.008
2026-05-11 15:14:21.194816,SEARCHING,15.333,1.000,0.00,0.00,11.64,1.244,1.224,1.293,5.321,1.090,0.428,0.438,-0.014,-0.028
2026-05-11 15:14:21.386513,SEARCHING,15.417,1.000,0.00,0.00,11.38,1.173,1.300,1.250,5.200,1.008,0.455,0.480,-0.024,-0.047
2026-05-11 15:14:21.609041,SEARCHING,15.506,1.000,0.00,0.00,10.88,1.173,1.300,1.250,5.200,1.008,0.455,0.480,-0.024,-0.047
2026-05-11 15:14:21.810689,SEARCHING,15.595,1.000,0.00,0.00,10.34,1.224,1.264,1.330,4.868,0.811,0.442,0.616,-0.029,-0.059
2026-05-11 15:14:22.064779,SEARCHING,15.683,1.000,0.00,0.00,9.69,1.211,1.338,1.244,4.767,0.736,0.468,0.690,-0.010,-0.020
2026-05-11 15:14:22.270311,SEARCHING,15.774,1.000,0.00,0.00,9.37,1.211,1.338,1.244,4.767,0.736,0.468,0.690,-0.010,-0.020
2026-05-11 15:14:22.470448,SEARCHING,15.866,1.000,0.00,0.00,9.15,1.211,1.338,1.244,4.767,0.736,0.468,0.690,-0.010,-0.020
2026-05-11 15:14:22.676078,SEARCHING,15.959,1.000,0.00,0.00,8.92,1.211,1.338,1.244,4.767,0.736,0.468,0.690,-0.010,-0.020
2026-05-11 15:14:22.887805,SEARCHING,16.051,1.000,0.00,0.00,8.70,1.211,1.338,1.244,4.767,0.736,0.468,0.690,-0.010,-0.020
2026-05-11 15:14:23.098322,SEARCHING,16.144,1.000,0.00,0.00,8.47,1.192,1.244,1.271,4.160,0.478,0.435,1.112,-0.024,-0.047
2026-05-11 15:14:23.337600,SEARCHING,16.232,1.000,0.00,0.00,7.83,1.244,1.323,1.330,4.086,0.470,0.463,1.130,-0.024,-0.047
2026-05-11 15:14:23.554225,SEARCHING,16.326,1.000,0.00,0.00,7.06,1.204,1.404,1.330,3.878,0.487,0.491,1.078,-0.035,-0.071
2026-05-11 15:14:23.748418,SEARCHING,16.424,1.000,0.00,0.00,6.22,1.204,1.404,1.330,3.878,0.487,0.491,1.078,-0.035,-0.071
2026-05-11 15:14:23.964794,SEARCHING,16.522,1.000,0.00,0.00,5.41,1.156,1.395,1.250,3.575,0.467,0.488,1.117,-0.029,-0.059
2026-05-11 15:14:24.179000,SEARCHING,16.619,1.000,0.00,0.00,4.71,1.156,1.395,1.250,3.575,0.467,0.488,1.117,-0.029,-0.059
2026-05-11 15:14:24.386515,SEARCHING,16.717,1.000,0.00,0.00,4.03,1.156,1.395,1.250,3.575,0.467,0.488,1.117,-0.029,-0.059
2026-05-11 15:14:24.618324,SEARCHING,16.814,1.000,0.00,0.00,3.36,1.156,1.395,1.250,3.575,0.467,0.488,1.117,-0.029,-0.059
2026-05-11 15:14:24.837871,SEARCHING,16.912,1.000,0.00,0.00,2.68,1.156,1.395,1.250,3.575,0.467,0.488,1.117,-0.029,-0.059
2026-05-11 15:14:25.043233,SEARCHING,17.009,1.000,0.00,0.00,2.01,1.156,1.395,1.250,3.575,0.467,0.488,1.117,-0.029,-0.059
2026-05-11 15:14:25.264389,SEARCHING,17.107,1.000,0.00,0.00,1.33,3.632,2.661,1.330,2.661,0.522,0.700,0.923,0.214,0.429
2026-05-11 15:14:25.478286,SEARCHING,17.238,1.000,0.00,0.00,5.12,3.632,2.661,1.330,2.661,0.522,0.700,0.923,0.214,0.429
2026-05-11 15:14:25.691588,SEARCHING,17.377,1.000,0.00,0.00,10.04,3.632,2.661,1.330,2.661,0.522,0.700,0.923,0.214,0.429
2026-05-11 15:14:25.915356,SEARCHING,17.514,1.000,0.00,0.00,14.95,3.632,2.661,1.330,2.661,0.522,0.700,0.923,0.214,0.429
2026-05-11 15:14:26.122169,SEARCHING,17.648,1.000,0.00,0.00,19.86,3.632,2.661,1.330,2.661,0.522,0.700,0.923,0.214,0.429
2026-05-11 15:14:26.345201,SEARCHING,17.778,1.000,0.00,0.00,22.96,1.760,3.878,2.179,3.878,0.463,0.700,1.141,-0.049,-0.098
2026-05-11 15:14:26.562271,SEARCHING,17.907,1.000,0.00,0.00,21.84,1.760,3.878,2.179,3.878,0.463,0.700,1.141,-0.049,-0.098
2026-05-11 15:14:26.781066,SEARCHING,18.037,1.000,0.00,0.00,20.71,1.760,3.878,2.179,3.878,0.463,0.700,1.141,-0.049,-0.098
2026-05-11 15:14:26.990090,SEARCHING,18.169,1.000,0.00,0.00,19.58,1.760,3.878,2.179,3.878,0.463,0.700,1.141,-0.049,-0.098
2026-05-11 15:14:27.210073,SEARCHING,18.301,1.000,0.00,0.00,18.13,1.623,3.365,2.311,3.365,1.467,0.700,0.231,-0.083,-0.165
2026-05-11 15:14:27.412795,SEARCHING,18.435,1.000,0.00,0.00,16.18,1.623,3.365,2.311,3.365,1.467,0.700,0.231,-0.083,-0.165
2026-05-11 15:14:27.624604,SEARCHING,18.570,1.000,0.00,0.00,14.28,1.623,3.365,2.311,3.365,1.467,0.700,0.231,-0.083,-0.165
2026-05-11 15:14:27.828921,SEARCHING,18.706,1.000,0.00,0.00,12.39,1.623,3.365,2.311,3.365,1.467,0.700,0.231,-0.083,-0.165
2026-05-11 15:14:28.047511,SEARCHING,18.843,1.000,0.00,0.00,10.50,1.623,3.365,2.311,3.365,1.467,0.700,0.231,-0.083,-0.165
2026-05-11 15:14:28.262721,SEARCHING,18.981,1.000,0.00,0.00,8.60,2.159,2.571,1.682,2.487,1.939,0.700,0.068,0.059,0.118
2026-05-11 15:14:28.498505,SEARCHING,19.120,1.000,0.00,0.00,9.39,2.200,2.487,1.634,2.409,1.939,0.700,0.060,0.071,0.142
2026-05-11 15:14:28.715126,SEARCHING,19.257,1.000,0.00,0.00,11.11,2.200,2.384,1.557,2.266,1.939,0.700,0.045,0.085,0.169
2026-05-11 15:14:28.920071,SEARCHING,19.394,1.000,0.00,0.00,13.04,2.200,2.384,1.557,2.266,1.939,0.700,0.045,0.085,0.169
2026-05-11 15:14:29.146180,SEARCHING,19.530,1.000,0.00,0.00,14.98,2.200,2.384,1.557,2.266,1.939,0.700,0.045,0.085,0.169
2026-05-11 15:14:29.350480,SEARCHING,19.665,1.000,0.00,0.00,16.92,2.200,2.384,1.557,2.266,1.939,0.700,0.045,0.085,0.169
2026-05-11 15:14:29.571186,SEARCHING,19.798,1.000,0.00,0.00,18.86,2.200,2.384,1.557,2.266,1.939,0.700,0.045,0.085,0.169
2026-05-11 15:14:29.780767,SEARCHING,19.930,1.000,0.00,0.00,20.80,2.200,2.384,1.557,2.266,1.939,0.700,0.045,0.085,0.169
2026-05-11 15:14:29.995216,SEARCHING,20.060,1.000,0.00,0.00,22.22,1.505,2.692,1.457,2.661,2.200,0.700,0.047,0.010,0.020
2026-05-11 15:14:30.200068,SEARCHING,20.190,1.000,0.00,0.00,22.45,1.505,2.692,1.457,2.661,2.200,0.700,0.047,0.010,0.020
2026-05-11 15:14:30.414395,SEARCHING,20.319,1.000,0.00,0.00,22.77,1.308,2.222,1.224,2.200,2.200,0.700,0.000,0.024,0.047
2026-05-11 15:14:30.623820,SEARCHING,20.448,1.000,0.00,0.00,23.31,1.308,2.222,1.224,2.200,2.200,0.700,0.000,0.024,0.047
2026-05-11 15:14:30.853229,SEARCHING,20.576,1.000,0.00,0.00,23.85,1.198,2.007,4.014,2.025,2.025,0.700,0.000,-0.264,-0.527
2026-05-11 15:14:31.065319,SEARCHING,20.703,1.000,0.00,0.00,19.06,1.122,1.876,3.575,1.876,1.876,0.656,0.000,-0.275,-0.551
2026-05-11 15:14:31.268303,SEARCHING,20.831,1.000,0.00,0.00,12.59,1.150,1.939,4.868,1.939,1.956,0.679,-0.003,-0.299,-0.598
2026-05-11 15:14:31.487860,SEARCHING,20.966,1.000,0.00,0.00,6.12,1.395,2.434,4.317,2.460,2.311,0.700,0.016,-0.218,-0.437
2026-05-11 15:14:31.694204,SEARCHING,21.106,1.000,0.00,0.00,1.00,1.395,2.434,4.317,2.460,2.311,0.700,0.016,-0.218,-0.437
2026-05-11 15:14:31.913281,SEARCHING,21.246,1.000,0.00,0.00,0.38,1.733,4.670,0.663,4.237,2.335,0.700,0.115,0.419,0.838
2026-05-11 15:14:32.112611,SEARCHING,21.385,1.000,0.00,0.00,11.28,1.939,5.448,0.536,5.448,2.311,0.700,0.149,0.608,1.215
2026-05-11 15:14:32.355147,SEARCHING,21.518,1.000,0.00,0.00,25.20,1.204,1.956,4.974,1.956,1.956,0.684,0.000,-0.283,-0.566
2026-05-11 15:14:32.551528,SEARCHING,21.635,1.000,0.00,0.00,22.76,1.079,1.600,3.520,1.589,1.546,0.560,0.010,-0.289,-0.578
2026-05-11 15:14:32.757546,SEARCHING,21.740,1.000,0.00,0.00,16.13,1.079,1.600,3.520,1.589,1.546,0.560,0.010,-0.289,-0.578
2026-05-11 15:14:32.979195,SEARCHING,21.849,1.000,0.00,0.00,9.51,1.079,1.600,3.520,1.589,1.546,0.560,0.010,-0.289,-0.578
2026-05-11 15:14:33.199747,SEARCHING,21.961,1.000,0.00,0.00,2.88,1.079,1.600,3.520,1.589,1.546,0.560,0.010,-0.289,-0.578
2026-05-11 15:14:33.398543,SEARCHING,22.073,1.000,0.00,0.00,-3.75,1.079,1.600,3.520,1.589,1.546,0.560,0.010,-0.289,-0.578
2026-05-11 15:14:33.611655,SEARCHING,22.184,1.000,0.00,0.00,-10.37,1.079,1.600,3.520,1.589,1.546,0.560,0.010,-0.289,-0.578
2026-05-11 15:14:33.809736,SEARCHING,22.293,1.000,0.00,0.00,-17.00,1.079,1.600,3.520,1.589,1.546,0.560,0.010,-0.289,-0.578
2026-05-11 15:14:34.040077,SEARCHING,22.398,1.000,0.00,0.00,-23.62,1.079,1.600,3.520,1.589,1.546,0.560,0.010,-0.289,-0.578
2026-05-11 15:14:34.237413,SEARCHING,22.498,1.000,0.00,0.00,-30.25,4.237,2.159,1.505,2.159,2.138,0.700,0.003,0.193,0.385
2026-05-11 15:14:34.458953,SEARCHING,22.614,1.000,0.00,0.00,-28.04,3.691,1.990,1.412,1.990,2.007,0.696,-0.003,0.197,0.393
2026-05-11 15:14:34.669167,SEARCHING,22.740,1.000,0.00,0.00,-23.55,3.691,1.907,1.354,1.923,1.907,0.667,0.003,0.210,0.421
2026-05-11 15:14:34.868409,SEARCHING,22.866,1.000,0.00,0.00,-18.72,3.878,1.973,1.338,1.973,1.973,0.690,0.000,0.220,0.441
2026-05-11 15:14:35.241811,SEARCHING,22.999,1.000,0.00,0.00,-13.67,3.878,1.973,1.338,1.973,1.973,0.690,0.000,0.220,0.441
2026-05-11 15:14:35.414214,SEARCHING,23.134,1.000,0.00,0.00,-8.63,3.878,1.973,1.338,1.973,1.973,0.690,0.000,0.220,0.441
2026-05-11 15:14:36.050603,SEARCHING,23.271,1.000,0.00,0.00,-3.58,3.878,1.973,1.338,1.973,1.973,0.690,0.000,0.220,0.441
2026-05-11 15:14:36.207213,SEARCHING,23.409,1.000,0.00,0.00,1.47,3.878,1.973,1.338,1.973,1.973,0.690,0.000,0.220,0.441
2026-05-11 15:14:36.414875,SEARCHING,23.547,1.000,0.00,0.00,6.52,1.876,4.670,2.434,4.670,2.434,0.700,0.118,-0.055,-0.110
2026-05-11 15:14:36.650636,SEARCHING,23.685,1.000,0.00,0.00,6.52,1.708,4.974,2.724,4.974,2.434,0.700,0.126,-0.098,-0.197
2026-05-11 15:14:36.828957,SEARCHING,23.825,1.000,0.00,0.00,4.46,1.708,4.974,2.724,4.974,2.434,0.700,0.126,-0.098,-0.197
2026-05-11 15:14:37.056126,SEARCHING,23.964,1.000,0.00,0.00,2.21,1.708,4.974,2.724,4.974,2.434,0.700,0.126,-0.098,-0.197
2026-05-11 15:14:37.252706,SEARCHING,24.104,1.000,0.00,0.00,-0.05,2.243,3.814,2.179,3.751,2.460,0.700,0.084,0.006,0.012
2026-05-11 15:14:37.463263,SEARCHING,24.244,1.000,0.00,0.00,-0.28,2.359,3.575,2.119,3.632,2.460,0.700,0.079,0.022,0.043
2026-05-11 15:14:37.668917,SEARCHING,24.384,1.000,0.00,0.00,0.27,2.384,3.467,2.061,3.467,2.434,0.700,0.073,0.029,0.059
2026-05-11 15:14:37.892343,SEARCHING,24.524,1.000,0.00,0.00,0.95,2.384,3.467,2.061,3.467,2.434,0.700,0.073,0.029,0.059
2026-05-11 15:14:38.116347,SEARCHING,24.664,1.000,0.00,0.00,1.62,2.266,3.520,2.159,3.520,2.409,0.700,0.079,0.010,0.020
2026-05-11 15:14:38.332131,SEARCHING,24.804,1.000,0.00,0.00,1.92,2.266,3.467,2.179,3.467,2.434,0.700,0.073,0.008,0.016
2026-05-11 15:14:38.530342,SEARCHING,24.944,1.000,0.00,0.00,2.10,2.266,3.467,2.179,3.467,2.434,0.700,0.073,0.008,0.016
2026-05-11 15:14:38.751356,SEARCHING,25.084,1.000,0.00,0.00,2.29,2.099,3.365,2.025,3.415,2.460,0.700,0.068,0.008,0.016
2026-05-11 15:14:38.958099,SEARCHING,25.224,1.000,0.00,0.00,3.09,3.269,3.316,1.907,3.365,2.460,0.700,0.066,0.098,0.197
2026-05-11 15:14:39.154677,SEARCHING,25.364,1.000,0.00,0.00,5.40,3.223,3.316,1.831,3.316,2.434,0.700,0.066,0.106,0.212
2026-05-11 15:14:39.368461,SEARCHING,25.503,1.000,0.00,0.00,7.83,3.223,3.316,1.831,3.316,2.434,0.700,0.066,0.106,0.212
2026-05-11 15:14:39.585666,SEARCHING,25.641,1.000,0.00,0.00,10.26,3.223,3.316,1.831,3.316,2.434,0.700,0.066,0.106,0.212
2026-05-11 15:14:39.794832,SEARCHING,25.778,1.000,0.00,0.00,12.70,3.223,3.316,1.831,3.316,2.434,0.700,0.066,0.106,0.212
2026-05-11 15:14:40.004141,SEARCHING,25.914,1.000,0.00,0.00,15.13,1.412,4.868,2.266,4.767,2.434,0.700,0.121,-0.120,-0.240
2026-05-11 15:14:40.220435,SEARCHING,26.049,1.000,0.00,0.00,13.42,1.412,4.868,2.266,4.767,2.434,0.700,0.121,-0.120,-0.240
2026-05-11 15:14:40.442858,SEARCHING,26.186,1.000,0.00,0.00,11.32,2.080,4.576,2.179,4.487,2.434,0.700,0.113,-0.010,-0.020
2026-05-11 15:14:40.665459,SEARCHING,26.324,1.000,0.00,0.00,11.02,2.080,4.576,2.179,4.487,2.434,0.700,0.113,-0.010,-0.020
2026-05-11 15:14:40.876549,SEARCHING,26.461,1.000,0.00,0.00,11.02,2.311,4.237,2.061,4.237,2.460,0.700,0.102,0.024,0.047
2026-05-11 15:14:41.088032,SEARCHING,26.598,1.000,0.00,0.00,11.57,2.311,4.237,2.061,4.237,2.460,0.700,0.102,0.024,0.047
2026-05-11 15:14:41.288162,SEARCHING,26.735,1.000,0.00,0.00,12.11,2.311,4.237,2.061,4.237,2.460,0.700,0.102,0.024,0.047
2026-05-11 15:14:41.513529,SEARCHING,26.872,1.000,0.00,0.00,12.69,2.288,4.086,1.990,4.014,2.434,0.700,0.097,0.029,0.059
2026-05-11 15:14:41.707669,SEARCHING,27.009,1.000,0.00,0.00,13.36,2.266,4.160,2.061,4.160,2.460,0.700,0.100,0.020,0.039
2026-05-11 15:14:41.911711,SEARCHING,27.145,1.000,0.00,0.00,13.86,2.243,4.160,2.099,4.160,2.460,0.700,0.100,0.014,0.028
2026-05-11 15:14:42.118141,SEARCHING,27.280,1.000,0.00,0.00,14.22,2.243,4.160,2.080,4.160,2.460,0.700,0.100,0.016,0.031
2026-05-11 15:14:42.329095,SEARCHING,27.416,1.000,0.00,0.00,14.58,2.179,4.014,2.080,4.086,2.460,0.700,0.097,0.010,0.020
2026-05-11 15:14:42.538115,SEARCHING,27.552,1.000,0.00,0.00,14.79,2.179,3.945,2.138,4.014,2.460,0.700,0.094,0.004,0.008
2026-05-11 15:14:42.761973,SEARCHING,27.687,1.000,0.00,0.00,14.88,2.119,3.814,2.119,3.814,2.460,0.700,0.087,0.000,0.000
2026-05-11 15:14:42.965057,SEARCHING,27.822,1.000,0.00,0.00,14.90,2.119,3.814,2.119,3.814,2.460,0.700,0.087,0.000,0.000
2026-05-11 15:14:43.172329,SEARCHING,27.957,1.000,0.00,0.00,14.90,2.119,3.751,2.007,3.575,2.460,0.700,0.076,0.012,0.024
2026-05-11 15:14:43.386665,SEARCHING,28.093,1.000,0.00,0.00,15.11,2.119,3.751,2.007,3.575,2.460,0.700,0.076,0.012,0.024
2026-05-11 15:14:43.612024,SEARCHING,28.228,1.000,0.00,0.00,15.38,2.119,3.751,2.007,3.575,2.460,0.700,0.076,0.012,0.024
2026-05-11 15:14:43.817375,SEARCHING,28.363,1.000,0.00,0.00,15.65,2.119,3.751,2.007,3.575,2.460,0.700,0.076,0.012,0.024
2026-05-11 15:14:44.028613,SEARCHING,28.497,1.000,0.00,0.00,16.50,2.757,4.576,1.956,4.576,2.487,0.700,0.110,0.067,0.134
2026-05-11 15:14:44.252749,SEARCHING,28.631,1.000,0.00,0.00,18.07,2.757,4.576,1.956,4.576,2.487,0.700,0.110,0.067,0.134
2026-05-11 15:14:44.468060,SEARCHING,28.764,1.000,0.00,0.00,19.55,2.571,4.317,2.025,4.317,2.460,0.700,0.105,0.047,0.094
2026-05-11 15:14:44.693679,SEARCHING,28.895,1.000,0.00,0.00,20.68,2.571,4.317,2.025,4.317,2.460,0.700,0.105,0.047,0.094
2026-05-11 15:14:44.885455,SEARCHING,29.026,1.000,0.00,0.00,21.67,2.409,4.014,2.043,4.086,2.434,0.700,0.100,0.033,0.067
2026-05-11 15:14:45.116196,SEARCHING,29.155,1.000,0.00,0.00,22.30,2.288,3.814,2.138,3.814,2.487,0.700,0.084,0.014,0.028
2026-05-11 15:14:45.332589,SEARCHING,29.285,1.000,0.00,0.00,22.62,2.099,3.575,2.159,3.575,2.460,0.700,0.076,-0.006,-0.012
2026-05-11 15:14:45.536703,SEARCHING,29.414,1.000,0.00,0.00,22.54,1.990,3.467,2.080,3.415,2.460,0.700,0.068,-0.010,-0.020
2026-05-11 15:14:45.738326,SEARCHING,29.544,1.000,0.00,0.00,22.32,1.990,3.467,2.080,3.415,2.460,0.700,0.068,-0.010,-0.020
2026-05-11 15:14:45.947016,SEARCHING,29.673,1.000,0.00,0.00,21.12,1.831,3.365,4.868,3.365,2.460,0.700,0.066,-0.153,-0.307
2026-05-11 15:14:46.176263,SEARCHING,29.805,1.000,0.00,0.00,17.61,1.891,3.223,1.845,3.178,2.487,0.700,0.052,0.006,0.012
2026-05-11 15:14:46.406075,SEARCHING,29.939,1.000,0.00,0.00,17.02,1.891,3.223,1.845,3.178,2.487,0.700,0.052,0.006,0.012
2026-05-11 15:14:46.628296,SEARCHING,30.073,1.000,0.00,0.00,17.38,1.939,3.051,2.571,3.011,2.460,0.700,0.045,-0.057,-0.114
2026-05-11 15:14:46.841225,SEARCHING,30.207,1.000,0.00,0.00,16.57,1.939,3.011,2.460,3.011,2.460,0.700,0.045,-0.049,-0.098
2026-05-11 15:14:47.051634,SEARCHING,30.341,1.000,0.00,0.00,15.45,1.939,2.896,2.335,2.934,2.460,0.700,0.039,-0.039,-0.079
2026-05-11 15:14:47.264273,SEARCHING,30.476,1.000,0.00,0.00,14.54,1.939,2.934,2.266,2.934,2.460,0.700,0.039,-0.033,-0.067
2026-05-11 15:14:47.466601,SEARCHING,30.612,1.000,0.00,0.00,13.77,1.990,2.896,3.520,2.896,2.460,0.700,0.037,-0.098,-0.197
2026-05-11 15:14:47.696145,SEARCHING,30.748,1.000,0.00,0.00,11.79,2.025,2.860,3.467,2.860,2.434,0.700,0.037,-0.092,-0.185
2026-05-11 15:14:47.906928,SEARCHING,30.886,1.000,0.00,0.00,9.63,2.007,2.934,2.061,2.934,2.460,0.700,0.039,-0.006,-0.012
2026-05-11 15:14:48.120331,SEARCHING,31.024,1.000,0.00,0.00,9.10,1.876,3.092,1.923,3.092,2.460,0.700,0.050,-0.006,-0.012
2026-05-11 15:14:48.342966,SEARCHING,31.162,1.000,0.00,0.00,8.96,1.774,2.972,3.011,2.972,2.460,0.700,0.042,-0.104,-0.208
2026-05-11 15:14:48.557677,SEARCHING,31.301,1.000,0.00,0.00,7.00,1.747,2.934,3.011,2.934,2.460,0.700,0.039,-0.108,-0.216
2026-05-11 15:14:48.757975,SEARCHING,31.440,1.000,0.00,0.00,4.58,1.788,3.051,2.724,2.972,2.460,0.700,0.042,-0.087,-0.173
2026-05-11 15:14:48.981011,SEARCHING,31.580,1.000,0.00,0.00,2.55,1.788,3.051,2.724,2.972,2.460,0.700,0.042,-0.087,-0.173
2026-05-11 15:14:49.191094,SEARCHING,31.720,1.000,0.00,0.00,0.56,1.860,4.487,2.409,4.487,2.434,0.700,0.113,-0.055,-0.110
2026-05-11 15:14:49.429533,SEARCHING,31.860,1.000,0.00,0.00,-0.80,1.891,4.317,2.384,4.317,2.460,0.700,0.105,-0.049,-0.098
2026-05-11 15:14:49.630320,SEARCHING,32.000,1.000,0.00,0.00,-1.93,1.891,4.317,2.384,4.317,2.460,0.700,0.105,-0.049,-0.098
2026-05-11 15:14:49.859436,SEARCHING,32.140,1.000,0.00,0.00,-2.87,1.939,3.632,2.138,3.632,2.460,0.700,0.079,-0.022,-0.043
2026-05-11 15:14:50.059344,SEARCHING,32.279,1.000,0.00,0.00,-3.29,1.973,3.575,2.080,3.632,2.487,0.700,0.076,-0.012,-0.024
2026-05-11 15:14:50.284541,SEARCHING,32.419,1.000,0.00,0.00,-3.57,1.956,3.365,1.876,3.365,2.460,0.700,0.066,0.010,0.020
2026-05-11 15:14:50.466449,SEARCHING,32.559,1.000,0.00,0.00,-3.44,1.956,3.365,1.876,3.365,2.460,0.700,0.066,0.010,0.020
2026-05-11 15:14:50.696419,SEARCHING,32.699,1.000,0.00,0.00,-2.32,4.317,3.092,1.816,3.134,2.434,0.700,0.055,0.144,0.287
2026-05-11 15:14:50.887388,SEARCHING,32.839,1.000,0.00,0.00,0.96,4.237,3.134,1.788,3.092,2.460,0.700,0.050,0.146,0.291
2026-05-11 15:14:51.114969,SEARCHING,32.979,1.000,0.00,0.00,3.03,1.623,3.632,1.990,3.575,2.460,0.700,0.076,-0.051,-0.102
2026-05-11 15:14:51.310267,SEARCHING,33.118,1.000,0.00,0.00,1.80,1.578,3.814,2.061,3.814,2.460,0.700,0.087,-0.067,-0.134
2026-05-11 15:14:51.525929,SEARCHING,33.258,1.000,0.00,0.00,0.27,3.415,3.467,1.891,3.415,2.460,0.700,0.068,0.106,0.212
2026-05-11 15:14:51.737094,SEARCHING,33.398,1.000,0.00,0.00,1.97,3.520,3.316,1.860,3.269,2.460,0.700,0.060,0.114,0.228
2026-05-11 15:14:51.952382,SEARCHING,33.538,1.000,0.00,0.00,4.58,3.467,3.223,1.845,3.178,2.460,0.700,0.055,0.114,0.228
2026-05-11 15:14:52.161203,SEARCHING,33.677,1.000,0.00,0.00,7.11,3.316,3.520,1.891,3.520,2.487,0.700,0.071,0.102,0.205
2026-05-11 15:14:52.376396,SEARCHING,33.816,1.000,0.00,0.00,9.27,2.692,4.086,2.007,4.086,2.460,0.700,0.097,0.057,0.114
2026-05-11 15:14:52.580318,SEARCHING,33.954,1.000,0.00,0.00,10.59,2.571,4.086,2.025,4.014,2.460,0.700,0.094,0.047,0.094
2026-05-11 15:14:52.792487,SEARCHING,34.091,1.000,0.00,0.00,11.55,2.434,3.878,2.099,3.878,2.460,0.700,0.089,0.029,0.059
2026-05-11 15:14:53.023137,SEARCHING,34.228,1.000,0.00,0.00,12.16,2.288,3.632,2.159,3.691,2.487,0.700,0.079,0.012,0.024
2026-05-11 15:14:53.225605,SEARCHING,34.365,1.000,0.00,0.00,12.46,2.311,3.575,2.179,3.575,2.487,0.700,0.073,0.012,0.024
2026-05-11 15:14:53.445006,SEARCHING,34.502,1.000,0.00,0.00,12.75,2.311,3.415,2.159,3.415,2.460,0.700,0.068,0.014,0.028
2026-05-11 15:14:53.636256,SEARCHING,34.638,1.000,0.00,0.00,13.06,2.243,3.269,2.179,3.269,2.434,0.700,0.063,0.006,0.012
2026-05-11 15:14:53.879663,SEARCHING,34.775,1.000,0.00,0.00,13.22,2.243,3.178,2.222,3.178,2.460,0.700,0.055,0.002,0.004
2026-05-11 15:14:54.056622,SEARCHING,34.911,1.000,0.00,0.00,13.27,2.243,3.178,2.222,3.178,2.460,0.700,0.055,0.002,0.004
2026-05-11 15:14:54.275014,SEARCHING,35.047,1.000,0.00,0.00,13.25,2.099,2.896,2.200,2.896,2.460,0.700,0.037,-0.010,-0.020
2026-05-11 15:14:54.481877,SEARCHING,35.183,1.000,0.00,0.00,13.02,2.043,2.825,2.200,2.825,2.460,0.700,0.031,-0.016,-0.031
2026-05-11 15:14:54.696112,SEARCHING,35.320,1.000,0.00,0.00,12.67,2.007,2.724,2.179,2.724,2.460,0.700,0.024,-0.018,-0.035
2026-05-11 15:14:54.911231,SEARCHING,35.457,1.000,0.00,0.00,12.22,1.990,2.571,2.200,2.571,2.434,0.700,0.013,-0.022,-0.043
2026-05-11 15:14:55.149760,SEARCHING,35.593,1.000,0.00,0.00,11.66,1.973,2.384,2.243,2.359,2.359,0.700,0.000,-0.028,-0.055
2026-05-11 15:14:55.367584,SEARCHING,35.731,1.000,0.00,0.00,11.01,2.007,2.288,2.179,2.288,2.288,0.700,0.000,-0.018,-0.035
2026-05-11 15:14:55.569361,SEARCHING,35.868,1.000,0.00,0.00,10.63,1.973,2.119,2.025,2.119,2.099,0.700,0.003,-0.006,-0.012
2026-05-11 15:14:55.784583,SEARCHING,36.006,1.000,0.00,0.00,10.55,1.990,2.025,1.956,2.025,2.025,0.700,0.000,0.004,0.008
2026-05-11 15:14:55.987420,SEARCHING,36.143,1.000,0.00,0.00,10.64,1.956,1.876,1.802,1.876,1.876,0.656,0.000,0.020,0.039
2026-05-11 15:14:56.199377,SEARCHING,36.272,1.000,0.00,0.00,11.02,1.760,1.695,1.623,1.695,1.682,0.593,0.003,0.022,0.043
2026-05-11 15:14:56.401599,SEARCHING,36.389,1.000,0.00,0.00,11.52,1.634,1.567,1.496,1.567,1.567,0.549,0.000,0.026,0.051
2026-05-11 15:14:56.612724,SEARCHING,36.496,1.000,0.00,0.00,12.10,1.567,1.486,1.412,1.486,1.476,0.520,0.003,0.031,0.063
2026-05-11 15:14:56.824979,SEARCHING,36.597,1.000,0.00,0.00,12.79,1.439,1.370,1.300,1.370,1.370,0.480,0.000,0.033,0.067
2026-05-11 15:14:57.040805,SEARCHING,36.689,1.000,0.00,0.00,13.58,1.387,1.308,1.244,1.308,1.308,0.458,0.000,0.037,0.075
2026-05-11 15:14:57.240129,SEARCHING,36.776,1.000,0.00,0.00,14.47,1.257,1.179,1.116,1.179,1.186,0.413,-0.003,0.045,0.090
2026-05-11 15:14:57.458773,SEARCHING,36.856,1.000,0.00,0.00,15.51,1.186,1.105,1.035,1.105,1.105,0.387,0.000,0.055,0.110
2026-05-11 15:14:57.681598,SEARCHING,36.930,1.000,0.00,0.00,16.75,1.084,1.008,0.942,1.008,1.008,0.353,0.000,0.063,0.126
2026-05-11 15:14:57.931014,INSPECTING,36.991,1.000,0.00,0.00,18.02,1.045,0.965,0.897,0.965,0.965,0.350,0.550,0.552,0.850
2026-05-11 15:14:58.118064,INSPECTING,37.049,1.000,0.00,0.00,26.79,1.017,0.912,0.829,0.912,0.912,0.350,0.550,0.552,0.850
2026-05-11 15:14:58.373177,INSPECTING,37.109,1.000,0.00,0.00,36.53,1.064,0.897,0.773,0.897,0.894,0.350,0.550,0.552,0.850
2026-05-11 15:14:58.532751,INSPECTING,37.162,1.000,0.00,0.00,46.27,0.946,0.912,0.741,0.908,0.915,0.350,-0.550,0.552,0.850
2026-05-11 15:14:58.762957,INSPECTING,37.206,1.000,0.00,0.00,56.01,0.847,0.965,0.743,0.965,0.970,0.350,0.550,0.552,0.850
2026-05-11 15:14:58.999454,INSPECTING,37.241,1.000,0.00,0.00,65.75,0.760,0.908,0.776,0.908,0.908,0.350,0.550,-0.552,-0.850
2026-05-11 15:14:59.374386,INSPECTING,37.267,1.000,0.00,0.00,65.75,0.695,0.792,0.860,0.789,0.789,0.350,0.550,-0.552,-0.850
2026-05-11 15:14:59.527419,INSPECTING,37.282,1.000,0.00,0.00,60.88,0.641,0.770,0.700,0.770,0.770,0.350,0.550,-0.552,-0.850
2026-05-11 15:14:59.941993,INSPECTING,37.332,1.000,0.00,0.00,48.71,0.618,0.671,0.537,0.671,0.673,0.350,0.550,-0.552,-0.850
2026-05-11 15:15:00.130703,INSPECTING,37.356,1.000,0.00,0.00,43.84,0.634,0.571,0.476,0.571,0.571,0.350,-0.550,0.552,0.850
2026-05-11 15:15:00.379678,TURNING,37.425,1.000,0.00,0.00,31.66,0.536,0.464,0.409,0.465,0.465,0.000,0.000,0.000,-0.800
2026-05-11 15:15:00.582029,TURNING,37.520,1.000,0.00,0.00,20.95,0.409,0.356,0.315,0.355,0.356,0.000,0.000,0.000,-0.800
2026-05-11 15:15:00.743516,TURNING,37.564,1.000,0.00,0.00,13.10,0.373,0.336,0.305,0.335,0.336,0.000,0.000,0.000,-0.800
2026-05-11 15:15:00.957764,TURNING,37.564,1.000,0.00,0.00,3.93,0.332,0.322,0.314,0.322,0.322,0.000,0.000,0.000,-0.800
2026-05-11 15:15:01.211703,TURNING,37.564,1.000,0.00,0.00,-5.24,0.310,0.318,0.326,0.318,0.318,0.000,0.000,0.000,-0.800
2026-05-11 15:15:01.403426,TURNING,37.564,1.000,0.00,0.00,-14.41,0.291,0.316,0.344,0.315,0.316,0.000,0.000,0.000,-0.800
2026-05-11 15:15:01.587595,TURNING,37.564,1.000,0.00,0.00,-23.57,0.287,0.320,0.363,0.320,0.320,0.000,0.000,0.000,-0.800
2026-05-11 15:15:01.774204,TURNING,37.564,1.000,0.00,0.00,-32.74,0.287,0.333,0.397,0.334,0.333,0.000,0.000,0.000,-0.800
2026-05-11 15:15:01.983380,TURNING,37.564,1.000,0.00,0.00,-41.91,0.302,0.379,0.510,0.378,0.379,0.000,0.000,0.000,-0.800
2026-05-11 15:15:02.200898,TURNING,37.564,1.000,0.00,0.00,-51.07,0.323,0.428,0.634,0.426,0.428,0.000,0.000,0.000,-0.800
2026-05-11 15:15:02.411125,TURNING,37.564,1.000,0.00,0.00,-60.24,0.362,0.519,0.919,0.520,0.521,0.000,0.000,0.000,-0.800
2026-05-11 15:15:02.602644,TURNING,37.564,1.000,0.00,0.00,-69.41,0.409,0.627,1.244,0.627,0.627,0.000,0.000,0.000,-0.800
2026-05-11 15:15:02.829403,TURNING,37.564,1.000,0.00,0.00,-78.58,0.521,0.923,1.308,0.949,0.942,0.000,0.000,0.000,-0.800
2026-05-11 15:15:03.036269,TURNING,37.564,1.000,0.00,0.00,-87.74,0.637,1.354,1.362,1.354,1.354,0.000,0.000,0.000,-0.800
2026-05-11 15:15:03.276443,TURNING,37.564,1.000,0.00,0.00,-96.91,0.986,1.354,1.457,1.362,1.354,0.000,0.000,0.000,-0.770
2026-05-11 15:15:03.476192,TURNING,37.564,1.000,0.00,0.00,-105.87,0.986,1.354,1.457,1.362,1.354,0.000,0.000,0.000,-0.614
2026-05-11 15:15:03.713967,TURNING,37.564,1.000,0.00,0.00,-113.10,1.264,1.421,1.747,1.421,1.421,0.000,0.000,0.000,-0.487
2026-05-11 15:15:03.902997,TURNING,37.564,1.000,0.00,0.00,-118.90,1.264,1.421,1.747,1.421,1.421,0.000,0.000,0.000,-0.386
2026-05-11 15:15:04.136886,TURNING,37.564,1.000,0.00,0.00,-123.40,1.264,1.634,2.288,1.623,1.634,0.000,0.000,0.000,-0.308
2026-05-11 15:15:04.350090,TURNING,37.564,1.000,0.00,0.00,-127.07,1.264,1.634,2.288,1.623,1.634,0.000,0.000,0.000,-0.300
2026-05-11 15:15:04.551793,TURNING,37.564,1.000,0.00,0.00,-130.51,1.338,1.816,2.934,1.816,1.816,0.000,0.000,0.000,-0.300
2026-05-11 15:15:04.758907,TURNING,37.564,1.000,0.00,0.00,-133.95,1.338,1.816,2.934,1.816,1.816,0.000,0.000,0.000,-0.300
2026-05-11 15:15:04.979896,RETURNING,37.564,1.000,0.00,0.00,-137.04,1.412,2.007,3.467,2.007,2.007,0.500,0.000,0.000,-0.336
2026-05-11 15:15:05.234183,RETURNING,37.489,1.000,0.00,0.00,-140.89,1.412,2.007,3.467,2.007,2.007,0.500,0.000,0.000,-0.336
2026-05-11 15:15:05.437999,RETURNING,37.410,1.000,0.00,0.00,-144.73,1.412,2.007,3.467,2.007,2.007,0.500,0.000,0.000,-0.336
2026-05-11 15:15:05.644133,RETURNING,37.326,1.000,0.00,0.00,-148.58,1.412,2.007,3.467,2.007,2.007,0.500,0.000,0.000,-0.336
2026-05-11 15:15:06.101147,RETURNING,37.240,1.000,0.00,0.00,-152.43,1.634,2.896,4.576,2.896,2.460,0.500,0.031,0.000,-0.315
2026-05-11 15:15:06.258022,RETURNING,37.172,1.000,0.00,0.00,-155.31,1.634,2.896,4.576,2.896,2.460,0.500,0.031,0.000,-0.315
2026-05-11 15:15:06.945757,RETURNING,37.127,1.000,0.00,0.00,-157.15,1.634,2.896,4.576,2.896,2.460,0.500,0.031,0.000,-0.315
2026-05-11 15:15:07.130886,RETURNING,37.033,1.000,0.00,0.00,-160.76,1.634,2.896,4.576,2.896,2.460,0.500,0.031,0.000,-0.315
2026-05-11 15:15:07.259998,RETURNING,36.914,1.000,0.00,0.00,-165.26,1.634,2.896,4.576,2.896,2.460,0.500,0.031,0.000,-0.315
2026-05-11 15:15:07.489918,RETURNING,36.718,1.000,0.00,0.00,-172.47,1.634,2.896,4.576,2.896,2.460,0.500,0.031,0.000,-0.315
2026-05-11 15:15:07.685929,RETURNING,36.619,1.000,0.00,0.00,-176.08,1.634,2.896,4.576,2.896,2.460,0.500,0.031,0.000,-0.315
2026-05-11 15:15:07.896436,RETURNING,36.519,1.000,0.00,0.00,-179.69,1.634,2.896,4.576,2.896,2.460,0.500,0.031,0.000,-0.315
2026-05-11 15:15:08.116773,RETURNING,36.419,1.000,-0.00,0.00,176.71,1.634,2.896,4.576,2.896,2.460,0.500,0.031,0.000,-0.315
2026-05-11 15:15:08.326842,RETURNING,36.319,1.000,-0.00,0.00,173.10,1.634,2.896,4.576,2.896,2.460,0.500,0.031,0.000,-0.315
2026-05-11 15:15:08.537591,RETURNING,36.220,1.000,-0.00,0.00,169.50,1.634,2.896,4.576,2.896,2.460,0.500,0.031,0.000,-0.315
2026-05-11 15:15:08.728025,RETURNING,36.122,1.000,-0.00,0.00,165.89,1.634,2.896,4.576,2.896,2.460,0.500,0.031,0.000,-0.315
2026-05-11 15:15:08.977913,RETURNING,36.026,1.000,-0.00,0.00,162.29,1.634,2.896,4.576,2.896,2.460,0.500,0.031,0.000,-0.315
2026-05-11 15:15:09.189646,RETURNING,35.932,1.000,-0.00,0.00,158.68,1.634,2.896,4.576,2.896,2.460,0.500,0.031,0.000,-0.315
2026-05-11 15:15:09.393673,RETURNING,35.840,1.000,-0.00,0.00,155.07,1.634,2.896,4.576,2.896,2.460,0.500,0.031,0.000,-0.315
2026-05-11 15:15:09.621786,RETURNING,35.750,1.000,-0.00,0.00,151.47,0.912,0.758,0.554,0.763,0.755,0.252,0.007,0.000,0.566
2026-05-11 15:15:09.823324,RETURNING,35.689,1.000,-0.00,0.00,153.92,0.912,0.758,0.554,0.763,0.755,0.252,0.007,0.000,0.566
2026-05-11 15:15:10.040758,RETURNING,35.644,1.000,-0.00,0.00,160.49,0.800,0.636,0.467,0.641,0.637,0.212,0.004,0.000,0.600
2026-05-11 15:15:10.303449,RETURNING,35.603,1.000,-0.00,0.00,167.36,0.800,0.636,0.467,0.641,0.637,0.212,0.004,0.000,0.600
2026-05-11 15:15:10.466744,RETURNING,35.562,1.000,-0.00,0.00,174.24,0.800,0.636,0.467,0.641,0.637,0.212,0.004,0.000,0.600
2026-05-11 15:15:10.672201,RETURNING,35.519,1.000,0.00,0.00,-178.89,0.800,0.636,0.467,0.641,0.637,0.212,0.004,0.000,0.600
2026-05-11 15:15:10.893181,RETURNING,35.477,1.000,0.00,0.00,-172.01,0.800,0.636,0.467,0.641,0.637,0.212,0.004,0.000,0.600
2026-05-11 15:15:11.096684,RETURNING,35.436,1.000,0.00,0.00,-165.13,0.800,0.636,0.467,0.641,0.637,0.212,0.004,0.000,0.600
2026-05-11 15:15:11.311985,RETURNING,35.395,1.000,0.00,0.00,-158.26,0.800,0.636,0.467,0.641,0.637,0.212,0.004,0.000,0.600
2026-05-11 15:15:11.522015,RETURNING,35.357,1.000,0.00,0.00,-151.38,0.800,0.636,0.467,0.641,0.637,0.212,0.004,0.000,0.600
2026-05-11 15:15:11.766575,RETURNING,35.321,1.000,0.00,0.00,-144.51,0.800,0.636,0.467,0.641,0.637,0.212,0.004,0.000,0.600
2026-05-11 15:15:11.955603,RETURNING,35.288,1.000,0.00,0.00,-137.63,0.800,0.636,0.467,0.641,0.637,0.212,0.004,0.000,0.600
2026-05-11 15:15:12.160650,RETURNING,35.258,1.000,0.00,0.00,-130.76,0.800,0.636,0.467,0.641,0.637,0.212,0.004,0.000,0.600
2026-05-11 15:15:12.385633,RETURNING,35.232,1.000,0.00,0.00,-123.88,1.720,2.335,2.571,2.359,2.335,0.500,0.002,0.000,-0.154
2026-05-11 15:15:12.601803,RETURNING,35.188,1.000,0.00,0.00,-123.07,1.567,1.973,2.384,1.990,1.990,0.500,0.000,0.000,-0.175
2026-05-11 15:15:12.821979,RETURNING,35.132,1.000,0.00,0.00,-125.05,1.525,1.939,2.311,1.956,1.956,0.500,0.000,0.000,-0.178
2026-05-11 15:15:13.026412,RETURNING,35.073,1.000,0.00,0.00,-127.06,1.486,1.923,2.288,1.923,1.956,0.500,-0.004,0.000,-0.189
2026-05-11 15:15:13.241106,RETURNING,35.012,1.000,0.00,0.00,-129.19,1.486,1.923,2.288,1.923,1.956,0.500,-0.004,0.000,-0.189
2026-05-11 15:15:13.475707,RETURNING,34.947,1.000,0.00,0.00,-131.35,1.404,1.939,2.080,1.939,1.939,0.500,0.000,0.000,-0.185
2026-05-11 15:15:13.660448,RETURNING,34.880,1.000,0.00,0.00,-133.49,1.404,1.939,2.080,1.939,1.939,0.500,0.000,0.000,-0.185
2026-05-11 15:15:13.873316,RETURNING,34.810,1.000,0.00,0.00,-135.62,1.404,1.939,2.080,1.939,1.939,0.500,0.000,0.000,-0.185
2026-05-11 15:15:14.068504,RETURNING,34.737,1.000,0.00,0.00,-137.74,1.404,1.939,2.080,1.939,1.939,0.500,0.000,0.000,-0.185
2026-05-11 15:15:14.269143,RETURNING,34.662,1.000,0.00,0.00,-139.86,1.404,1.939,2.080,1.939,1.939,0.500,0.000,0.000,-0.185
2026-05-11 15:15:14.485761,RETURNING,34.585,1.000,0.00,0.00,-141.99,1.404,1.939,2.080,1.939,1.939,0.500,0.000,0.000,-0.185
2026-05-11 15:15:14.709932,RETURNING,34.505,1.000,0.00,0.00,-144.11,1.404,1.939,2.080,1.939,1.939,0.500,0.000,0.000,-0.185
2026-05-11 15:15:14.918612,RETURNING,34.423,1.000,0.00,0.00,-146.23,1.404,1.939,2.080,1.939,1.939,0.500,0.000,0.000,-0.185
2026-05-11 15:15:15.144706,RETURNING,34.339,1.000,0.00,0.00,-148.36,1.404,1.939,2.080,1.939,1.939,0.500,0.000,0.000,-0.185
2026-05-11 15:15:15.344853,RETURNING,34.253,1.000,0.00,0.00,-150.48,1.404,1.939,2.080,1.939,1.939,0.500,0.000,0.000,-0.185
2026-05-11 15:15:15.550355,RETURNING,34.165,1.000,0.00,0.00,-152.60,1.404,1.939,2.080,1.939,1.939,0.500,0.000,0.000,-0.185
2026-05-11 15:15:15.770983,RETURNING,34.075,1.000,0.00,0.00,-154.73,1.404,1.939,2.080,1.939,1.939,0.500,0.000,0.000,-0.185
2026-05-11 15:15:15.983679,RETURNING,33.984,1.000,0.00,0.00,-156.85,1.404,1.939,2.080,1.939,1.939,0.500,0.000,0.000,-0.185
2026-05-11 15:15:16.218838,RETURNING,33.892,1.000,0.00,0.00,-158.97,1.404,1.939,2.080,1.939,1.939,0.500,0.000,0.000,-0.185
2026-05-11 15:15:16.415284,RETURNING,33.801,1.000,0.00,0.00,-161.57,0.768,0.995,1.891,0.949,0.938,0.313,0.007,0.000,-0.600
2026-05-11 15:15:16.601869,RETURNING,33.741,1.000,0.00,0.00,-168.45,0.768,0.995,1.891,0.949,0.938,0.313,0.007,0.000,-0.600
2026-05-11 15:15:16.838979,RETURNING,33.679,1.000,0.00,0.00,-175.32,0.768,0.995,1.891,0.949,0.938,0.313,0.007,0.000,-0.600
2026-05-11 15:15:17.046375,RETURNING,33.617,1.000,-0.00,0.00,177.80,0.768,0.995,1.891,0.949,0.938,0.313,0.007,0.000,-0.600
2026-05-11 15:15:17.267161,RETURNING,33.555,1.000,-0.00,0.00,170.92,0.768,0.995,1.891,0.949,0.938,0.313,0.007,0.000,-0.600
2026-05-11 15:15:17.484233,RETURNING,33.493,1.000,-0.00,0.00,164.05,0.768,0.995,1.891,0.949,0.938,0.313,0.007,0.000,-0.600
2026-05-11 15:15:17.719713,RETURNING,33.434,1.000,-0.00,0.00,157.17,0.768,0.995,1.891,0.949,0.938,0.313,0.007,0.000,-0.600
2026-05-11 15:15:17.947464,RETURNING,33.378,1.000,-0.00,0.00,150.30,0.768,0.995,1.891,0.949,0.938,0.313,0.007,0.000,-0.600
2026-05-11 15:15:18.153971,RETURNING,33.326,1.000,-0.00,0.00,143.42,0.768,0.995,1.891,0.949,0.938,0.313,0.007,0.000,-0.600
2026-05-11 15:15:18.328302,RETURNING,33.278,1.000,-0.00,0.00,136.55,0.768,0.995,1.891,0.949,0.938,0.313,0.007,0.000,-0.600
2026-05-11 15:15:18.556312,RETURNING,33.230,1.000,-0.00,0.00,131.82,2.138,1.682,1.144,1.682,1.695,0.500,-0.002,0.000,0.325
2026-05-11 15:15:18.748578,RETURNING,33.161,1.000,-0.00,0.00,135.62,2.025,1.634,1.100,1.623,1.634,0.500,-0.002,0.000,0.332
2026-05-11 15:15:18.965444,RETURNING,33.087,1.000,-0.00,0.00,139.48,1.990,1.546,1.230,1.546,1.546,0.500,0.000,0.000,0.248
2026-05-11 15:15:19.142438,RETURNING,33.009,1.000,-0.00,0.00,142.83,2.061,1.515,1.198,1.515,1.525,0.500,-0.002,0.000,0.280
2026-05-11 15:15:19.383059,RETURNING,32.928,1.000,-0.00,0.00,145.93,2.061,1.515,1.186,1.505,1.505,0.500,0.000,0.000,0.287
2026-05-11 15:15:19.575802,RETURNING,32.844,1.000,-0.00,0.00,149.29,2.119,1.486,1.150,1.467,1.486,0.489,-0.004,0.000,0.318
2026-05-11 15:15:19.803774,RETURNING,32.759,1.000,-0.00,0.00,153.01,2.384,1.457,1.111,1.457,1.457,0.486,0.000,0.000,0.385
2026-05-11 15:15:19.977643,RETURNING,32.671,1.000,-0.00,0.00,157.44,2.460,1.476,1.095,1.486,1.476,0.492,0.002,0.000,0.406
2026-05-11 15:15:20.204531,RETURNING,32.578,1.000,-0.00,0.00,162.14,2.571,1.536,1.084,1.515,1.505,0.500,0.002,0.000,0.427
2026-05-11 15:15:20.382502,RETURNING,32.482,1.000,-0.00,0.00,167.02,2.571,1.536,1.084,1.515,1.505,0.500,0.002,0.000,0.427
2026-05-11 15:15:20.626887,RETURNING,32.384,1.000,-0.00,0.00,171.90,2.692,1.973,1.116,2.007,1.973,0.500,0.004,0.000,0.420
2026-05-11 15:15:20.809624,RETURNING,32.284,1.000,-0.00,0.00,176.70,2.692,1.973,1.116,2.007,1.973,0.500,0.004,0.000,0.420
2026-05-11 15:15:21.059016,RETURNING,32.184,1.000,0.00,0.00,-178.49,2.692,1.973,1.116,2.007,1.973,0.500,0.004,0.000,0.420
2026-05-11 15:15:21.257919,RETURNING,32.085,1.000,0.00,0.00,-173.68,2.692,1.973,1.116,2.007,1.973,0.500,0.004,0.000,0.420
2026-05-11 15:15:21.497988,RETURNING,31.986,1.000,0.00,0.00,-168.87,3.814,2.630,1.760,2.571,2.460,0.500,0.009,0.000,0.245
2026-05-11 15:15:21.724737,RETURNING,31.888,1.000,0.00,0.00,-165.47,3.814,2.630,1.760,2.571,2.460,0.500,0.009,0.000,0.245
2026-05-11 15:15:21.915880,RETURNING,31.792,1.000,0.00,0.00,-162.66,3.814,2.630,1.760,2.571,2.460,0.500,0.009,0.000,0.245
2026-05-11 15:15:22.133396,RETURNING,31.697,1.000,0.00,0.00,-159.86,3.814,2.630,1.760,2.571,2.460,0.500,0.009,0.000,0.245
2026-05-11 15:15:22.362457,RETURNING,31.604,1.000,0.00,0.00,-157.05,3.814,2.630,1.760,2.571,2.460,0.500,0.009,0.000,0.245
2026-05-11 15:15:22.536296,RETURNING,31.513,1.000,0.00,0.00,-154.25,3.814,2.630,1.760,2.571,2.460,0.500,0.009,0.000,0.245
2026-05-11 15:15:22.765584,RETURNING,31.424,1.000,0.00,0.00,-151.45,3.814,2.630,1.760,2.571,2.460,0.500,0.009,0.000,0.245
2026-05-11 15:15:22.979587,RETURNING,31.337,1.000,0.00,0.00,-148.64,3.814,2.630,1.760,2.571,2.460,0.500,0.009,0.000,0.245
2026-05-11 15:15:23.221247,RETURNING,31.253,1.000,0.00,0.00,-145.84,1.557,2.896,3.520,2.896,2.460,0.500,0.031,0.000,-0.287
2026-05-11 15:15:23.405280,RETURNING,31.171,1.000,0.00,0.00,-146.69,1.557,2.896,3.520,2.896,2.460,0.500,0.031,0.000,-0.287
2026-05-11 15:15:23.628484,RETURNING,31.086,1.000,0.00,0.00,-149.97,1.557,2.896,3.520,2.896,2.460,0.500,0.031,0.000,-0.287
2026-05-11 15:15:23.849085,RETURNING,30.998,1.000,0.00,0.00,-153.26,1.600,3.011,3.316,3.011,2.434,0.500,0.039,0.000,-0.259
2026-05-11 15:15:24.074937,RETURNING,30.907,1.000,0.00,0.00,-156.32,1.695,3.415,3.051,3.467,2.460,0.500,0.059,0.000,-0.210
2026-05-11 15:15:24.266793,RETURNING,30.815,1.000,0.00,0.00,-158.89,1.695,3.415,3.051,3.467,2.460,0.500,0.059,0.000,-0.210
2026-05-11 15:15:24.489657,RETURNING,30.721,1.000,0.00,0.00,-161.29,1.695,3.415,3.051,3.467,2.460,0.500,0.059,0.000,-0.210
2026-05-11 15:15:24.720133,RETURNING,30.626,1.000,0.00,0.00,-163.70,1.695,3.415,3.051,3.467,2.460,0.500,0.059,0.000,-0.210
2026-05-11 15:15:24.905482,RETURNING,30.529,1.000,0.00,0.00,-166.10,1.695,3.415,3.051,3.467,2.460,0.500,0.059,0.000,-0.210
2026-05-11 15:15:25.140942,RETURNING,30.432,1.000,0.00,0.00,-168.50,1.695,3.415,3.051,3.467,2.460,0.500,0.059,0.000,-0.210
2026-05-11 15:15:25.374157,RETURNING,30.334,1.000,0.00,0.00,-169.62,2.724,3.751,1.747,3.632,2.434,0.500,0.068,0.000,0.164
2026-05-11 15:15:25.557409,RETURNING,30.235,1.000,0.00,0.00,-167.74,2.724,3.751,1.747,3.632,2.434,0.500,0.068,0.000,0.164
2026-05-11 15:15:25.775084,RETURNING,30.138,1.000,0.00,0.00,-165.86,2.724,3.751,1.747,3.632,2.434,0.500,0.068,0.000,0.164
2026-05-11 15:15:26.010784,RETURNING,30.041,1.000,0.00,0.00,-163.97,2.460,5.448,1.876,5.581,2.460,0.500,0.114,0.000,0.101
2026-05-11 15:15:26.201556,RETURNING,29.946,1.000,0.00,0.00,-162.52,2.460,5.448,1.876,5.581,2.460,0.500,0.114,0.000,0.101
2026-05-11 15:15:26.392602,RETURNING,29.851,1.000,0.00,0.00,-161.36,2.460,5.448,1.876,5.581,2.460,0.500,0.114,0.000,0.101
2026-05-11 15:15:26.601065,RETURNING,29.756,1.000,0.00,0.00,-160.20,2.460,5.448,1.876,5.581,2.460,0.500,0.114,0.000,0.101
2026-05-11 15:15:26.817978,RETURNING,29.662,1.000,0.00,0.00,-159.04,2.460,5.448,1.876,5.581,2.460,0.500,0.114,0.000,0.101
2026-05-11 15:15:27.053483,RETURNING,29.569,1.000,0.00,0.00,-158.02,1.956,4.086,2.080,4.086,2.409,0.500,0.085,0.000,-0.024
2026-05-11 15:15:27.246843,RETURNING,29.477,1.000,0.00,0.00,-158.30,1.956,4.086,2.080,4.086,2.409,0.500,0.085,0.000,-0.024
2026-05-11 15:15:27.470010,RETURNING,29.384,1.000,0.00,0.00,-158.58,1.956,4.086,2.080,4.086,2.409,0.500,0.085,0.000,-0.024
2026-05-11 15:15:27.665479,RETURNING,29.290,1.000,0.00,0.00,-158.86,1.956,4.086,2.080,4.086,2.409,0.500,0.085,0.000,-0.024
2026-05-11 15:15:27.877915,RETURNING,29.197,1.000,0.00,0.00,-159.14,1.956,4.086,2.080,4.086,2.409,0.500,0.085,0.000,-0.024
2026-05-11 15:15:28.089321,RETURNING,29.103,1.000,0.00,0.00,-159.42,1.956,4.086,2.080,4.086,2.409,0.500,0.085,0.000,-0.024
2026-05-11 15:15:28.291171,RETURNING,29.010,1.000,0.00,0.00,-159.70,1.956,4.086,2.080,4.086,2.409,0.500,0.085,0.000,-0.024
2026-05-11 15:15:28.485665,RETURNING,28.916,1.000,0.00,0.00,-159.98,1.956,4.086,2.080,4.086,2.409,0.500,0.085,0.000,-0.024
2026-05-11 15:15:28.726944,RETURNING,28.822,1.000,0.00,0.00,-160.26,1.956,4.086,2.080,4.086,2.409,0.500,0.085,0.000,-0.024
2026-05-11 15:15:28.942764,RETURNING,28.728,1.000,0.00,0.00,-160.54,1.956,4.086,2.080,4.086,2.409,0.500,0.085,0.000,-0.024
2026-05-11 15:15:29.154891,RETURNING,28.633,1.000,0.00,0.00,-160.82,1.956,4.086,2.080,4.086,2.409,0.500,0.085,0.000,-0.024
2026-05-11 15:15:29.362977,RETURNING,28.539,1.000,0.00,0.00,-161.10,1.956,4.086,2.080,4.086,2.409,0.500,0.085,0.000,-0.024
2026-05-11 15:15:29.572984,RETURNING,28.444,1.000,0.00,0.00,-161.39,1.956,4.086,2.080,4.086,2.409,0.500,0.085,0.000,-0.024
2026-05-11 15:15:29.840611,RETURNING,28.349,1.000,0.00,0.00,-161.67,2.080,3.520,2.600,3.575,2.409,0.500,0.068,0.000,-0.077
2026-05-11 15:15:30.005901,RETURNING,28.254,1.000,0.00,0.00,-162.37,2.080,3.520,2.600,3.575,2.409,0.500,0.068,0.000,-0.077
2026-05-11 15:15:30.205278,RETURNING,28.159,1.000,0.00,0.00,-163.24,2.080,3.575,2.571,3.575,2.409,0.500,0.068,0.000,-0.073
2026-05-11 15:15:30.426533,RETURNING,28.063,1.000,0.00,0.00,-164.08,2.080,3.575,2.571,3.575,2.409,0.500,0.068,0.000,-0.073
2026-05-11 15:15:30.627679,RETURNING,27.966,1.000,0.00,0.00,-164.92,2.099,3.632,2.487,3.691,2.434,0.500,0.070,0.000,-0.059
2026-05-11 15:15:30.861239,RETURNING,27.870,1.000,0.00,0.00,-165.65,2.099,3.632,2.487,3.691,2.434,0.500,0.070,0.000,-0.059
2026-05-11 15:15:31.084393,RETURNING,27.773,1.000,0.00,0.00,-166.31,2.119,3.751,2.460,3.751,2.384,0.500,0.076,0.000,-0.052
2026-05-11 15:15:31.272387,RETURNING,27.675,1.000,0.00,0.00,-166.91,2.119,3.751,2.460,3.751,2.384,0.500,0.076,0.000,-0.052
2026-05-11 15:15:31.462492,RETURNING,27.578,1.000,0.00,0.00,-167.51,2.119,3.751,2.460,3.751,2.384,0.500,0.076,0.000,-0.052
2026-05-11 15:15:31.694643,RETURNING,27.480,1.000,0.00,0.00,-168.12,2.119,3.751,2.460,3.751,2.384,0.500,0.076,0.000,-0.052
2026-05-11 15:15:31.880229,RETURNING,27.382,1.000,0.00,0.00,-168.72,2.119,3.751,2.460,3.751,2.384,0.500,0.076,0.000,-0.052
2026-05-11 15:15:32.136198,RETURNING,27.284,1.000,0.00,0.00,-169.32,2.061,4.086,2.222,4.086,2.434,0.500,0.083,0.000,-0.028
2026-05-11 15:15:32.333491,RETURNING,27.186,1.000,0.00,0.00,-169.72,2.061,4.086,2.222,4.086,2.434,0.500,0.083,0.000,-0.028
2026-05-11 15:15:32.550864,RETURNING,27.087,1.000,0.00,0.00,-170.04,2.061,4.086,2.222,4.086,2.434,0.500,0.083,0.000,-0.028
2026-05-11 15:15:32.725563,RETURNING,26.989,1.000,0.00,0.00,-170.36,2.061,4.086,2.222,4.086,2.434,0.500,0.083,0.000,-0.028
2026-05-11 15:15:32.964377,RETURNING,26.890,1.000,0.00,0.00,-170.68,2.061,4.086,2.222,4.086,2.434,0.500,0.083,0.000,-0.028
2026-05-11 15:15:33.157084,RETURNING,26.791,1.000,0.00,0.00,-171.00,2.061,4.086,2.222,4.086,2.434,0.500,0.083,0.000,-0.028
2026-05-11 15:15:33.375926,RETURNING,26.693,1.000,0.00,0.00,-171.32,2.061,4.086,2.222,4.086,2.434,0.500,0.083,0.000,-0.028
2026-05-11 15:15:33.579796,RETURNING,26.594,1.000,0.00,0.00,-171.65,2.043,3.751,2.179,3.691,2.335,0.500,0.079,0.000,-0.024
2026-05-11 15:15:33.809510,RETURNING,26.495,1.000,0.00,0.00,-171.94,2.080,3.751,2.222,3.751,2.335,0.500,0.081,0.000,-0.024
2026-05-11 15:15:34.008808,RETURNING,26.396,1.000,0.00,0.00,-172.22,2.080,3.751,2.222,3.751,2.335,0.500,0.081,0.000,-0.024
2026-05-11 15:15:34.204471,RETURNING,26.297,1.000,0.00,0.00,-172.50,2.080,3.751,2.222,3.751,2.335,0.500,0.081,0.000,-0.024
2026-05-11 15:15:34.452973,RETURNING,26.197,1.000,0.00,0.00,-172.78,2.080,3.751,2.222,3.751,2.335,0.500,0.081,0.000,-0.024
2026-05-11 15:15:34.668726,RETURNING,26.098,1.000,0.00,0.00,-173.06,2.080,3.751,2.222,3.751,2.335,0.500,0.081,0.000,-0.024
2026-05-11 15:15:34.879792,RETURNING,25.999,1.000,0.00,0.00,-173.34,2.080,3.751,2.222,3.751,2.335,0.500,0.081,0.000,-0.024
2026-05-11 15:15:35.077601,RETURNING,25.900,1.000,0.00,0.00,-173.62,2.080,3.751,2.222,3.751,2.335,0.500,0.081,0.000,-0.024
2026-05-11 15:15:35.295619,RETURNING,25.800,1.000,0.00,0.00,-173.90,2.080,3.751,2.222,3.751,2.335,0.500,0.081,0.000,-0.024
2026-05-11 15:15:35.511434,RETURNING,25.701,1.000,0.00,0.00,-174.18,2.080,3.751,2.222,3.751,2.335,0.500,0.081,0.000,-0.024
2026-05-11 15:15:35.747660,RETURNING,25.601,1.000,0.00,0.00,-174.46,2.099,3.134,2.311,3.134,2.311,0.500,0.057,0.000,-0.035
2026-05-11 15:15:35.956200,RETURNING,25.502,1.000,0.00,0.00,-174.81,2.099,3.134,2.311,3.134,2.311,0.500,0.057,0.000,-0.035
2026-05-11 15:15:36.161877,RETURNING,25.402,1.000,0.00,0.00,-175.22,2.099,3.134,2.311,3.134,2.311,0.500,0.057,0.000,-0.035
2026-05-11 15:15:36.362464,RETURNING,25.302,1.000,0.00,0.00,-175.62,2.080,3.134,2.288,3.178,2.266,0.500,0.063,0.000,-0.035
2026-05-11 15:15:36.586150,RETURNING,25.203,1.000,0.00,0.00,-176.02,2.080,3.134,2.288,3.178,2.266,0.500,0.063,0.000,-0.035
2026-05-11 15:15:37.062511,RETURNING,25.103,1.000,0.00,0.00,-176.42,2.080,3.134,2.288,3.178,2.266,0.500,0.063,0.000,-0.035
2026-05-11 15:15:37.152186,RETURNING,25.003,1.000,0.00,0.00,-176.82,2.080,3.134,2.288,3.178,2.266,0.500,0.063,0.000,-0.035
2026-05-11 15:15:37.958049,RETURNING,24.903,1.000,0.00,0.00,-177.22,1.939,2.757,2.243,2.757,2.222,0.500,0.044,0.000,-0.056
2026-05-11 15:15:38.194506,RETURNING,24.803,1.000,0.00,0.00,-177.79,1.939,2.757,2.243,2.757,2.222,0.500,0.044,0.000,-0.056
2026-05-11 15:15:38.398435,RETURNING,24.703,1.000,0.00,0.00,-178.43,1.939,2.757,2.243,2.757,2.222,0.500,0.044,0.000,-0.056
2026-05-11 15:15:38.570688,RETURNING,24.603,1.000,0.00,0.00,-179.07,1.939,2.757,2.243,2.757,2.222,0.500,0.044,0.000,-0.056
2026-05-11 15:15:38.787461,RETURNING,24.503,1.000,0.00,0.00,-179.71,1.939,2.757,2.243,2.757,2.222,0.500,0.044,0.000,-0.056
2026-05-11 15:15:38.986554,RETURNING,24.403,1.000,-0.00,0.00,179.65,1.939,2.757,2.243,2.757,2.222,0.500,0.044,0.000,-0.056
2026-05-11 15:15:39.215490,RETURNING,24.303,1.000,-0.00,0.00,179.01,1.939,2.757,2.243,2.757,2.222,0.500,0.044,0.000,-0.056
2026-05-11 15:15:39.427286,RETURNING,24.203,1.000,-0.00,0.00,178.37,1.939,2.757,2.243,2.757,2.222,0.500,0.044,0.000,-0.056
2026-05-11 15:15:39.634448,RETURNING,24.103,1.000,-0.00,0.00,177.87,2.007,2.061,1.973,2.043,2.061,0.500,-0.002,0.000,0.007
2026-05-11 15:15:39.832000,RETURNING,24.003,1.000,-0.00,0.00,177.95,2.007,2.061,1.973,2.043,2.061,0.500,-0.002,0.000,0.007
2026-05-11 15:15:40.039812,RETURNING,23.904,1.000,-0.00,0.00,178.03,2.007,2.061,1.973,2.043,2.061,0.500,-0.002,0.000,0.007
2026-05-11 15:15:40.256849,RETURNING,23.804,1.000,-0.00,0.00,178.11,2.007,2.061,1.973,2.043,2.061,0.500,-0.002,0.000,0.007
2026-05-11 15:15:40.482780,RETURNING,23.704,1.000,-0.00,0.00,178.03,1.611,1.695,1.845,1.670,1.747,0.500,-0.013,0.000,-0.063
2026-05-11 15:15:40.690189,RETURNING,23.604,1.000,-0.00,0.00,177.31,1.611,1.695,1.845,1.670,1.747,0.500,-0.013,0.000,-0.063
2026-05-11 15:15:40.943382,RETURNING,23.504,1.000,-0.00,0.00,176.59,1.611,1.695,1.845,1.670,1.747,0.500,-0.013,0.000,-0.063
2026-05-11 15:15:41.123341,RETURNING,23.404,1.000,-0.00,0.00,175.87,1.611,1.695,1.845,1.670,1.747,0.500,-0.013,0.000,-0.063
2026-05-11 15:15:41.320397,RETURNING,23.304,1.000,-0.00,0.00,175.15,1.611,1.695,1.845,1.670,1.747,0.500,-0.013,0.000,-0.063
2026-05-11 15:15:41.552009,RETURNING,23.205,1.000,-0.00,0.00,174.42,1.611,1.695,1.845,1.670,1.747,0.500,-0.013,0.000,-0.063
2026-05-11 15:15:41.748633,RETURNING,23.105,1.000,-0.00,0.00,173.70,1.611,1.695,1.845,1.670,1.747,0.500,-0.013,0.000,-0.063
2026-05-11 15:15:41.977823,RETURNING,23.006,1.000,-0.00,0.00,172.98,1.611,1.695,1.845,1.670,1.747,0.500,-0.013,0.000,-0.063
2026-05-11 15:15:42.188454,RETURNING,22.907,1.000,-0.00,0.00,172.26,1.611,1.695,1.845,1.670,1.747,0.500,-0.013,0.000,-0.063
2026-05-11 15:15:42.418855,RETURNING,22.808,1.000,-0.00,0.00,171.54,1.611,1.695,1.845,1.670,1.747,0.500,-0.013,0.000,-0.063
2026-05-11 15:15:42.622808,RETURNING,22.709,1.000,-0.00,0.00,170.82,1.611,1.695,1.845,1.670,1.747,0.500,-0.013,0.000,-0.063
2026-05-11 15:15:42.854853,RETURNING,22.610,1.000,-0.00,0.00,170.10,1.611,1.695,1.845,1.670,1.747,0.500,-0.013,0.000,-0.063
2026-05-11 15:15:43.060185,RETURNING,22.512,1.000,-0.00,0.00,169.38,1.611,1.695,1.845,1.670,1.747,0.500,-0.013,0.000,-0.063
2026-05-11 15:15:43.282558,RETURNING,22.414,1.000,-0.00,0.00,168.66,1.611,1.695,1.845,1.670,1.747,0.500,-0.013,0.000,-0.063
2026-05-11 15:15:43.489932,RETURNING,22.316,1.000,-0.00,0.00,167.93,1.611,1.695,1.845,1.670,1.747,0.500,-0.013,0.000,-0.063
2026-05-11 15:15:43.699148,RETURNING,22.218,1.000,-0.00,0.00,167.21,1.611,1.695,1.845,1.670,1.747,0.500,-0.013,0.000,-0.063
