timestamp,state,x,y,z,roll_deg,pitch_deg,yaw_deg,dist_left,dist_center,dist_right,dist_top,dist_bottom,dtof_alert,collision_event,best_dir,max_space,cmd_vx,cmd_vz,cmd_yaw
19:56:18.482,SEARCHING,0.000,0.000,1.000,0.00,0.00,0.00,1.816,3.365,6.538,3.415,2.460,0,0,SEARCHING,1.816,0.800,0.250,-0.398
19:56:18.656,SEARCHING,0.056,-0.001,1.000,0.00,0.00,-1.60,1.845,3.467,6.184,3.467,2.460,0,0,SEARCHING,1.845,0.800,0.260,-0.380
19:56:18.857,SEARCHING,0.216,-0.011,1.000,0.00,0.00,-6.03,1.973,3.751,5.581,3.691,2.434,0,0,SEARCHING,1.973,0.800,0.308,-0.328
19:56:19.063,SEARCHING,0.374,-0.032,1.000,0.00,0.00,-9.92,2.159,4.317,4.400,4.317,2.460,0,0,SEARCHING,2.159,0.800,0.385,-0.236
19:56:19.264,SEARCHING,0.531,-0.064,1.000,0.00,0.00,-12.89,2.542,4.670,3.945,4.670,2.434,0,0,SEARCHING,2.434,0.800,0.433,-0.140
19:56:19.463,SEARCHING,0.686,-0.102,1.000,0.00,0.00,-14.71,2.661,4.974,3.751,5.085,2.487,0,0,SEARCHING,2.487,0.800,0.452,-0.109
19:56:19.655,SEARCHING,0.841,-0.144,1.000,0.00,0.00,-16.06,2.692,5.321,3.575,5.321,2.460,0,0,SEARCHING,2.460,0.800,0.481,-0.092
19:56:19.855,SEARCHING,0.994,-0.190,1.000,0.00,0.00,-17.16,2.600,6.356,3.415,5.720,2.434,0,0,SEARCHING,2.434,0.800,0.519,-0.092
19:56:20.058,SEARCHING,1.146,-0.238,1.000,0.00,0.00,-18.21,2.661,6.730,3.365,5.867,2.460,0,0,SEARCHING,2.460,0.800,0.519,-0.079
19:56:20.263,SEARCHING,1.298,-0.290,1.000,0.00,0.00,-19.15,2.757,6.538,3.223,6.022,2.434,0,0,SEARCHING,2.434,0.800,0.538,-0.052
19:56:20.461,SEARCHING,1.449,-0.343,1.000,0.00,0.00,-19.76,2.825,6.184,3.092,6.022,2.460,0,0,SEARCHING,2.460,0.800,0.529,0.000
19:56:20.662,SEARCHING,1.600,-0.397,1.000,0.00,0.00,-19.76,2.790,6.184,3.092,6.022,2.487,0,0,SEARCHING,2.487,0.800,0.519,0.000
19:56:20.858,SEARCHING,1.750,-0.451,1.000,0.00,0.00,-19.76,2.825,6.022,3.051,5.867,2.434,0,0,SEARCHING,2.434,0.800,0.529,0.000
19:56:21.062,SEARCHING,1.901,-0.505,1.000,0.00,0.00,-19.76,2.790,6.022,3.011,5.867,2.434,0,0,SEARCHING,2.434,0.800,0.529,0.000
19:56:21.263,SEARCHING,2.051,-0.559,1.000,0.00,0.00,-19.76,2.724,5.720,3.011,5.720,2.434,0,0,SEARCHING,2.434,0.800,0.519,0.000
19:56:21.467,SEARCHING,2.202,-0.613,1.000,0.00,0.00,-19.76,2.692,5.581,2.972,5.581,2.409,0,0,SEARCHING,2.409,0.800,0.519,0.000
19:56:21.670,SEARCHING,2.352,-0.667,1.000,0.00,0.00,-19.76,2.600,5.581,2.972,5.581,2.460,0,0,SEARCHING,2.460,0.800,0.500,0.000
19:56:21.868,SEARCHING,2.503,-0.722,1.000,0.00,0.00,-19.76,2.571,5.321,3.011,5.321,2.434,0,0,SEARCHING,2.434,0.800,0.490,-0.057
19:56:22.063,SEARCHING,2.653,-0.776,1.000,0.00,0.00,-20.36,2.661,5.200,2.934,5.200,2.487,0,0,SEARCHING,2.487,0.800,0.462,0.000
19:56:22.263,SEARCHING,2.803,-0.832,1.000,0.00,0.00,-20.63,2.692,5.085,2.972,4.487,2.460,0,0,SEARCHING,2.460,0.800,0.404,0.000
19:56:22.470,SEARCHING,2.953,-0.889,1.000,0.00,0.00,-20.63,2.661,4.974,2.934,4.317,2.460,0,0,SEARCHING,2.460,0.800,0.385,0.000
19:56:22.663,SEARCHING,3.103,-0.945,1.000,0.00,0.00,-20.63,2.600,4.868,2.896,4.160,2.460,0,0,SEARCHING,2.460,0.800,0.365,0.000
19:56:22.865,SEARCHING,3.252,-1.002,1.000,0.00,0.00,-20.63,2.630,4.767,2.934,4.086,2.434,0,0,SEARCHING,2.434,0.800,0.365,0.000
19:56:23.075,SEARCHING,3.402,-1.058,1.000,0.00,0.00,-20.63,2.600,4.670,2.896,4.086,2.460,0,0,SEARCHING,2.460,0.800,0.356,0.000
19:56:23.273,SEARCHING,3.552,-1.114,1.000,0.00,0.00,-20.63,2.630,4.487,2.896,4.086,2.409,0,0,SEARCHING,2.409,0.800,0.375,0.000
19:56:24.567,SEARCHING,3.702,-1.171,1.000,0.00,0.00,-20.63,2.630,4.400,2.825,4.086,2.460,0,0,SEARCHING,2.460,0.800,0.356,0.000
19:56:24.757,SEARCHING,3.851,-1.227,1.000,0.00,0.00,-20.63,2.600,4.160,2.661,4.086,2.434,0,0,SEARCHING,2.434,0.800,0.365,0.000
19:56:24.963,SEARCHING,4.001,-1.283,1.000,0.00,0.00,-20.63,2.542,3.814,2.487,4.086,2.434,0,0,SEARCHING,2.434,0.800,0.365,0.000
19:56:25.161,SEARCHING,4.151,-1.340,1.000,0.00,0.00,-20.63,3.316,3.691,2.384,4.086,2.460,0,0,SEARCHING,2.384,0.800,0.356,0.118
19:56:25.375,SEARCHING,4.301,-1.396,1.000,0.00,0.00,-19.87,3.365,3.467,2.384,4.086,2.487,0,0,SEARCHING,2.384,0.800,0.346,0.122
19:56:25.563,SEARCHING,4.452,-1.448,1.000,0.00,0.00,-18.36,3.134,3.178,2.409,4.576,2.460,0,0,SEARCHING,2.409,0.800,0.413,0.096
19:56:25.760,SEARCHING,4.604,-1.497,1.000,0.00,0.00,-17.18,3.011,2.972,2.434,4.487,2.434,0,0,SEARCHING,2.434,0.800,0.413,0.079
19:56:25.974,SEARCHING,4.757,-1.543,1.000,0.00,0.00,-16.29,2.896,2.825,2.460,4.317,2.460,0,0,SEARCHING,2.460,0.800,0.385,0.061
19:56:26.165,SEARCHING,4.911,-1.587,1.000,0.00,0.00,-15.59,2.757,2.661,2.434,4.086,2.487,0,0,SEARCHING,2.434,0.800,0.346,0.000
19:56:26.368,SEARCHING,5.065,-1.630,1.000,0.00,0.00,-15.31,2.514,2.409,2.359,3.878,2.434,0,0,SEARCHING,2.359,0.771,0.337,0.000
19:56:26.573,SEARCHING,5.217,-1.671,1.000,0.00,0.00,-15.31,2.311,2.359,2.288,3.691,2.359,0,0,SEARCHING,2.288,0.755,0.337,0.000
19:56:26.773,SEARCHING,5.364,-1.712,1.000,0.00,0.00,-15.31,2.288,2.159,2.159,3.575,2.159,0,0,SEARCHING,2.159,0.691,0.404,0.000
19:56:26.974,SEARCHING,5.500,-1.749,1.000,0.00,0.00,-15.31,2.138,2.061,1.990,3.467,2.025,0,0,SEARCHING,1.990,0.660,0.452,0.000
19:56:27.169,SEARCHING,5.628,-1.784,1.000,0.00,0.00,-15.31,1.990,1.907,1.845,3.415,1.907,0,0,SEARCHING,1.845,0.610,0.510,0.000
19:56:27.366,SEARCHING,5.748,-1.817,1.000,0.00,0.00,-15.31,1.860,1.816,1.788,3.316,1.802,0,0,SEARCHING,1.788,0.581,0.558,0.000
19:56:27.567,SEARCHING,5.862,-1.848,1.000,0.00,0.00,-15.31,1.788,1.646,1.658,3.134,1.682,0,0,SEARCHING,1.646,0.527,0.606,0.000
19:56:27.774,SEARCHING,5.968,-1.877,1.000,0.00,0.00,-15.31,1.646,1.611,1.600,2.972,1.567,0,0,SEARCHING,1.567,0.516,0.663,0.000
19:56:27.972,SEARCHING,6.068,-1.904,1.000,0.00,0.00,-15.31,1.578,1.525,1.476,2.860,1.476,0,0,SEARCHING,1.476,0.488,0.721,0.000
19:56:28.180,SEARCHING,6.163,-1.930,1.000,0.00,0.00,-15.31,1.457,1.448,1.412,2.661,1.362,0,0,SEARCHING,1.362,0.463,0.788,0.000
19:56:28.373,SEARCHING,6.254,-1.955,1.000,0.00,0.00,-15.28,1.430,1.338,1.330,2.757,1.278,0,0,SEARCHING,1.278,0.428,0.923,0.052
19:56:28.571,SEARCHING,6.339,-1.978,1.000,0.00,0.00,-14.66,1.338,1.315,1.230,2.790,1.179,0,0,SEARCHING,1.179,0.421,1.000,0.066
19:56:28.775,SEARCHING,6.421,-1.999,1.000,0.00,0.00,-14.24,1.300,1.230,1.264,2.724,1.122,0,0,SEARCHING,1.122,0.394,1.000,0.000
19:56:28.984,SEARCHING,6.499,-2.019,1.000,0.00,0.00,-13.72,1.264,1.315,1.244,2.724,1.031,0,0,SEARCHING,1.031,0.421,1.000,0.000
19:56:29.228,SEARCHING,6.579,-2.038,1.000,0.00,0.00,-13.72,1.198,1.271,1.237,2.661,0.953,0,0,SEARCHING,0.953,0.407,1.000,0.000
19:56:29.550,SEARCHING,6.660,-2.058,1.000,0.00,0.00,-13.72,1.224,1.237,1.230,2.630,0.908,0,0,SEARCHING,0.908,0.396,1.000,0.000
19:56:29.883,SEARCHING,6.738,-2.077,1.000,0.00,0.00,-13.72,1.264,1.315,1.257,2.571,0.811,0,0,SEARCHING,0.811,0.421,1.000,0.000
19:56:30.057,SEARCHING,6.777,-2.086,1.000,0.00,0.00,-13.72,1.224,1.330,1.346,2.571,0.750,0,0,SEARCHING,0.750,0.426,1.000,-0.037
19:56:30.371,SEARCHING,6.853,-2.105,1.000,0.00,0.00,-13.72,1.293,1.323,1.257,2.600,0.639,0,0,SEARCHING,0.639,0.423,1.000,0.000
19:56:30.533,SEARCHING,6.934,-2.125,1.000,0.00,0.00,-13.72,1.285,1.300,1.323,2.571,0.555,0,0,SEARCHING,0.555,0.416,1.000,0.000
19:56:30.888,SEARCHING,7.077,-2.160,1.000,0.00,0.00,-14.03,1.257,1.271,1.250,2.630,0.467,0,0,SEARCHING,0.467,0.407,1.000,0.000
19:56:31.053,SEARCHING,7.139,-2.176,1.000,0.00,0.00,-14.03,1.271,1.271,1.257,2.571,0.469,0,0,SEARCHING,0.469,0.407,1.000,0.000
19:56:31.369,SEARCHING,7.263,-2.207,1.000,0.00,0.00,-14.13,1.179,1.244,1.330,2.630,0.477,0,0,SEARCHING,0.477,0.398,1.000,-0.048
19:56:31.523,SEARCHING,7.343,-2.227,1.000,0.00,0.00,-14.15,1.217,1.271,1.315,2.600,0.459,0,0,SEARCHING,0.459,0.407,1.000,-0.031
19:56:31.846,SEARCHING,7.460,-2.257,1.000,0.00,0.00,-14.45,1.198,1.230,1.293,2.571,0.472,0,0,SEARCHING,0.472,0.394,1.000,-0.031
19:56:32.195,SEARCHING,7.597,-2.293,1.000,0.00,0.00,-15.14,1.144,1.237,1.285,2.600,0.468,0,0,SEARCHING,0.468,0.396,1.000,-0.048
19:56:32.414,SEARCHING,7.656,-2.309,1.000,0.00,0.00,-15.28,1.127,1.230,1.300,2.542,0.470,0,0,SEARCHING,0.470,0.394,1.000,-0.059
19:56:32.571,SEARCHING,7.732,-2.330,1.000,0.00,0.00,-15.63,1.074,1.211,1.264,2.571,0.466,0,0,SEARCHING,0.466,0.387,1.000,-0.070
19:56:32.845,SEARCHING,7.847,-2.363,1.000,0.00,0.00,-16.46,2.200,1.162,1.244,2.571,0.487,0,0,SEARCHING,0.487,0.372,1.000,0.175
19:56:33.144,SEARCHING,7.960,-2.397,1.000,0.00,0.00,-17.44,1.198,3.467,3.051,2.600,0.463,0,0,SEARCHING,0.463,0.800,1.000,-0.253
19:56:33.444,SEARCHING,8.068,-2.431,1.000,0.00,0.00,-16.29,2.138,3.178,2.896,2.542,0.472,0,0,SEARCHING,0.472,0.800,1.000,-0.061
19:56:33.736,SEARCHING,8.228,-2.477,1.000,0.00,0.00,-17.48,2.222,3.316,2.757,2.934,0.467,0,0,SEARCHING,0.467,0.800,1.000,-0.044
19:56:34.006,SEARCHING,8.455,-2.556,1.000,0.00,0.00,-19.97,2.200,3.269,2.630,3.223,0.484,0,0,SEARCHING,0.484,0.800,1.000,-0.037
19:56:34.149,SEARCHING,8.530,-2.583,1.000,0.00,0.00,-20.28,2.179,3.178,2.514,3.178,0.470,0,0,SEARCHING,0.470,0.800,1.000,-0.031
19:56:34.467,SEARCHING,8.755,-2.668,1.000,0.00,0.00,-21.07,2.119,3.051,5.200,3.051,0.465,0,0,SEARCHING,0.465,0.800,1.000,-0.140
19:56:34.649,SEARCHING,8.941,-2.741,1.000,0.00,0.00,-21.60,2.007,3.011,5.200,2.972,1.476,0,0,SEARCHING,1.476,0.800,0.750,-0.306
19:56:34.793,SEARCHING,9.127,-2.815,1.000,0.00,0.00,-21.89,1.860,2.860,4.974,2.896,1.467,0,0,SEARCHING,1.467,0.800,0.740,-0.337
19:56:34.984,SEARCHING,9.491,-2.979,1.000,0.00,0.00,-28.54,1.939,3.134,6.184,2.571,1.923,0,0,SEARCHING,1.923,0.800,0.288,-0.354
19:56:35.185,SEARCHING,9.629,-3.059,1.000,0.00,0.00,-32.64,2.043,3.365,6.934,2.384,1.939,0,0,SEARCHING,1.939,0.800,0.212,-0.345
19:56:35.387,SEARCHING,9.761,-3.150,1.000,0.00,0.00,-36.61,2.222,3.632,7.627,1.733,1.939,0,0,SEARCHING,1.733,0.800,-0.135,-0.319
19:56:35.590,SEARCHING,9.887,-3.249,1.000,0.00,0.00,-40.32,2.359,4.086,7.627,1.546,1.939,0,0,SEARCHING,1.546,0.800,-0.288,-0.293
19:56:35.791,SEARCHING,10.006,-3.356,1.000,0.00,0.00,-43.72,2.434,4.767,6.934,1.323,1.939,0,0,SEARCHING,1.323,0.800,-0.529,-0.267
19:56:35.994,SEARCHING,10.119,-3.469,1.000,0.00,0.00,-46.84,2.571,5.448,4.868,1.116,1.939,0,0,SEARCHING,1.116,0.800,-0.836,-0.184
19:56:36.226,SEARCHING,10.225,-3.588,1.000,0.00,0.00,-49.37,2.757,5.867,4.317,0.957,2.007,0,0,SEARCHING,0.957,0.800,-1.000,-0.066
19:56:36.522,SEARCHING,10.328,-3.711,1.000,0.00,0.00,-50.81,2.825,6.022,4.160,0.867,2.159,0,0,SEARCHING,0.867,0.800,-1.000,-0.057
19:56:36.768,SEARCHING,10.403,-3.804,1.000,0.00,0.00,-51.34,2.825,6.022,4.160,0.835,2.179,0,0,SEARCHING,0.835,0.800,-1.000,-0.057
19:56:37.070,SEARCHING,10.503,-3.930,1.000,0.00,0.00,-52.00,2.860,6.184,3.878,0.854,2.179,0,0,SEARCHING,0.854,0.800,-1.000,-0.046
19:56:37.221,SEARCHING,10.625,-4.088,1.000,0.00,0.00,-52.79,2.972,6.184,3.814,1.708,2.200,0,0,SEARCHING,1.708,0.800,-0.288,-0.074
19:56:37.392,SEARCHING,10.816,-4.345,1.000,0.00,0.00,-54.23,3.316,6.730,3.575,1.720,2.179,0,0,SEARCHING,1.720,0.800,-0.269,0.000
19:56:37.585,SEARCHING,10.909,-4.475,1.000,0.00,0.00,-54.54,3.365,6.538,3.632,1.733,2.159,0,0,SEARCHING,1.733,0.800,-0.250,0.000
19:56:37.796,SEARCHING,11.001,-4.606,1.000,0.00,0.00,-54.54,3.316,6.538,3.751,1.682,2.222,0,0,SEARCHING,1.682,0.800,-0.317,0.000
19:56:37.996,SEARCHING,11.094,-4.736,1.000,0.00,0.00,-54.54,3.316,6.730,3.691,1.760,2.222,0,0,SEARCHING,1.760,0.800,-0.260,0.000
19:56:38.199,SEARCHING,11.187,-4.866,1.000,0.00,0.00,-54.54,3.269,6.538,3.814,1.695,2.288,0,0,SEARCHING,1.695,0.800,-0.337,0.000
19:56:38.396,SEARCHING,11.280,-4.997,1.000,0.00,0.00,-54.57,3.134,6.538,4.160,1.623,2.288,0,0,SEARCHING,1.623,0.800,-0.394,-0.079
19:56:38.599,SEARCHING,11.372,-5.128,1.000,0.00,0.00,-55.38,3.178,7.151,4.086,5.448,2.335,0,0,SEARCHING,2.335,0.800,0.538,-0.070
19:56:38.811,SEARCHING,11.462,-5.260,1.000,0.00,0.00,-56.15,3.269,7.151,3.945,5.581,2.311,0,0,SEARCHING,2.311,0.800,0.558,-0.052
19:56:39.000,SEARCHING,11.550,-5.393,1.000,0.00,0.00,-56.78,3.316,7.151,3.945,5.581,2.311,0,0,SEARCHING,2.311,0.800,0.558,0.000
19:56:39.211,SEARCHING,11.638,-5.527,1.000,0.00,0.00,-56.81,3.223,7.381,3.945,5.581,2.288,0,0,SEARCHING,2.288,0.800,0.567,-0.057
19:56:39.399,SEARCHING,11.725,-5.661,1.000,0.00,0.00,-57.40,3.269,7.381,3.878,5.720,2.311,0,0,SEARCHING,2.311,0.800,0.567,0.000
19:56:39.598,SEARCHING,11.811,-5.796,1.000,0.00,0.00,-57.40,3.269,7.381,3.945,5.720,2.359,0,0,SEARCHING,2.359,0.800,0.548,-0.052
19:56:39.813,SEARCHING,11.897,-5.931,1.000,0.00,0.00,-57.73,3.223,7.381,3.878,5.448,2.335,0,0,SEARCHING,2.335,0.800,0.538,-0.052
19:56:40.012,SEARCHING,11.982,-6.067,1.000,0.00,0.00,-58.33,3.223,7.381,3.814,5.581,2.359,0,0,SEARCHING,2.359,0.800,0.538,0.000
19:56:40.207,SEARCHING,12.065,-6.203,1.000,0.00,0.00,-58.69,3.178,7.381,3.814,5.581,2.359,0,0,SEARCHING,2.359,0.800,0.538,-0.052
19:56:40.420,SEARCHING,12.148,-6.340,1.000,0.00,0.00,-58.99,3.223,7.381,3.751,4.868,2.409,0,0,SEARCHING,2.409,0.800,0.462,0.000
19:56:40.602,SEARCHING,12.231,-6.477,1.000,0.00,0.00,-58.99,3.178,7.151,3.751,5.321,2.384,0,0,SEARCHING,2.384,0.800,0.510,0.000
19:56:40.800,SEARCHING,12.313,-6.614,1.000,0.00,0.00,-58.99,3.178,7.151,3.814,5.321,2.359,0,0,SEARCHING,2.359,0.800,0.519,-0.052
19:56:41.004,SEARCHING,12.396,-6.752,1.000,0.00,0.00,-59.32,3.178,6.934,3.751,4.767,2.359,0,0,SEARCHING,2.359,0.800,0.471,0.000
19:56:41.208,SEARCHING,12.477,-6.889,1.000,0.00,0.00,-59.59,3.178,6.730,3.751,4.767,2.409,0,0,SEARCHING,2.409,0.800,0.452,0.000
19:56:41.404,SEARCHING,12.557,-7.028,1.000,0.00,0.00,-59.83,3.223,7.381,3.751,4.767,2.409,0,0,SEARCHING,2.409,0.800,0.452,0.000
19:56:41.610,SEARCHING,12.638,-7.166,1.000,0.00,0.00,-59.83,3.178,6.934,3.751,4.670,2.409,0,0,SEARCHING,2.409,0.800,0.442,0.000
19:56:41.806,SEARCHING,12.718,-7.304,1.000,0.00,0.00,-59.86,3.178,7.151,3.751,4.576,2.384,0,0,SEARCHING,2.384,0.800,0.442,0.000
19:56:42.003,SEARCHING,12.798,-7.443,1.000,0.00,0.00,-60.13,3.134,6.934,3.751,4.576,2.384,0,0,SEARCHING,2.384,0.800,0.442,-0.052
19:56:42.214,SEARCHING,12.877,-7.582,1.000,0.00,0.00,-60.43,3.316,6.934,3.751,4.160,2.434,0,0,SEARCHING,2.434,0.800,0.375,0.000
19:56:42.414,SEARCHING,12.956,-7.721,1.000,0.00,0.00,-60.43,3.316,6.538,3.691,4.014,2.434,0,0,SEARCHING,2.434,0.800,0.356,0.000
19:56:42.604,SEARCHING,13.035,-7.860,1.000,0.00,0.00,-60.43,3.520,6.730,3.632,3.945,2.409,0,0,SEARCHING,2.409,0.800,0.356,0.000
19:56:42.811,SEARCHING,13.114,-7.999,1.000,0.00,0.00,-60.43,3.520,6.538,3.632,3.751,2.384,0,0,SEARCHING,2.384,0.800,0.337,0.000
19:56:43.014,SEARCHING,13.193,-8.139,1.000,0.00,0.00,-60.43,3.520,6.538,3.575,3.632,2.384,0,0,SEARCHING,2.384,0.800,0.317,0.000
19:56:43.214,SEARCHING,13.272,-8.278,1.000,0.00,0.00,-60.43,3.467,6.356,3.575,3.415,2.434,0,0,SEARCHING,2.434,0.800,0.260,0.000
19:56:43.405,SEARCHING,13.351,-8.417,1.000,0.00,0.00,-60.43,3.520,6.184,3.632,3.316,2.434,0,0,SEARCHING,2.434,0.800,0.240,0.000
19:56:43.616,SEARCHING,13.430,-8.556,1.000,0.00,0.00,-60.43,3.520,5.867,3.632,3.092,2.434,0,0,SEARCHING,2.434,0.800,0.192,0.000
19:56:43.818,SEARCHING,13.509,-8.695,1.000,0.00,0.00,-60.43,3.467,5.720,3.575,2.934,2.409,0,0,SEARCHING,2.409,0.800,0.163,0.000
19:56:44.021,SEARCHING,13.588,-8.834,1.000,0.00,0.00,-60.43,3.467,5.581,3.632,2.790,2.460,0,0,SEARCHING,2.460,0.800,0.106,0.000
19:56:44.221,SEARCHING,13.667,-8.974,1.000,0.00,0.00,-60.43,3.520,5.321,3.632,2.661,2.460,0,0,SEARCHING,2.460,0.800,0.067,0.000
19:56:44.422,SEARCHING,13.746,-9.113,1.000,0.00,0.00,-60.43,3.520,5.321,3.632,2.571,2.409,0,0,SEARCHING,2.409,0.800,0.058,0.000
19:56:44.632,SEARCHING,13.825,-9.252,1.000,0.00,0.00,-60.43,3.520,5.200,3.575,2.514,2.409,0,0,SEARCHING,2.409,0.800,0.038,0.000
19:56:44.830,SEARCHING,13.904,-9.391,1.000,0.00,0.00,-60.43,3.520,4.974,3.520,2.487,2.434,0,0,SEARCHING,2.434,0.800,0.019,0.000
19:56:45.025,SEARCHING,13.983,-9.530,1.000,0.00,0.00,-60.43,3.467,4.868,3.575,2.487,2.460,0,0,SEARCHING,2.460,0.800,0.010,0.000
19:56:45.253,SEARCHING,14.062,-9.669,1.000,0.00,0.00,-60.43,3.575,4.670,3.575,2.460,2.460,0,0,SEARCHING,2.460,0.800,0.000,0.000
19:56:45.456,SEARCHING,14.160,-9.843,1.000,0.00,0.00,-60.43,3.415,4.576,3.632,2.514,2.460,0,0,SEARCHING,2.460,0.800,0.019,0.000
19:56:45.630,SEARCHING,14.239,-9.982,1.000,0.00,0.00,-60.32,5.720,4.400,3.751,2.514,2.409,0,0,SEARCHING,2.409,0.800,0.038,0.092
19:56:45.834,SEARCHING,14.299,-10.086,1.000,0.00,0.00,-59.53,5.720,4.014,5.581,2.487,2.460,0,0,SEARCHING,2.460,0.800,0.010,0.000
19:56:46.023,SEARCHING,14.381,-10.224,1.000,0.00,0.00,-59.48,5.867,3.878,5.581,2.487,2.460,0,0,SEARCHING,2.460,0.800,0.010,0.000
19:56:46.228,SEARCHING,14.462,-10.362,1.000,0.00,0.00,-59.48,5.867,3.575,4.670,2.460,2.434,0,0,SEARCHING,2.434,0.800,0.010,0.000
19:56:46.437,SEARCHING,14.543,-10.500,1.000,0.00,0.00,-59.43,6.022,3.520,3.945,2.434,2.434,0,0,SEARCHING,2.434,0.800,0.000,0.087
19:56:46.636,SEARCHING,14.625,-10.637,1.000,0.00,0.00,-58.49,5.581,3.365,3.814,2.460,2.409,0,0,SEARCHING,2.409,0.800,0.019,0.083
19:56:46.832,SEARCHING,14.710,-10.773,1.000,0.00,0.00,-57.53,5.448,3.365,3.575,2.460,2.434,0,0,SEARCHING,2.434,0.800,0.010,0.096
19:56:47.031,SEARCHING,14.797,-10.907,1.000,0.00,0.00,-56.44,5.321,3.178,3.316,2.434,2.409,0,0,SEARCHING,2.409,0.800,0.010,0.114
19:56:47.233,SEARCHING,14.887,-11.039,1.000,0.00,0.00,-55.14,5.085,3.092,3.011,5.321,2.409,0,0,SEARCHING,2.409,0.800,0.500,0.135
19:56:47.435,SEARCHING,14.980,-11.170,1.000,0.00,0.00,-53.67,4.868,3.134,2.825,5.448,2.460,0,0,SEARCHING,2.460,0.800,0.490,0.149
19:56:47.641,SEARCHING,15.076,-11.297,1.000,0.00,0.00,-52.07,4.576,3.134,2.692,5.321,2.384,0,0,SEARCHING,2.384,0.800,0.510,0.153
19:56:47.840,SEARCHING,15.176,-11.422,1.000,0.00,0.00,-50.30,4.487,3.011,2.409,5.448,2.460,0,0,SEARCHING,2.409,0.800,0.490,0.192
19:56:48.044,SEARCHING,15.280,-11.544,1.000,0.00,0.00,-48.24,4.160,7.627,2.243,5.448,2.460,0,0,SEARCHING,2.243,0.800,0.490,0.205
19:56:48.235,SEARCHING,15.389,-11.661,1.000,0.00,0.00,-45.89,3.945,6.934,2.200,5.720,2.409,0,0,SEARCHING,2.200,0.800,0.529,0.201
19:56:48.436,SEARCHING,15.503,-11.774,1.000,0.00,0.00,-43.63,3.751,6.356,2.043,5.581,2.434,0,0,SEARCHING,2.043,0.800,0.510,0.223
19:56:48.631,SEARCHING,15.620,-11.882,1.000,0.00,0.00,-41.16,3.520,5.720,1.990,5.581,2.434,0,0,SEARCHING,1.990,0.800,0.510,0.219
19:56:48.836,SEARCHING,15.743,-11.985,1.000,0.00,0.00,-38.62,3.269,5.085,7.151,5.085,2.460,0,0,SEARCHING,2.460,0.800,0.462,-0.166
19:56:49.038,SEARCHING,15.869,-12.084,1.000,0.00,0.00,-38.63,3.269,5.085,7.151,5.085,2.460,0,0,SEARCHING,2.460,0.800,0.462,-0.166
19:56:49.236,SEARCHING,15.992,-12.185,1.000,0.00,0.00,-40.53,3.269,5.200,7.151,5.200,2.434,0,0,SEARCHING,2.434,0.800,0.481,-0.166
19:56:49.445,SEARCHING,16.112,-12.291,1.000,0.00,0.00,-42.41,3.269,5.448,7.381,5.581,2.434,0,0,SEARCHING,2.434,0.800,0.510,-0.170
19:56:49.636,SEARCHING,16.229,-12.401,1.000,0.00,0.00,-44.30,3.316,5.867,7.627,5.867,2.409,0,0,SEARCHING,2.409,0.800,0.538,-0.170
19:56:49.836,SEARCHING,16.342,-12.514,1.000,0.00,0.00,-46.23,3.365,6.356,7.627,5.867,2.409,0,0,SEARCHING,2.409,0.800,0.538,-0.166
19:56:50.034,SEARCHING,16.451,-12.632,1.000,0.00,0.00,-48.15,3.520,6.356,7.890,6.022,2.409,0,0,SEARCHING,2.409,0.800,0.548,-0.157
19:56:50.238,SEARCHING,16.556,-12.752,1.000,0.00,0.00,-49.97,3.632,6.730,7.890,5.867,2.434,0,0,SEARCHING,2.434,0.800,0.529,-0.149
19:56:50.441,SEARCHING,16.657,-12.876,1.000,0.00,0.00,-51.70,3.691,7.151,7.890,5.867,2.460,0,0,SEARCHING,2.460,0.800,0.519,-0.144
19:56:50.643,SEARCHING,16.754,-13.003,1.000,0.00,0.00,-53.38,3.814,7.627,7.627,5.867,2.434,0,0,SEARCHING,2.434,0.800,0.529,-0.131
19:56:50.844,SEARCHING,16.848,-13.133,1.000,0.00,0.00,-54.94,4.086,8.475,7.381,5.867,2.434,0,0,SEARCHING,2.434,0.800,0.529,-0.109
19:56:51.054,SEARCHING,16.939,-13.264,1.000,0.00,0.00,-56.23,4.237,8.475,7.627,6.022,2.434,0,0,SEARCHING,2.434,0.800,0.538,-0.105
19:56:51.242,SEARCHING,17.026,-13.398,1.000,0.00,0.00,-57.51,4.487,8.801,7.151,5.867,2.434,0,0,SEARCHING,2.434,0.800,0.529,-0.083
19:56:51.455,SEARCHING,17.111,-13.534,1.000,0.00,0.00,-58.50,4.487,8.475,6.934,6.022,2.434,0,0,SEARCHING,2.434,0.800,0.538,-0.079
19:56:51.642,SEARCHING,17.194,-13.671,1.000,0.00,0.00,-59.43,4.576,8.172,6.730,6.022,2.434,0,0,SEARCHING,2.434,0.800,0.538,-0.070
19:56:51.866,SEARCHING,17.274,-13.809,1.000,0.00,0.00,-60.25,4.670,8.172,6.538,6.022,2.460,0,0,SEARCHING,2.460,0.800,0.529,-0.061
19:56:52.049,SEARCHING,17.372,-13.984,1.000,0.00,0.00,-61.16,4.767,7.890,6.356,6.022,2.434,0,0,SEARCHING,2.434,0.800,0.538,-0.052
19:56:52.254,SEARCHING,17.430,-14.089,1.000,0.00,0.00,-61.65,4.767,7.890,6.184,6.022,2.460,0,0,SEARCHING,2.460,0.800,0.529,0.000
19:56:52.448,SEARCHING,17.505,-14.230,1.000,0.00,0.00,-61.98,4.767,7.381,6.184,6.022,2.460,0,0,SEARCHING,2.460,0.800,0.529,0.000
19:56:52.642,SEARCHING,17.580,-14.371,1.000,0.00,0.00,-61.98,4.868,7.627,6.184,6.022,2.460,0,0,SEARCHING,2.460,0.800,0.529,0.000
19:56:52.852,SEARCHING,17.655,-14.513,1.000,0.00,0.00,-61.98,4.868,7.627,6.184,6.022,2.434,0,0,SEARCHING,2.434,0.800,0.538,0.000
19:56:53.051,SEARCHING,17.731,-14.654,1.000,0.00,0.00,-61.98,4.868,7.381,6.022,6.022,2.434,0,0,SEARCHING,2.434,0.800,0.538,0.000
19:56:53.254,SEARCHING,17.806,-14.795,1.000,0.00,0.00,-61.98,4.868,7.627,6.022,5.867,2.434,0,0,SEARCHING,2.434,0.800,0.529,0.000
19:56:53.449,SEARCHING,17.881,-14.936,1.000,0.00,0.00,-61.98,4.868,7.381,6.184,6.022,2.460,0,0,SEARCHING,2.460,0.800,0.529,0.000
19:56:53.653,SEARCHING,17.956,-15.078,1.000,0.00,0.00,-61.98,4.767,7.381,6.022,5.867,2.434,0,0,SEARCHING,2.434,0.800,0.529,0.000
19:56:53.859,SEARCHING,18.031,-15.219,1.000,0.00,0.00,-61.98,4.767,7.627,6.022,6.022,2.434,0,0,SEARCHING,2.434,0.800,0.538,0.000
19:56:54.051,SEARCHING,18.106,-15.360,1.000,0.00,0.00,-61.98,4.767,7.627,6.022,6.022,2.434,0,0,SEARCHING,2.434,0.800,0.538,0.000
19:56:54.254,SEARCHING,18.182,-15.501,1.000,0.00,0.00,-61.98,4.767,8.172,5.867,6.022,2.434,0,0,SEARCHING,2.434,0.800,0.538,0.000
19:56:54.454,SEARCHING,18.257,-15.643,1.000,0.00,0.00,-61.98,4.767,7.890,5.720,6.022,2.434,0,0,SEARCHING,2.434,0.800,0.538,0.000
19:56:54.653,SEARCHING,18.332,-15.784,1.000,0.00,0.00,-61.98,4.767,7.627,5.448,6.022,2.434,0,0,SEARCHING,2.434,0.800,0.538,0.000
19:56:54.855,SEARCHING,18.407,-15.925,1.000,0.00,0.00,-61.98,4.767,7.627,5.448,6.022,2.460,0,0,SEARCHING,2.460,0.800,0.529,0.000
19:56:55.052,SEARCHING,18.482,-16.066,1.000,0.00,0.00,-61.98,4.868,7.890,5.200,5.867,2.434,0,0,SEARCHING,2.434,0.800,0.529,0.000
19:56:55.249,SEARCHING,18.558,-16.208,1.000,0.00,0.00,-61.98,5.085,7.890,5.321,5.720,2.409,0,0,SEARCHING,2.409,0.800,0.529,0.000
19:56:55.459,SEARCHING,18.633,-16.349,1.000,0.00,0.00,-61.98,5.085,7.627,5.200,5.867,2.487,0,0,SEARCHING,2.487,0.800,0.510,0.000
19:56:55.656,SEARCHING,18.708,-16.490,1.000,0.00,0.00,-61.98,4.974,7.381,5.200,5.867,2.460,0,0,SEARCHING,2.460,0.800,0.519,0.000
19:56:55.850,SEARCHING,18.783,-16.631,1.000,0.00,0.00,-61.98,4.670,7.381,5.085,6.022,2.434,0,0,SEARCHING,2.434,0.800,0.538,0.000
19:56:56.061,SEARCHING,18.858,-16.773,1.000,0.00,0.00,-61.98,4.487,7.151,4.974,6.022,2.434,0,0,SEARCHING,2.434,0.800,0.538,0.000
19:56:56.258,SEARCHING,18.933,-16.914,1.000,0.00,0.00,-61.98,4.487,7.381,4.974,6.022,2.460,0,0,SEARCHING,2.460,0.800,0.529,0.000
19:56:56.460,SEARCHING,19.009,-17.055,1.000,0.00,0.00,-61.98,4.400,7.381,4.868,6.022,2.409,0,0,SEARCHING,2.409,0.800,0.548,0.000
19:56:56.657,SEARCHING,19.084,-17.196,1.000,0.00,0.00,-61.98,4.160,7.151,4.868,5.867,2.434,0,0,SEARCHING,2.434,0.800,0.529,0.000
19:56:57.933,SEARCHING,19.159,-17.337,1.000,0.00,0.00,-61.98,4.086,7.151,4.868,6.022,2.460,0,0,SEARCHING,2.460,0.800,0.529,0.000
19:56:58.138,SEARCHING,19.234,-17.479,1.000,0.00,0.00,-61.98,3.751,6.934,4.767,6.022,2.460,0,0,SEARCHING,2.460,0.800,0.529,-0.057
19:56:58.318,SEARCHING,19.421,-17.832,1.000,0.00,0.00,-62.60,3.467,6.730,4.576,6.022,2.434,0,0,SEARCHING,2.434,0.800,0.538,-0.070
19:56:58.516,SEARCHING,19.494,-17.975,1.000,0.00,0.00,-63.35,3.316,6.356,4.487,6.022,2.434,0,0,SEARCHING,2.434,0.800,0.538,-0.079
19:56:58.725,SEARCHING,19.565,-18.118,1.000,0.00,0.00,-64.23,3.134,6.184,4.400,6.022,2.409,0,0,SEARCHING,2.409,0.800,0.548,-0.092
19:56:58.924,SEARCHING,19.633,-18.263,1.000,0.00,0.00,-65.28,2.896,6.022,4.237,6.022,2.460,0,0,SEARCHING,2.460,0.800,0.529,-0.109
19:56:59.133,SEARCHING,19.699,-18.409,1.000,0.00,0.00,-66.47,2.661,5.581,4.086,5.867,2.434,0,0,SEARCHING,2.434,0.800,0.529,-0.131
19:56:59.318,SEARCHING,19.761,-18.556,1.000,0.00,0.00,-67.80,7.627,5.448,3.945,5.448,2.460,0,0,SEARCHING,2.460,0.800,0.490,0.122
19:56:59.521,SEARCHING,19.821,-18.704,1.000,0.00,0.00,-67.60,7.381,5.200,3.878,5.200,2.434,0,0,SEARCHING,2.434,0.800,0.481,0.122
19:56:59.718,SEARCHING,19.884,-18.852,1.000,0.00,0.00,-66.17,7.627,5.321,3.814,5.321,2.434,0,0,SEARCHING,2.434,0.800,0.490,0.131
19:56:59.917,SEARCHING,19.950,-18.997,1.000,0.00,0.00,-64.70,7.381,5.200,3.878,5.321,2.409,0,0,SEARCHING,2.409,0.800,0.500,0.122
19:57:00.120,SEARCHING,20.020,-19.141,1.000,0.00,0.00,-63.29,7.381,5.448,3.751,5.448,2.409,0,0,SEARCHING,2.409,0.800,0.510,0.131
19:57:00.317,SEARCHING,20.094,-19.283,1.000,0.00,0.00,-61.81,7.381,5.448,3.691,5.448,2.460,0,0,SEARCHING,2.460,0.800,0.490,0.135
19:57:00.523,SEARCHING,20.171,-19.423,1.000,0.00,0.00,-60.29,7.381,5.581,3.691,5.581,2.434,0,0,SEARCHING,2.434,0.800,0.510,0.135
19:57:00.724,SEARCHING,20.252,-19.561,1.000,0.00,0.00,-58.79,7.381,5.581,3.691,5.448,2.460,0,0,SEARCHING,2.460,0.800,0.490,0.135
19:57:00.924,SEARCHING,20.336,-19.697,1.000,0.00,0.00,-57.24,7.381,5.720,3.691,5.720,2.460,0,0,SEARCHING,2.460,0.800,0.510,0.135
19:57:01.129,SEARCHING,20.425,-19.831,1.000,0.00,0.00,-55.68,7.381,6.022,3.691,6.022,2.460,0,0,SEARCHING,2.460,0.800,0.529,0.135
19:57:01.321,SEARCHING,20.516,-19.962,1.000,0.00,0.00,-54.18,7.381,6.022,3.751,5.867,2.434,0,0,SEARCHING,2.434,0.800,0.529,0.131
19:57:01.520,SEARCHING,20.611,-20.090,1.000,0.00,0.00,-52.68,7.381,6.538,3.814,6.022,2.409,0,0,SEARCHING,2.409,0.800,0.548,0.127
19:57:01.727,SEARCHING,20.710,-20.216,1.000,0.00,0.00,-51.22,7.381,6.934,3.814,6.184,2.384,0,0,SEARCHING,2.384,0.800,0.567,0.127
19:57:01.933,SEARCHING,20.812,-20.340,1.000,0.00,0.00,-49.80,7.151,7.151,3.814,6.022,2.460,0,0,SEARCHING,2.460,0.800,0.529,0.122
19:57:02.129,SEARCHING,20.916,-20.461,1.000,0.00,0.00,-48.39,7.151,7.381,3.878,6.184,2.434,0,0,SEARCHING,2.434,0.800,0.548,0.118
19:57:02.324,SEARCHING,21.024,-20.580,1.000,0.00,0.00,-47.02,6.934,7.381,3.878,6.184,2.409,0,0,SEARCHING,2.409,0.800,0.558,0.114
19:57:02.538,SEARCHING,21.134,-20.695,1.000,0.00,0.00,-45.69,6.730,7.151,3.945,6.184,2.434,0,0,SEARCHING,2.434,0.800,0.548,0.105
19:57:02.728,SEARCHING,21.247,-20.809,1.000,0.00,0.00,-44.46,6.730,6.934,3.945,6.022,2.460,0,0,SEARCHING,2.460,0.800,0.529,0.105
19:57:02.927,SEARCHING,21.362,-20.920,1.000,0.00,0.00,-43.26,6.356,6.934,4.237,6.022,2.460,0,0,SEARCHING,2.460,0.800,0.529,0.079
19:57:03.136,SEARCHING,21.480,-21.029,1.000,0.00,0.00,-42.24,6.184,6.730,4.400,6.022,2.460,0,0,SEARCHING,2.460,0.800,0.529,0.066
19:57:03.329,SEARCHING,21.599,-21.135,1.000,0.00,0.00,-41.44,6.022,6.730,4.670,6.022,2.434,0,0,SEARCHING,2.434,0.800,0.538,0.000
19:57:03.531,SEARCHING,21.719,-21.241,1.000,0.00,0.00,-41.15,5.867,6.538,4.670,6.022,2.384,0,0,SEARCHING,2.384,0.800,0.558,0.000
19:57:03.726,SEARCHING,21.840,-21.346,1.000,0.00,0.00,-41.15,6.022,6.356,4.670,6.022,2.434,0,0,SEARCHING,2.434,0.800,0.538,0.000
19:57:03.930,SEARCHING,21.960,-21.451,1.000,0.00,0.00,-41.15,5.867,6.184,4.576,6.022,2.409,0,0,SEARCHING,2.409,0.800,0.548,0.000
19:57:04.132,SEARCHING,22.081,-21.557,1.000,0.00,0.00,-41.03,5.867,6.184,4.670,6.022,2.409,0,0,SEARCHING,2.409,0.800,0.548,0.000
19:57:04.331,SEARCHING,22.201,-21.662,1.000,0.00,0.00,-41.03,5.867,6.022,4.670,6.022,2.434,0,0,SEARCHING,2.434,0.800,0.538,0.000
19:57:04.552,SEARCHING,22.322,-21.767,1.000,0.00,0.00,-41.03,5.867,5.867,4.670,5.867,2.434,0,0,SEARCHING,2.434,0.800,0.529,0.000
19:57:04.736,SEARCHING,22.443,-21.872,1.000,0.00,0.00,-41.03,5.581,5.720,4.576,5.720,2.514,0,0,SEARCHING,2.514,0.800,0.490,0.000
19:57:04.936,SEARCHING,22.563,-21.977,1.000,0.00,0.00,-41.03,5.581,5.581,4.487,5.448,2.384,0,0,SEARCHING,2.384,0.800,0.519,0.000
19:57:05.139,SEARCHING,22.684,-22.082,1.000,0.00,0.00,-41.03,5.321,5.321,4.576,5.321,2.434,0,0,SEARCHING,2.434,0.800,0.490,0.000
19:57:05.339,SEARCHING,22.805,-22.187,1.000,0.00,0.00,-41.03,5.200,5.200,4.487,5.200,2.409,0,0,SEARCHING,2.409,0.800,0.490,0.000
19:57:05.533,SEARCHING,22.925,-22.292,1.000,0.00,0.00,-41.03,4.974,5.085,4.576,4.974,2.487,0,0,SEARCHING,2.487,0.800,0.442,0.000
19:57:05.737,SEARCHING,23.046,-22.397,1.000,0.00,0.00,-41.03,4.868,4.868,4.487,4.868,2.384,0,0,SEARCHING,2.384,0.800,0.471,0.000
19:57:05.932,SEARCHING,23.167,-22.502,1.000,0.00,0.00,-41.03,4.670,4.670,4.487,4.670,2.434,0,0,SEARCHING,2.434,0.800,0.433,0.000
19:57:06.136,SEARCHING,23.288,-22.607,1.000,0.00,0.00,-41.03,4.576,4.670,4.487,4.576,2.434,0,0,SEARCHING,2.434,0.800,0.423,0.000
19:57:06.331,SEARCHING,23.408,-22.712,1.000,0.00,0.00,-41.03,4.487,4.487,4.400,4.487,2.409,0,0,SEARCHING,2.409,0.800,0.423,0.000
19:57:06.526,SEARCHING,23.529,-22.817,1.000,0.00,0.00,-41.03,4.317,4.317,4.317,4.317,2.460,0,0,SEARCHING,2.460,0.800,0.385,0.000
19:57:06.730,SEARCHING,23.650,-22.922,1.000,0.00,0.00,-41.03,4.160,4.160,4.160,4.160,2.460,0,0,SEARCHING,2.460,0.800,0.365,0.000
19:57:06.930,SEARCHING,23.770,-23.027,1.000,0.00,0.00,-41.03,4.014,4.086,4.086,4.086,2.460,0,0,SEARCHING,2.460,0.800,0.356,0.000
19:57:07.140,SEARCHING,23.891,-23.132,1.000,0.00,0.00,-41.03,3.878,3.878,3.878,3.814,2.434,0,0,SEARCHING,2.434,0.800,0.327,0.000
19:57:07.336,SEARCHING,24.012,-23.237,1.000,0.00,0.00,-41.03,3.691,3.691,3.691,3.691,2.266,0,0,SEARCHING,2.266,0.800,0.375,0.000
19:57:07.535,SEARCHING,24.132,-23.342,1.000,0.00,0.00,-41.03,3.520,3.520,3.520,3.520,2.460,0,0,SEARCHING,2.460,0.800,0.269,0.000
19:57:07.734,SEARCHING,24.253,-23.447,1.000,0.00,0.00,-41.03,3.415,3.415,3.415,3.415,2.384,0,0,SEARCHING,2.384,0.800,0.279,0.000
19:57:07.935,SEARCHING,24.374,-23.552,1.000,0.00,0.00,-41.03,3.223,3.269,3.269,3.223,2.409,0,0,SEARCHING,2.409,0.800,0.231,0.000
19:57:08.139,SEARCHING,24.495,-23.657,1.000,0.00,0.00,-41.03,3.051,3.092,3.134,3.092,2.434,0,0,SEARCHING,2.434,0.800,0.192,0.000
19:57:08.337,SEARCHING,24.615,-23.762,1.000,0.00,0.00,-41.03,2.934,2.934,2.972,2.934,2.434,0,0,SEARCHING,2.434,0.800,0.154,0.000
19:57:08.534,SEARCHING,24.736,-23.867,1.000,0.00,0.00,-41.03,2.825,2.825,2.825,2.825,2.460,0,0,SEARCHING,2.460,0.800,0.115,0.000
19:57:08.741,SEARCHING,24.857,-23.972,1.000,0.00,0.00,-41.03,2.661,2.661,2.692,2.661,2.514,0,0,SEARCHING,2.514,0.800,0.048,0.000
19:57:08.932,SEARCHING,24.977,-24.077,1.000,0.00,0.00,-41.03,2.487,2.487,2.514,2.487,2.434,0,0,SEARCHING,2.434,0.796,0.019,0.000
19:57:09.130,SEARCHING,25.097,-24.182,1.000,0.00,0.00,-41.03,2.311,2.335,2.335,2.335,2.335,0,0,SEARCHING,2.311,0.747,0.000,0.000
19:57:09.339,SEARCHING,25.211,-24.281,1.000,0.00,0.00,-41.03,2.159,2.179,2.200,2.179,2.179,0,0,SEARCHING,2.159,0.697,0.000,0.000
19:57:09.544,SEARCHING,25.318,-24.374,1.000,0.00,0.00,-41.03,2.025,2.043,2.043,2.043,2.043,0,0,SEARCHING,2.025,0.654,0.000,0.000
19:57:09.739,SEARCHING,25.419,-24.462,1.000,0.00,0.00,-41.03,1.907,1.923,1.923,1.923,1.923,0,0,SEARCHING,1.907,0.615,0.000,0.000
19:57:09.937,SEARCHING,25.513,-24.544,1.000,0.00,0.00,-41.03,1.788,1.788,1.802,1.788,1.788,0,0,SEARCHING,1.788,0.572,0.000,0.000
19:57:10.135,SEARCHING,25.601,-24.620,1.000,0.00,0.00,-41.03,1.695,1.708,1.720,1.708,1.708,0,0,SEARCHING,1.695,0.546,0.000,0.000
19:57:10.338,SEARCHING,25.684,-24.692,1.000,0.00,0.00,-41.03,1.567,1.578,1.589,1.578,1.578,0,0,SEARCHING,1.567,0.505,0.000,0.000
19:57:10.548,SEARCHING,25.761,-24.759,1.000,0.00,0.00,-41.03,1.486,1.496,1.505,1.496,1.496,0,0,SEARCHING,1.486,0.479,0.000,0.000
19:57:10.740,SEARCHING,25.835,-24.823,1.000,0.00,0.00,-41.03,1.387,1.404,1.412,1.404,1.404,0,0,SEARCHING,1.387,0.449,0.000,0.000
19:57:10.951,SEARCHING,25.903,-24.883,1.000,0.00,0.00,-41.03,1.300,1.308,1.315,1.308,1.308,0,0,SEARCHING,1.300,0.418,0.000,0.000
19:57:11.141,SEARCHING,25.967,-24.939,1.000,0.00,0.00,-41.03,1.217,1.224,1.230,1.224,1.224,0,0,SEARCHING,1.217,0.392,0.000,0.000
19:57:11.349,SEARCHING,26.027,-24.991,1.000,0.00,0.00,-41.03,1.138,1.150,1.156,1.150,1.150,0,0,SEARCHING,1.138,0.368,0.000,0.000
19:57:11.541,SEARCHING,26.084,-25.040,1.000,0.00,0.00,-41.03,1.069,1.074,1.079,1.074,1.069,0,0,SEARCHING,1.069,0.344,0.010,0.000
19:57:11.775,SEARCHING,26.136,-25.086,1.000,0.00,0.00,-41.03,0.986,0.991,0.999,0.995,0.995,0,0,SEARCHING,0.986,0.317,0.000,0.000
19:57:12.126,SEARCHING,26.186,-25.129,1.000,0.00,0.00,-41.03,0.946,0.949,0.953,0.949,0.949,0,0,SEARCHING,0.946,0.304,0.000,0.000
19:57:12.430,SEARCHING,26.233,-25.170,1.000,0.00,0.00,-41.03,0.880,0.887,0.890,0.887,0.887,0,0,SEARCHING,0.880,0.284,0.000,0.000
19:57:12.718,INSPECTING,26.279,-25.210,1.000,0.00,0.00,-41.03,0.792,0.795,0.800,0.795,0.797,0,0,SEARCHING,0.792,0.000,0.000,0.000
19:57:13.023,INSPECTING,26.323,-25.248,1.000,0.00,0.00,-41.03,0.706,0.713,0.715,0.713,0.713,0,0,RIGHT,0.715,0.150,0.000,-1.100
19:57:13.223,INSPECTING,26.365,-25.284,1.000,0.00,0.00,-41.03,0.679,0.683,0.685,0.683,0.683,0,0,RIGHT,0.685,0.150,0.000,-1.100
19:57:13.406,INSPECTING,26.384,-25.301,1.000,0.00,0.00,-44.18,0.605,0.648,0.695,0.646,0.646,0,0,RIGHT,0.695,0.150,0.000,-1.100
19:57:13.736,INSPECTING,26.411,-25.337,1.000,0.00,0.00,-63.09,0.551,0.658,0.820,0.658,0.659,0,0,RIGHT,0.820,0.150,0.000,-1.100
19:57:13.902,INSPECTING,26.422,-25.365,1.000,0.00,0.00,-75.69,0.558,0.700,0.938,0.700,0.698,0,0,RIGHT,0.938,0.150,0.000,-1.100
19:57:14.209,SEARCHING,26.425,-25.417,1.000,0.00,0.00,-97.75,0.671,1.022,1.876,1.022,1.026,0,0,SEARCHING,0.671,0.327,-0.010,-0.957
19:57:14.364,SEARCHING,26.413,-25.460,1.000,0.00,0.00,-116.66,0.883,1.682,1.939,1.708,1.708,0,0,SEARCHING,0.883,0.538,0.000,-0.616
19:57:14.546,SEARCHING,26.328,-25.582,1.000,0.00,0.00,-131.03,1.300,1.891,1.907,1.876,1.876,0,0,SEARCHING,1.300,0.605,0.000,-0.245
19:57:14.747,SEARCHING,26.248,-25.666,1.000,0.00,0.00,-135.63,1.525,1.774,1.845,1.774,1.774,0,0,SEARCHING,1.525,0.568,0.000,-0.114
19:57:14.946,SEARCHING,26.165,-25.745,1.000,0.00,0.00,-137.07,1.600,1.634,1.733,1.634,1.646,0,0,SEARCHING,1.600,0.523,-0.010,0.000
19:57:15.141,SEARCHING,26.086,-25.817,1.000,0.00,0.00,-137.34,1.505,1.546,1.623,1.546,1.546,0,0,SEARCHING,1.505,0.495,0.000,0.000
19:57:15.347,SEARCHING,26.013,-25.885,1.000,0.00,0.00,-137.37,1.430,1.457,1.546,1.457,1.457,0,0,SEARCHING,1.430,0.466,0.000,-0.052
19:57:15.552,SEARCHING,25.943,-25.949,1.000,0.00,0.00,-137.97,1.323,1.354,1.439,1.346,1.354,0,0,SEARCHING,1.323,0.433,-0.010,-0.061
19:57:15.749,SEARCHING,25.877,-26.008,1.000,0.00,0.00,-138.63,1.250,1.285,1.370,1.285,1.285,0,0,SEARCHING,1.250,0.411,0.000,-0.070
19:57:15.950,SEARCHING,25.814,-26.063,1.000,0.00,0.00,-139.41,1.156,1.192,1.278,1.192,1.192,0,0,SEARCHING,1.156,0.381,0.000,-0.083
19:57:16.158,SEARCHING,25.754,-26.113,1.000,0.00,0.00,-140.34,1.084,1.133,1.217,1.133,1.133,0,0,SEARCHING,1.084,0.362,0.000,-0.101
19:57:16.361,SEARCHING,25.698,-26.159,1.000,0.00,0.00,-141.51,0.999,1.064,1.150,1.064,1.069,0,0,SEARCHING,0.999,0.341,-0.010,-0.131
19:57:16.555,SEARCHING,25.643,-26.201,1.000,0.00,0.00,-142.96,0.923,1.004,1.095,1.004,1.004,0,0,SEARCHING,0.923,0.321,0.000,-0.170
19:57:16.857,SEARCHING,25.591,-26.240,1.000,0.00,0.00,-144.83,0.870,0.949,1.050,0.953,0.949,0,0,SEARCHING,0.870,0.304,0.010,-0.098
19:57:17.010,SEARCHING,25.565,-26.258,1.000,0.00,0.00,-145.50,0.847,0.934,1.031,0.934,0.934,0,0,SEARCHING,0.847,0.299,0.000,-0.105
19:57:17.352,SEARCHING,25.501,-26.300,1.000,0.00,0.00,-146.90,0.786,0.867,0.970,0.867,0.867,0,0,SEARCHING,0.786,0.277,0.000,-0.120
19:57:17.507,SEARCHING,25.476,-26.316,1.000,0.00,0.00,-147.51,0.741,0.823,0.926,0.823,0.823,0,0,SEARCHING,0.741,0.263,0.000,-0.135
19:57:17.864,INSPECTING,25.415,-26.354,1.000,0.00,0.00,-149.11,0.658,0.738,0.841,0.738,0.738,0,0,RIGHT,0.841,0.150,0.000,-1.100
19:57:18.039,INSPECTING,25.391,-26.369,1.000,0.00,0.00,-149.81,0.618,0.702,0.806,0.702,0.700,0,0,RIGHT,0.806,0.150,0.000,-1.100
19:57:18.231,INSPECTING,25.345,-26.394,1.000,0.00,0.00,-151.36,0.599,0.683,0.795,0.683,0.685,0,0,RIGHT,0.795,0.150,0.000,-1.100
19:57:18.564,INSPECTING,25.310,-26.409,1.000,0.00,0.00,-166.57,0.605,0.778,1.090,0.778,0.781,0,0,RIGHT,1.090,0.150,0.000,-1.100
19:57:18.776,SEARCHING,25.280,-26.413,1.000,0.00,0.00,-179.17,0.661,0.942,1.956,0.938,0.942,0,0,SEARCHING,0.661,0.301,-0.010,-0.500
19:57:18.947,SEARCHING,25.250,-26.410,1.000,-0.00,0.00,168.22,0.823,1.387,5.085,1.346,1.362,0,0,SEARCHING,0.823,0.444,-0.019,-1.018
19:57:19.128,SEARCHING,25.222,-26.401,1.000,-0.00,0.00,155.62,1.050,2.080,7.890,2.061,2.025,0,0,SEARCHING,1.050,0.666,0.019,-0.826
19:57:19.330,SEARCHING,25.191,-26.383,1.000,-0.00,0.00,144.38,1.733,6.730,5.085,6.022,2.434,0,0,SEARCHING,1.733,0.800,0.538,-0.380
19:57:19.515,SEARCHING,25.112,-26.311,1.000,-0.00,0.00,130.86,2.692,7.890,5.448,6.022,2.514,0,0,SEARCHING,2.514,0.800,0.510,-0.188
19:57:19.682,SEARCHING,24.994,-26.137,1.000,-0.00,0.00,118.49,7.381,5.581,5.321,5.200,2.460,0,0,SEARCHING,2.460,0.800,0.471,0.052
19:57:19.877,SEARCHING,24.855,-25.849,1.000,-0.00,0.00,114.88,7.627,5.448,4.868,5.085,2.487,0,0,SEARCHING,2.487,0.800,0.452,0.074
19:57:20.075,SEARCHING,24.787,-25.704,1.000,-0.00,0.00,115.76,7.627,5.321,4.868,5.085,2.460,0,0,SEARCHING,2.460,0.800,0.462,0.074
19:57:20.271,SEARCHING,24.716,-25.560,1.000,-0.00,0.00,116.63,7.890,5.085,4.767,4.974,2.460,0,0,SEARCHING,2.460,0.800,0.452,0.083
19:57:20.470,SEARCHING,24.644,-25.418,1.000,-0.00,0.00,117.56,7.381,4.974,4.767,4.767,2.460,0,0,SEARCHING,2.460,0.800,0.433,0.074
19:57:20.685,SEARCHING,24.569,-25.277,1.000,-0.00,0.00,118.46,7.627,4.670,4.670,4.670,2.460,0,0,SEARCHING,2.460,0.800,0.423,0.083
19:57:20.877,SEARCHING,24.472,-25.102,1.000,-0.00,0.00,119.61,7.627,4.576,4.767,4.576,2.460,0,0,SEARCHING,2.460,0.800,0.413,0.079
19:57:21.068,SEARCHING,24.412,-24.998,1.000,-0.00,0.00,120.29,7.381,4.400,4.576,4.400,2.460,0,0,SEARCHING,2.460,0.800,0.394,0.083
19:57:21.287,SEARCHING,24.330,-24.860,1.000,-0.00,0.00,121.25,6.934,4.160,4.237,4.160,2.460,0,0,SEARCHING,2.460,0.800,0.365,0.092
19:57:21.490,SEARCHING,24.246,-24.724,1.000,-0.00,0.00,122.24,6.934,4.086,4.086,4.014,2.434,0,0,SEARCHING,2.434,0.800,0.356,0.101
19:57:21.672,SEARCHING,24.160,-24.589,1.000,-0.00,0.00,123.37,6.730,3.751,3.878,3.945,2.409,0,0,SEARCHING,2.409,0.800,0.356,0.109
19:57:21.874,SEARCHING,24.070,-24.456,1.000,-0.00,0.00,124.60,6.538,3.814,3.632,3.878,2.434,0,0,SEARCHING,2.434,0.800,0.337,0.122
19:57:22.078,SEARCHING,23.978,-24.326,1.000,-0.00,0.00,126.01,6.184,7.627,3.520,3.751,2.434,0,0,SEARCHING,2.434,0.800,0.317,0.122
19:57:22.273,SEARCHING,23.882,-24.197,1.000,-0.00,0.00,127.44,6.022,7.627,3.316,6.022,2.434,0,0,SEARCHING,2.434,0.800,0.538,0.135
19:57:22.477,SEARCHING,23.784,-24.072,1.000,-0.00,0.00,128.98,5.720,7.890,3.223,5.867,2.434,0,0,SEARCHING,2.434,0.800,0.529,0.135
19:57:22.686,SEARCHING,23.682,-23.948,1.000,-0.00,0.00,130.51,5.321,7.890,2.934,5.867,2.409,0,0,SEARCHING,2.409,0.800,0.538,0.153
19:57:22.890,SEARCHING,23.576,-23.828,1.000,-0.00,0.00,132.21,5.200,7.627,2.757,5.867,2.409,0,0,SEARCHING,2.409,0.800,0.538,0.170
19:57:23.083,SEARCHING,23.467,-23.711,1.000,-0.00,0.00,134.10,4.868,7.890,2.724,5.867,2.434,0,0,SEARCHING,2.434,0.800,0.529,0.162
19:57:23.292,SEARCHING,23.354,-23.598,1.000,-0.00,0.00,136.02,4.670,7.381,2.934,6.022,2.434,0,0,SEARCHING,2.434,0.800,0.538,0.127
19:57:23.481,SEARCHING,23.237,-23.489,1.000,-0.00,0.00,137.69,4.317,7.151,8.172,5.867,2.487,0,0,SEARCHING,2.487,0.800,0.510,-0.109
19:57:23.683,SEARCHING,23.119,-23.380,1.000,-0.00,0.00,136.77,4.487,7.151,8.172,6.022,2.434,0,0,SEARCHING,2.434,0.800,0.538,-0.101
19:57:23.880,SEARCHING,23.004,-23.270,1.000,-0.00,0.00,135.60,4.576,7.381,7.890,5.867,2.359,0,0,SEARCHING,2.359,0.800,0.558,-0.092
19:57:24.081,SEARCHING,22.890,-23.157,1.000,-0.00,0.00,134.55,4.670,7.627,7.627,5.867,2.460,0,0,SEARCHING,2.460,0.800,0.519,-0.083
19:57:24.279,SEARCHING,22.779,-23.042,1.000,-0.00,0.00,133.53,4.670,7.890,8.172,5.867,2.487,0,0,SEARCHING,2.487,0.800,0.510,-0.092
19:57:24.486,SEARCHING,22.670,-22.925,1.000,-0.00,0.00,132.52,4.670,7.890,7.890,5.720,2.460,0,0,SEARCHING,2.460,0.800,0.510,-0.087
19:57:24.680,SEARCHING,22.563,-22.806,1.000,-0.00,0.00,131.55,4.670,8.172,7.627,5.867,2.460,0,0,SEARCHING,2.460,0.800,0.519,-0.083
19:57:24.882,SEARCHING,22.457,-22.686,1.000,-0.00,0.00,130.60,4.767,7.890,7.627,5.867,2.460,0,0,SEARCHING,2.460,0.800,0.519,-0.079
19:57:25.084,SEARCHING,22.354,-22.563,1.000,-0.00,0.00,129.70,4.767,8.172,7.151,5.867,2.460,0,0,SEARCHING,2.460,0.800,0.519,-0.070
19:57:25.283,SEARCHING,22.253,-22.440,1.000,-0.00,0.00,128.87,4.767,7.890,6.934,5.867,2.460,0,0,SEARCHING,2.460,0.800,0.519,-0.066
19:57:25.491,SEARCHING,22.153,-22.314,1.000,-0.00,0.00,128.10,4.767,8.172,6.730,5.720,2.434,0,0,SEARCHING,2.434,0.800,0.519,-0.061
19:57:25.694,SEARCHING,22.055,-22.188,1.000,-0.00,0.00,127.42,4.767,8.172,6.538,5.720,2.409,0,0,SEARCHING,2.409,0.800,0.529,-0.057
19:57:25.891,SEARCHING,21.958,-22.060,1.000,-0.00,0.00,126.77,4.767,7.627,6.730,5.720,2.409,0,0,SEARCHING,2.409,0.800,0.529,-0.061
19:57:26.095,SEARCHING,21.863,-21.932,1.000,-0.00,0.00,126.11,4.868,8.172,6.356,5.720,2.434,0,0,SEARCHING,2.434,0.800,0.519,0.000
19:57:26.292,SEARCHING,21.770,-21.802,1.000,-0.00,0.00,125.75,4.868,7.890,6.356,5.720,2.434,0,0,SEARCHING,2.434,0.800,0.519,0.000
19:57:26.490,SEARCHING,21.676,-21.672,1.000,-0.00,0.00,125.75,4.868,8.172,6.356,5.720,2.409,0,0,SEARCHING,2.409,0.800,0.529,0.000
19:57:26.692,SEARCHING,21.583,-21.542,1.000,-0.00,0.00,125.75,4.868,7.890,6.356,5.720,2.409,0,0,SEARCHING,2.409,0.800,0.529,0.000
19:57:26.895,SEARCHING,21.489,-21.413,1.000,-0.00,0.00,125.75,4.868,7.890,6.356,5.720,2.409,0,0,SEARCHING,2.409,0.800,0.529,0.000
19:57:27.109,SEARCHING,21.396,-21.283,1.000,-0.00,0.00,125.75,4.868,7.627,6.356,5.448,2.487,0,0,SEARCHING,2.487,0.800,0.481,0.000
19:57:27.306,SEARCHING,21.279,-21.120,1.000,-0.00,0.00,125.75,4.868,7.627,6.356,5.581,2.434,0,0,SEARCHING,2.434,0.800,0.510,0.000
19:57:27.492,SEARCHING,21.209,-21.023,1.000,-0.00,0.00,125.75,4.868,7.627,6.538,5.581,2.434,0,0,SEARCHING,2.434,0.800,0.510,-0.052
19:57:27.692,SEARCHING,21.115,-20.893,1.000,-0.00,0.00,125.45,4.868,6.934,6.356,5.581,2.434,0,0,SEARCHING,2.434,0.800,0.510,0.000
19:57:27.907,SEARCHING,21.023,-20.763,1.000,-0.00,0.00,125.45,4.974,6.934,6.356,5.581,2.434,0,0,SEARCHING,2.434,0.800,0.510,0.000
19:57:28.095,SEARCHING,20.930,-20.632,1.000,-0.00,0.00,125.45,4.974,7.151,6.538,5.581,2.434,0,0,SEARCHING,2.434,0.800,0.510,0.000
19:57:28.300,SEARCHING,20.837,-20.502,1.000,-0.00,0.00,125.45,5.085,6.934,6.538,5.448,2.434,0,0,SEARCHING,2.434,0.800,0.500,0.000
19:57:28.506,SEARCHING,20.744,-20.372,1.000,-0.00,0.00,125.45,5.085,6.934,6.538,5.448,2.434,0,0,SEARCHING,2.434,0.800,0.500,0.000
19:57:28.700,SEARCHING,20.651,-20.241,1.000,-0.00,0.00,125.30,5.085,6.934,6.730,5.448,2.409,0,0,SEARCHING,2.409,0.800,0.510,0.000
19:57:28.900,SEARCHING,20.559,-20.111,1.000,-0.00,0.00,125.27,5.085,6.538,6.538,5.321,2.460,0,0,SEARCHING,2.460,0.800,0.481,0.000
19:57:29.123,SEARCHING,20.467,-19.980,1.000,-0.00,0.00,125.27,5.085,6.538,6.184,5.200,2.460,0,0,SEARCHING,2.460,0.800,0.471,0.000
19:57:29.305,SEARCHING,20.374,-19.849,1.000,-0.00,0.00,125.27,5.085,6.356,6.022,5.085,2.409,0,0,SEARCHING,2.409,0.800,0.481,0.000
19:57:29.496,SEARCHING,20.282,-19.719,1.000,-0.00,0.00,125.15,5.200,6.356,7.151,5.085,2.409,0,0,SEARCHING,2.409,0.800,0.481,-0.052
19:57:29.703,SEARCHING,20.190,-19.588,1.000,-0.00,0.00,124.82,5.321,6.022,5.720,4.974,2.434,0,0,SEARCHING,2.434,0.800,0.462,0.000
19:57:29.902,SEARCHING,20.099,-19.456,1.000,-0.00,0.00,124.79,5.448,5.448,5.720,4.974,2.487,0,0,SEARCHING,2.487,0.800,0.442,0.000
19:57:30.097,SEARCHING,20.008,-19.325,1.000,-0.00,0.00,124.79,5.321,5.448,5.720,5.085,2.460,0,0,SEARCHING,2.460,0.800,0.462,0.000
19:57:31.222,SEARCHING,19.962,-19.259,1.000,-0.00,0.00,124.79,5.321,5.581,5.720,5.085,2.434,0,0,SEARCHING,2.434,0.800,0.471,0.000
19:57:31.317,SEARCHING,19.916,-19.193,1.000,-0.00,0.00,124.79,5.321,5.448,5.720,5.085,2.409,0,0,SEARCHING,2.409,0.800,0.481,0.000
19:57:31.510,SEARCHING,19.688,-18.865,1.000,-0.00,0.00,124.79,5.321,5.085,5.720,4.974,2.460,0,0,SEARCHING,2.460,0.800,0.452,0.000
19:57:31.707,SEARCHING,19.597,-18.734,1.000,-0.00,0.00,124.79,5.200,4.868,5.720,4.868,2.460,0,0,SEARCHING,2.460,0.800,0.442,0.000
19:57:31.904,SEARCHING,19.506,-18.602,1.000,-0.00,0.00,124.79,5.200,4.767,5.720,4.767,2.409,0,0,SEARCHING,2.409,0.800,0.452,0.000
19:57:32.107,SEARCHING,19.414,-18.471,1.000,-0.00,0.00,124.75,4.086,4.767,5.581,4.670,2.359,0,0,SEARCHING,2.359,0.800,0.462,-0.066
19:57:32.331,SEARCHING,19.324,-18.339,1.000,-0.00,0.00,124.00,5.448,4.576,5.581,4.576,2.434,0,0,SEARCHING,2.434,0.800,0.423,0.000
19:57:32.511,SEARCHING,19.234,-18.206,1.000,-0.00,0.00,124.32,4.160,4.400,5.581,4.487,2.487,0,0,SEARCHING,2.487,0.800,0.394,-0.061
19:57:32.712,SEARCHING,19.144,-18.074,1.000,-0.00,0.00,123.65,4.086,4.317,4.086,4.400,2.434,0,0,SEARCHING,2.434,0.800,0.404,0.000
19:57:32.914,SEARCHING,19.056,-17.941,1.000,-0.00,0.00,123.58,4.086,4.086,4.974,4.317,2.434,0,0,SEARCHING,2.434,0.800,0.394,0.000
19:57:33.109,SEARCHING,18.968,-17.807,1.000,-0.00,0.00,123.16,4.086,3.878,4.974,4.237,2.434,0,0,SEARCHING,2.434,0.800,0.385,0.000
19:57:33.342,SEARCHING,18.881,-17.673,1.000,-0.00,0.00,122.87,4.086,3.814,4.767,4.317,2.460,0,0,SEARCHING,2.460,0.800,0.385,0.000
19:57:33.518,SEARCHING,18.772,-17.505,1.000,-0.00,0.00,122.87,4.086,3.632,4.868,4.317,2.460,0,0,SEARCHING,2.460,0.800,0.385,0.000
19:57:33.716,SEARCHING,18.707,-17.404,1.000,-0.00,0.00,122.87,4.086,3.520,4.767,4.317,2.460,0,0,SEARCHING,2.460,0.800,0.385,0.000
19:57:33.912,SEARCHING,18.620,-17.269,1.000,-0.00,0.00,122.87,4.086,3.316,4.576,4.317,2.409,0,0,SEARCHING,2.409,0.800,0.404,0.000
19:57:34.121,SEARCHING,18.534,-17.135,1.000,-0.00,0.00,122.87,4.317,3.134,4.487,4.317,2.434,0,0,SEARCHING,2.434,0.800,0.394,0.000
19:57:34.325,SEARCHING,18.447,-17.001,1.000,-0.00,0.00,122.87,4.160,2.860,4.317,4.317,2.409,0,0,SEARCHING,2.409,0.800,0.404,0.000
19:57:34.520,SEARCHING,18.360,-16.866,1.000,-0.00,0.00,122.87,4.160,2.692,4.086,4.317,2.460,0,0,SEARCHING,2.460,0.800,0.385,0.000
19:57:34.719,SEARCHING,18.273,-16.732,1.000,-0.00,0.00,122.87,4.160,2.630,4.086,4.160,2.460,0,0,SEARCHING,2.460,0.800,0.365,0.000
19:57:34.916,SEARCHING,18.186,-16.597,1.000,-0.00,0.00,122.87,3.945,2.243,3.878,4.014,2.460,0,0,SEARCHING,2.243,0.718,0.346,0.000
19:57:35.118,SEARCHING,18.105,-16.471,1.000,-0.00,0.00,122.87,2.692,2.222,3.814,3.878,2.384,0,0,SEARCHING,2.222,0.711,0.356,-0.109
19:57:35.322,SEARCHING,18.029,-16.351,1.000,-0.00,0.00,121.76,2.359,2.200,3.691,2.311,2.243,0,0,SEARCHING,2.200,0.704,0.029,-0.153
19:57:35.519,SEARCHING,17.956,-16.230,1.000,-0.00,0.00,120.15,2.138,2.043,3.575,2.061,2.099,0,0,SEARCHING,2.043,0.654,-0.019,-0.188
19:57:35.721,SEARCHING,17.890,-16.113,1.000,-0.00,0.00,118.13,1.956,1.990,3.467,1.990,1.990,0,0,SEARCHING,1.956,0.637,0.000,-0.223
19:57:35.915,SEARCHING,17.832,-16.000,1.000,-0.00,0.00,115.64,1.788,1.923,3.415,1.923,1.923,0,0,SEARCHING,1.788,0.615,0.000,-0.267
19:57:36.126,SEARCHING,17.781,-15.887,1.000,-0.00,0.00,112.70,1.658,1.788,3.415,1.816,1.845,0,0,SEARCHING,1.658,0.572,-0.019,-0.310
19:57:36.324,SEARCHING,17.739,-15.778,1.000,-0.00,0.00,109.32,1.496,4.670,3.316,3.051,2.434,0,0,SEARCHING,1.496,0.800,0.183,-0.367
19:57:36.525,SEARCHING,17.691,-15.628,1.000,-0.00,0.00,105.37,1.387,3.878,3.223,2.896,2.434,0,0,SEARCHING,1.387,0.800,0.144,-0.411
19:57:36.719,SEARCHING,17.654,-15.472,1.000,-0.00,0.00,100.73,1.278,3.269,3.134,2.757,2.460,0,0,SEARCHING,1.278,0.800,0.096,-0.463
19:57:36.919,SEARCHING,17.631,-15.314,1.000,-0.00,0.00,95.76,5.448,3.011,3.092,2.757,2.487,0,0,SEARCHING,2.487,0.800,0.087,0.140
19:57:37.122,SEARCHING,17.613,-15.155,1.000,-0.00,0.00,97.47,5.867,2.860,2.860,2.600,2.460,0,0,SEARCHING,2.460,0.800,0.048,0.179
19:57:37.327,SEARCHING,17.590,-14.997,1.000,-0.00,0.00,99.47,6.538,2.790,2.724,2.514,2.460,0,0,SEARCHING,2.460,0.800,0.019,0.214
19:57:37.522,SEARCHING,17.561,-14.839,1.000,-0.00,0.00,101.80,7.381,2.896,2.514,2.514,2.434,0,0,SEARCHING,2.434,0.800,0.029,0.262
19:57:37.722,SEARCHING,17.524,-14.684,1.000,-0.00,0.00,104.70,7.381,3.011,2.335,2.514,2.434,0,0,SEARCHING,2.335,0.800,0.029,0.293
19:57:37.923,SEARCHING,17.480,-14.530,1.000,-0.00,0.00,107.98,7.151,3.415,2.119,2.514,2.434,0,0,SEARCHING,2.119,0.800,0.029,0.332
19:57:38.135,SEARCHING,17.426,-14.379,1.000,-0.00,0.00,111.69,6.356,4.014,1.973,2.542,2.460,0,0,SEARCHING,1.973,0.800,0.029,0.350
19:57:38.326,SEARCHING,17.362,-14.233,1.000,-0.00,0.00,115.72,5.321,4.670,2.138,2.514,2.434,0,0,SEARCHING,2.138,0.800,0.029,0.280
19:57:38.530,SEARCHING,17.289,-14.090,1.000,-0.00,0.00,119.13,4.767,6.356,2.434,2.487,2.460,0,0,SEARCHING,2.434,0.800,0.010,0.201
19:57:38.731,SEARCHING,17.208,-13.952,1.000,-0.00,0.00,121.71,4.487,7.381,2.542,2.514,2.487,0,0,SEARCHING,2.487,0.800,0.010,0.170
19:57:38.919,SEARCHING,17.122,-13.818,1.000,-0.00,0.00,123.70,4.160,7.151,2.896,2.514,2.434,0,0,SEARCHING,2.434,0.800,0.029,0.105
19:57:39.118,SEARCHING,17.031,-13.686,1.000,-0.00,0.00,125.03,3.945,7.151,3.051,2.460,2.434,0,0,SEARCHING,2.434,0.800,0.010,0.074
19:57:39.319,SEARCHING,16.939,-13.555,1.000,-0.00,0.00,125.96,3.814,7.151,3.269,2.434,2.434,0,0,SEARCHING,2.434,0.800,0.000,0.000
19:57:39.522,SEARCHING,16.844,-13.426,1.000,-0.00,0.00,126.26,3.814,6.934,3.223,2.487,2.434,0,0,SEARCHING,2.434,0.800,0.019,0.000
19:57:39.724,SEARCHING,16.750,-13.297,1.000,-0.00,0.00,126.26,3.691,7.151,3.178,4.400,2.409,0,0,SEARCHING,2.409,0.800,0.413,0.000
19:57:39.926,SEARCHING,16.655,-13.168,1.000,-0.00,0.00,126.26,3.751,7.151,3.092,4.974,2.409,0,0,SEARCHING,2.409,0.800,0.471,0.057
19:57:40.120,SEARCHING,16.560,-13.039,1.000,-0.00,0.00,126.82,3.575,6.730,3.223,4.974,2.434,0,0,SEARCHING,2.434,0.800,0.462,0.000
19:57:40.320,SEARCHING,16.464,-12.911,1.000,-0.00,0.00,126.82,3.575,6.730,3.269,4.974,2.434,0,0,SEARCHING,2.434,0.800,0.462,0.000
19:57:40.516,SEARCHING,16.368,-12.783,1.000,-0.00,0.00,126.82,3.575,6.934,3.415,4.868,2.434,0,0,SEARCHING,2.434,0.800,0.452,0.000
19:57:40.725,SEARCHING,16.272,-12.655,1.000,-0.00,0.00,126.82,3.467,6.730,3.467,4.974,2.434,0,0,SEARCHING,2.434,0.800,0.462,0.000
19:57:40.931,SEARCHING,16.176,-12.527,1.000,-0.00,0.00,126.82,3.415,6.730,3.575,4.974,2.434,0,0,SEARCHING,2.434,0.800,0.462,0.000
19:57:41.130,SEARCHING,16.080,-12.399,1.000,-0.00,0.00,126.82,3.415,6.730,3.575,4.974,2.434,0,0,SEARCHING,2.434,0.800,0.462,0.000
19:57:41.326,SEARCHING,15.984,-12.271,1.000,-0.00,0.00,126.82,3.365,6.730,3.691,4.974,2.434,0,0,SEARCHING,2.434,0.800,0.462,0.000
19:57:41.525,SEARCHING,15.889,-12.143,1.000,-0.00,0.00,126.82,3.415,6.538,3.878,4.868,2.384,0,0,SEARCHING,2.384,0.800,0.471,0.000
19:57:41.736,SEARCHING,15.793,-12.015,1.000,-0.00,0.00,126.82,3.316,6.538,4.014,4.670,2.409,0,0,SEARCHING,2.409,0.800,0.442,-0.052
19:57:41.949,SEARCHING,15.697,-11.887,1.000,-0.00,0.00,126.55,3.316,6.538,4.086,4.670,2.409,0,0,SEARCHING,2.409,0.800,0.442,-0.057
19:57:42.139,SEARCHING,15.602,-11.758,1.000,-0.00,0.00,125.87,3.316,6.730,4.014,4.576,2.409,0,0,SEARCHING,2.409,0.800,0.433,-0.052
19:57:42.329,SEARCHING,15.509,-11.628,1.000,-0.00,0.00,125.27,3.316,6.538,3.945,4.400,2.434,0,0,SEARCHING,2.434,0.800,0.404,0.000
19:57:42.527,SEARCHING,15.417,-11.497,1.000,-0.00,0.00,125.00,3.316,6.730,3.945,4.317,2.409,0,0,SEARCHING,2.409,0.800,0.404,0.000
19:57:42.725,SEARCHING,15.325,-11.365,1.000,-0.00,0.00,125.00,3.316,6.538,3.945,4.160,2.384,0,0,SEARCHING,2.384,0.800,0.394,0.000
19:57:42.927,SEARCHING,15.234,-11.234,1.000,-0.00,0.00,125.00,3.365,6.356,4.086,4.014,2.384,0,0,SEARCHING,2.384,0.800,0.375,-0.052
19:57:43.127,SEARCHING,15.142,-11.103,1.000,-0.00,0.00,124.67,3.365,6.184,4.086,4.014,2.409,0,0,SEARCHING,2.409,0.800,0.365,-0.052
19:57:43.328,SEARCHING,15.052,-10.971,1.000,-0.00,0.00,124.07,3.269,6.184,4.014,3.878,2.409,0,0,SEARCHING,2.409,0.800,0.346,-0.057
19:57:43.529,SEARCHING,14.963,-10.838,1.000,-0.00,0.00,123.40,3.269,6.184,3.878,3.945,2.409,0,0,SEARCHING,2.409,0.800,0.356,0.000
19:57:43.733,SEARCHING,14.875,-10.705,1.000,-0.00,0.00,123.34,3.051,6.022,3.814,3.945,2.359,0,0,SEARCHING,2.359,0.800,0.375,-0.066
19:57:43.928,SEARCHING,14.787,-10.570,1.000,-0.00,0.00,122.65,3.011,6.184,3.751,3.945,2.384,0,0,SEARCHING,2.384,0.800,0.365,-0.066
19:57:44.131,SEARCHING,14.702,-10.435,1.000,-0.00,0.00,121.90,3.178,6.022,3.691,3.878,2.409,0,0,SEARCHING,2.409,0.800,0.346,0.000
19:57:44.335,SEARCHING,14.618,-10.299,1.000,-0.00,0.00,121.59,3.223,6.022,3.632,3.878,2.359,0,0,SEARCHING,2.359,0.800,0.365,0.000
19:57:44.537,SEARCHING,14.534,-10.163,1.000,-0.00,0.00,121.59,3.269,6.022,3.632,3.945,2.359,0,0,SEARCHING,2.359,0.800,0.375,0.000
19:57:44.746,SEARCHING,14.450,-10.026,1.000,-0.00,0.00,121.59,3.269,5.867,3.575,3.878,2.335,0,0,SEARCHING,2.335,0.800,0.375,0.000
19:57:44.932,SEARCHING,14.366,-9.890,1.000,-0.00,0.00,121.59,3.316,5.720,3.575,3.814,2.335,0,0,SEARCHING,2.335,0.800,0.365,0.000
19:57:45.134,SEARCHING,14.283,-9.754,1.000,-0.00,0.00,121.59,3.365,5.581,3.520,3.632,2.335,0,0,SEARCHING,2.335,0.800,0.337,0.000
19:57:45.336,SEARCHING,14.199,-9.618,1.000,-0.00,0.00,121.59,3.415,5.321,3.467,3.467,2.311,0,0,SEARCHING,2.311,0.800,0.317,0.000
19:57:45.535,SEARCHING,14.115,-9.481,1.000,-0.00,0.00,121.59,3.467,5.321,3.365,3.269,2.288,0,0,SEARCHING,2.288,0.800,0.288,0.000
19:57:45.749,SEARCHING,14.031,-9.345,1.000,-0.00,0.00,121.59,3.415,5.085,3.365,3.092,2.311,0,0,SEARCHING,2.311,0.800,0.240,0.000
19:57:45.947,SEARCHING,13.947,-9.209,1.000,-0.00,0.00,121.59,3.520,4.868,3.365,2.934,2.311,0,0,SEARCHING,2.311,0.800,0.202,0.000
19:57:46.136,SEARCHING,13.864,-9.072,1.000,-0.00,0.00,121.59,3.467,4.767,3.365,2.790,2.335,0,0,SEARCHING,2.335,0.800,0.154,0.000
19:57:46.335,SEARCHING,13.780,-8.936,1.000,-0.00,0.00,121.59,3.467,4.767,3.269,2.630,2.311,0,0,SEARCHING,2.311,0.800,0.115,0.000
19:57:46.537,SEARCHING,13.696,-8.800,1.000,-0.00,0.00,121.59,3.467,4.576,3.316,2.434,2.266,0,0,SEARCHING,2.266,0.800,0.067,0.000
19:57:46.738,SEARCHING,13.612,-8.664,1.000,-0.00,0.00,121.59,3.365,4.487,3.316,2.266,2.243,0,0,SEARCHING,2.243,0.800,0.010,0.000
19:57:46.941,SEARCHING,13.528,-8.527,1.000,-0.00,0.00,121.59,3.269,4.317,3.316,2.119,2.243,0,0,SEARCHING,2.119,0.800,-0.058,0.000
19:57:47.141,SEARCHING,13.445,-8.391,1.000,-0.00,0.00,121.59,3.092,4.160,3.269,2.007,2.222,0,0,SEARCHING,2.007,0.800,-0.106,0.000
19:57:47.334,SEARCHING,13.361,-8.255,1.000,-0.00,0.00,121.59,3.051,4.014,3.223,1.860,2.200,0,0,SEARCHING,1.860,0.800,-0.183,0.000
19:57:47.535,SEARCHING,13.277,-8.118,1.000,-0.00,0.00,121.59,3.092,3.691,3.269,1.788,2.200,0,0,SEARCHING,1.788,0.800,-0.231,0.000
19:57:47.744,SEARCHING,13.193,-7.982,1.000,-0.00,0.00,121.59,3.134,3.632,3.178,1.733,2.179,0,0,SEARCHING,1.733,0.800,-0.260,0.000
19:57:47.940,SEARCHING,13.109,-7.846,1.000,-0.00,0.00,121.59,3.269,3.520,3.178,1.695,2.179,0,0,SEARCHING,1.695,0.800,-0.288,0.000
19:57:48.139,SEARCHING,13.026,-7.710,1.000,-0.00,0.00,121.59,3.415,3.269,3.223,1.733,2.200,0,0,SEARCHING,1.733,0.800,-0.269,0.000
19:57:48.342,SEARCHING,12.942,-7.573,1.000,-0.00,0.00,121.59,3.415,3.134,3.178,1.747,2.179,0,0,SEARCHING,1.747,0.800,-0.250,0.000
19:57:48.538,SEARCHING,12.858,-7.437,1.000,-0.00,0.00,121.59,3.316,2.896,3.178,1.733,2.119,0,0,SEARCHING,1.733,0.800,-0.231,0.000
19:57:48.746,SEARCHING,12.774,-7.301,1.000,-0.00,0.00,121.59,3.365,2.724,3.051,1.747,2.119,0,0,SEARCHING,1.747,0.800,-0.221,0.000
19:57:48.938,SEARCHING,12.690,-7.164,1.000,-0.00,0.00,121.59,3.575,2.600,3.092,1.733,2.061,0,0,SEARCHING,1.733,0.800,-0.202,0.000
19:57:49.137,SEARCHING,12.607,-7.028,1.000,-0.00,0.00,121.62,3.575,2.434,3.011,1.733,1.990,0,0,SEARCHING,1.733,0.779,-0.163,0.052
19:57:49.342,SEARCHING,12.523,-6.895,1.000,-0.00,0.00,122.27,3.575,2.335,3.092,1.733,1.956,0,0,SEARCHING,1.733,0.747,-0.144,0.000
19:57:49.553,SEARCHING,12.442,-6.767,1.000,-0.00,0.00,122.59,3.467,2.311,2.972,1.695,1.923,0,0,SEARCHING,1.695,0.740,-0.154,0.000
19:57:49.749,SEARCHING,12.362,-6.642,1.000,-0.00,0.00,122.92,3.467,4.868,2.972,1.747,1.939,0,0,SEARCHING,1.747,0.800,-0.125,0.000
19:57:49.945,SEARCHING,12.278,-6.512,1.000,-0.00,0.00,123.10,3.365,4.767,2.896,1.760,1.923,0,0,SEARCHING,1.760,0.800,-0.106,0.000
19:57:50.145,SEARCHING,12.190,-6.378,1.000,-0.00,0.00,123.10,3.223,4.767,2.896,1.747,1.939,0,0,SEARCHING,1.747,0.800,-0.125,0.000
19:57:50.351,SEARCHING,12.103,-6.244,1.000,-0.00,0.00,123.10,3.134,4.767,2.860,1.600,1.956,0,0,SEARCHING,1.600,0.800,-0.250,0.000
19:57:50.552,SEARCHING,12.015,-6.110,1.000,-0.00,0.00,123.10,3.520,4.670,2.790,1.439,1.923,0,0,SEARCHING,1.439,0.800,-0.385,0.074
19:57:50.752,SEARCHING,11.928,-5.976,1.000,-0.00,0.00,123.57,3.134,4.487,2.757,1.278,1.923,0,0,SEARCHING,1.278,0.800,-0.577,0.000
19:57:50.965,SEARCHING,11.839,-5.844,1.000,-0.00,0.00,123.93,3.011,4.487,2.757,1.127,1.876,0,0,SEARCHING,1.127,0.800,-0.779,0.000
19:57:51.198,SEARCHING,11.749,-5.711,1.000,-0.00,0.00,123.93,2.724,4.014,2.825,0.965,1.760,0,0,SEARCHING,0.965,0.800,-1.000,0.000
19:57:51.521,SEARCHING,11.660,-5.578,1.000,-0.00,0.00,123.93,2.630,3.878,2.790,0.863,1.670,0,0,SEARCHING,0.863,0.800,-1.000,0.000
19:57:51.855,SEARCHING,11.571,-5.445,1.000,-0.00,0.00,123.93,2.460,3.092,2.757,0.809,1.546,0,0,SEARCHING,0.809,0.800,-1.000,0.000
19:57:52.018,SEARCHING,11.526,-5.379,1.000,-0.00,0.00,123.93,2.335,3.011,2.661,0.811,1.486,0,0,SEARCHING,0.811,0.800,-1.000,-0.026
19:57:52.285,SEARCHING,11.437,-5.246,1.000,-0.00,0.00,123.93,2.159,2.600,2.571,2.600,1.476,0,0,SEARCHING,1.476,0.800,0.644,-0.074
19:57:52.487,SEARCHING,11.303,-5.047,1.000,-0.00,0.00,123.76,2.043,2.311,2.434,2.571,1.486,0,0,SEARCHING,1.486,0.740,0.625,-0.079
19:57:52.655,SEARCHING,11.088,-4.718,1.000,-0.00,0.00,122.05,1.831,2.222,2.288,2.600,1.457,0,0,SEARCHING,1.457,0.711,0.663,-0.109
19:57:52.863,SEARCHING,11.013,-4.595,1.000,-0.00,0.00,120.84,1.720,2.099,2.159,2.692,1.476,0,0,SEARCHING,1.476,0.672,0.673,-0.118
19:57:53.064,SEARCHING,10.944,-4.477,1.000,-0.00,0.00,119.54,1.646,2.025,2.043,2.661,1.476,0,0,SEARCHING,1.476,0.648,0.663,-0.118
19:57:53.261,SEARCHING,10.880,-4.361,1.000,-0.00,0.00,118.19,1.567,1.956,1.939,2.724,1.486,0,0,SEARCHING,1.486,0.626,0.673,-0.122
19:57:53.462,SEARCHING,10.821,-4.249,1.000,-0.00,0.00,116.80,1.557,1.876,1.860,2.692,1.486,0,0,SEARCHING,1.486,0.600,0.663,-0.105
19:57:53.664,SEARCHING,10.768,-4.140,1.000,-0.00,0.00,115.39,1.486,1.774,1.760,2.514,1.476,0,0,SEARCHING,1.476,0.568,0.615,-0.105
19:57:53.859,SEARCHING,10.719,-4.035,1.000,-0.00,0.00,114.39,1.404,1.747,1.658,2.384,1.486,0,0,SEARCHING,1.404,0.559,0.558,-0.109
19:57:54.070,SEARCHING,10.673,-3.931,1.000,-0.00,0.00,113.17,1.346,1.670,1.578,2.243,1.486,0,0,SEARCHING,1.346,0.534,0.500,-0.109
19:57:54.269,SEARCHING,10.632,-3.832,1.000,-0.00,0.00,111.88,1.370,1.646,1.505,2.080,1.476,0,0,SEARCHING,1.370,0.527,0.433,-0.066
19:57:54.461,SEARCHING,10.593,-3.733,1.000,-0.00,0.00,110.97,1.362,1.611,1.430,1.990,1.467,0,0,SEARCHING,1.362,0.516,0.394,0.000
19:57:54.664,SEARCHING,10.556,-3.636,1.000,-0.00,0.00,110.70,1.346,1.536,1.378,1.891,1.421,0,0,SEARCHING,1.346,0.491,0.385,0.000
19:57:54.870,SEARCHING,10.521,-3.543,1.000,-0.00,0.00,110.70,1.346,1.496,1.323,1.802,1.362,0,0,SEARCHING,1.323,0.479,0.394,0.000
19:57:55.065,SEARCHING,10.487,-3.454,1.000,-0.00,0.00,110.70,1.346,1.378,1.264,1.720,1.204,0,0,SEARCHING,1.204,0.441,0.548,0.000
19:57:55.266,SEARCHING,10.455,-3.369,1.000,-0.00,0.00,110.70,1.370,1.346,1.217,1.634,1.179,0,0,SEARCHING,1.179,0.431,0.519,0.092
19:57:55.463,SEARCHING,10.424,-3.287,1.000,-0.00,0.00,111.62,1.362,1.439,1.173,1.646,1.111,0,0,SEARCHING,1.111,0.461,0.644,0.118
19:57:55.719,SEARCHING,10.389,-3.202,1.000,-0.00,0.00,112.90,1.354,1.567,1.122,1.567,0.965,0,0,SEARCHING,0.965,0.502,0.875,0.076
19:57:56.055,SEARCHING,10.352,-3.118,1.000,-0.00,0.00,114.32,1.362,1.578,1.122,1.600,0.934,0,0,SEARCHING,0.934,0.505,0.981,0.079
19:57:56.243,SEARCHING,10.332,-3.072,1.000,-0.00,0.00,114.76,1.346,1.378,1.095,1.600,0.901,0,0,SEARCHING,0.901,0.441,1.000,0.085
19:57:56.414,SEARCHING,10.310,-3.026,1.000,-0.00,0.00,115.20,1.323,1.404,1.064,1.557,0.817,0,0,SEARCHING,0.817,0.449,1.000,0.092
19:57:56.735,SEARCHING,10.256,-2.913,1.000,-0.00,0.00,116.33,1.271,1.378,0.995,1.439,0.665,0,0,SEARCHING,0.665,0.441,1.000,0.109
