timestamp,state,x,y,z,roll_deg,pitch_deg,yaw_deg,dist_left,dist_center,dist_right,dist_top,dist_bottom,dtof_alert,collision_event,best_dir,max_space,cmd_vx,cmd_vz,cmd_yaw
21:53:41.292,SEARCHING,0.000,0.000,0.000,0.00,0.00,0.00,10.000,10.000,10.000,10.000,10.000,0,0,SEARCHING,0.000,0.800,0.000,0.000
21:53:42.555,SEARCHING,0.048,0.000,1.000,0.00,0.00,0.00,10.000,10.000,10.000,10.000,10.000,0,0,SEARCHING,0.000,0.800,0.000,0.000
21:53:44.488,SEARCHING,0.144,-0.000,1.010,0.00,0.00,-0.90,1.956,3.011,5.321,2.972,2.487,0,0,SEARCHING,0.000,0.800,0.079,-0.259
21:53:44.499,SEARCHING,0.208,-0.002,1.024,0.00,0.00,-2.09,1.956,3.011,5.321,2.972,2.487,0,0,SEARCHING,0.000,0.800,0.079,-0.259
21:53:44.585,SEARCHING,0.288,-0.005,1.041,0.00,0.00,-3.57,2.007,3.269,6.356,3.269,2.542,0,0,SEARCHING,0.000,0.800,0.105,-0.273
21:53:44.768,SEARCHING,0.384,-0.013,1.062,0.00,0.00,-5.49,1.956,3.415,6.934,3.365,2.571,0,0,SEARCHING,0.000,0.800,0.110,-0.294
21:53:44.967,SEARCHING,0.479,-0.023,1.084,0.00,0.00,-7.55,1.973,3.415,7.627,3.415,2.661,0,0,SEARCHING,0.000,0.800,0.100,-0.301
21:53:45.167,SEARCHING,0.574,-0.037,1.103,0.00,0.00,-9.58,2.025,3.415,6.356,3.415,2.724,0,0,SEARCHING,0.000,0.800,0.089,-0.269
21:53:45.367,SEARCHING,0.668,-0.055,1.121,0.00,0.00,-11.31,2.119,3.520,5.448,3.467,2.757,0,0,SEARCHING,0.000,0.800,0.089,-0.231
21:53:45.568,SEARCHING,0.762,-0.075,1.139,0.00,0.00,-12.85,2.179,3.575,4.974,3.575,2.757,0,0,SEARCHING,0.000,0.800,0.100,-0.206
21:53:45.769,SEARCHING,0.856,-0.097,1.158,0.00,0.00,-14.22,2.222,3.691,4.670,3.691,2.896,0,0,SEARCHING,0.000,0.800,0.089,-0.189
21:53:45.971,SEARCHING,0.949,-0.121,1.177,0.00,0.00,-15.46,2.335,3.814,4.400,3.814,2.934,0,0,SEARCHING,0.000,0.800,0.094,-0.161
21:53:46.171,SEARCHING,1.041,-0.148,1.196,0.00,0.00,-16.53,2.384,3.878,4.237,3.945,2.972,0,0,SEARCHING,0.000,0.800,0.100,-0.147
21:53:46.371,SEARCHING,1.133,-0.176,1.215,0.00,0.00,-17.51,2.409,4.014,3.945,3.945,3.011,0,0,SEARCHING,0.000,0.800,0.094,-0.129
21:53:46.571,SEARCHING,1.224,-0.205,1.233,0.00,0.00,-18.38,2.434,4.086,3.814,4.086,3.051,0,0,SEARCHING,0.000,0.800,0.100,-0.119
21:53:46.772,SEARCHING,1.315,-0.236,1.253,0.00,0.00,-19.19,2.384,4.237,3.691,4.317,3.134,0,0,SEARCHING,0.000,0.800,0.105,-0.119
21:53:46.973,SEARCHING,1.405,-0.268,1.275,0.00,0.00,-20.02,2.311,4.576,3.632,4.487,3.134,0,0,SEARCHING,0.000,0.800,0.115,-0.126
21:53:47.173,SEARCHING,1.495,-0.301,1.298,0.00,0.00,-20.89,2.288,5.085,3.520,4.767,3.223,0,0,SEARCHING,0.000,0.800,0.121,-0.122
21:53:47.374,SEARCHING,1.585,-0.336,1.324,0.00,0.00,-21.71,2.335,5.200,3.467,5.200,3.269,0,0,SEARCHING,0.000,0.800,0.136,-0.112
21:53:47.574,SEARCHING,1.674,-0.372,1.350,0.00,0.00,-22.46,2.335,5.200,3.316,5.085,3.051,0,0,SEARCHING,0.000,0.800,0.157,-0.101
21:53:47.774,SEARCHING,1.762,-0.409,1.377,0.00,0.00,-23.15,2.335,5.321,3.223,5.085,3.365,0,0,SEARCHING,0.000,0.800,0.121,-0.094
21:53:47.975,SEARCHING,1.851,-0.447,1.401,0.00,0.00,-23.77,2.384,5.581,3.178,4.868,3.365,0,0,SEARCHING,0.000,0.800,0.110,-0.084
21:53:48.175,SEARCHING,1.938,-0.487,1.422,0.00,0.00,-24.33,2.409,6.184,3.051,4.868,3.575,0,0,SEARCHING,0.000,0.800,0.089,-0.070
21:53:48.376,SEARCHING,2.026,-0.526,1.440,0.00,0.00,-24.81,2.384,6.538,3.051,4.868,3.632,0,0,SEARCHING,0.000,0.800,0.084,-0.073
21:53:48.577,SEARCHING,2.113,-0.567,1.457,0.00,0.00,-25.31,2.409,7.151,2.972,4.868,3.632,0,0,SEARCHING,0.000,0.800,0.084,-0.063
21:53:48.777,SEARCHING,2.199,-0.608,1.473,0.00,0.00,-25.72,2.434,7.151,2.934,4.767,3.691,0,0,SEARCHING,0.000,0.800,0.073,-0.056
21:53:48.978,SEARCHING,2.286,-0.650,1.487,0.00,0.00,-26.09,2.434,7.627,2.896,4.767,3.520,0,0,SEARCHING,0.000,0.800,0.089,-0.052
21:53:49.178,SEARCHING,2.372,-0.693,1.503,0.00,0.00,-26.45,2.460,7.627,2.860,4.670,3.751,0,0,SEARCHING,0.000,0.800,0.063,-0.045
21:53:49.379,SEARCHING,2.458,-0.736,1.519,0.00,0.00,-26.78,2.460,7.627,2.825,4.670,3.751,0,0,SEARCHING,0.000,0.800,0.063,-0.042
21:53:49.579,SEARCHING,2.543,-0.779,1.530,0.00,0.00,-27.06,2.460,7.890,2.724,4.670,3.814,0,0,SEARCHING,0.000,0.800,0.058,-0.031
21:53:49.779,SEARCHING,2.629,-0.823,1.541,0.00,0.00,-27.30,2.434,7.627,2.692,4.670,3.814,0,0,SEARCHING,0.000,0.800,0.058,-0.031
21:53:49.979,SEARCHING,2.714,-0.867,1.552,0.00,0.00,-27.51,2.460,7.627,2.661,4.576,3.878,0,0,SEARCHING,0.000,0.800,0.047,-0.024
21:53:50.180,SEARCHING,2.799,-0.911,1.562,0.00,0.00,-27.69,2.487,7.381,2.661,4.576,3.945,0,0,SEARCHING,0.000,0.800,0.042,-0.021
21:53:50.381,SEARCHING,2.884,-0.956,1.570,0.00,0.00,-27.84,2.600,7.151,2.661,4.487,3.945,0,0,SEARCHING,0.000,0.800,0.037,-0.007
21:53:50.581,SEARCHING,2.969,-1.001,1.578,0.00,0.00,-27.81,2.934,7.151,2.600,4.487,3.945,0,0,SEARCHING,0.000,0.800,0.037,0.035
21:53:50.782,SEARCHING,3.054,-1.046,1.586,0.00,0.00,-27.57,2.972,7.151,2.661,4.487,3.945,0,0,SEARCHING,0.000,0.800,0.037,0.031
21:53:50.983,SEARCHING,3.139,-1.090,1.593,0.00,0.00,-27.33,2.972,7.381,2.661,4.487,4.014,0,0,SEARCHING,0.000,0.800,0.031,0.031
21:53:51.182,SEARCHING,3.224,-1.134,1.600,0.00,0.00,-27.13,2.934,7.627,2.600,4.487,4.014,0,0,SEARCHING,0.000,0.800,0.031,0.035
21:53:51.383,SEARCHING,3.310,-1.177,1.607,0.00,0.00,-26.91,2.896,7.627,2.600,4.487,3.878,0,0,SEARCHING,0.000,0.800,0.042,0.031
21:53:51.584,SEARCHING,3.395,-1.221,1.614,0.00,0.00,-26.72,2.860,7.381,2.661,4.487,4.014,0,0,SEARCHING,0.000,0.800,0.031,0.021
21:53:51.784,SEARCHING,3.481,-1.264,1.621,0.00,0.00,-26.56,2.825,7.381,2.661,4.487,4.086,0,0,SEARCHING,0.000,0.800,0.026,0.017
21:53:51.985,SEARCHING,3.567,-1.307,1.631,0.00,0.00,-26.47,2.757,7.151,2.630,4.400,4.160,0,0,SEARCHING,0.000,0.800,0.016,0.014
21:53:52.186,SEARCHING,3.653,-1.349,1.634,0.00,0.00,-26.39,2.692,7.151,2.630,4.400,4.086,0,0,SEARCHING,0.000,0.800,0.021,0.007
21:53:52.384,SEARCHING,3.739,-1.392,1.639,0.00,0.00,-26.32,2.661,7.151,2.600,4.400,4.014,0,0,SEARCHING,0.000,0.800,0.026,0.007
21:53:52.584,SEARCHING,3.825,-1.435,1.642,0.00,0.00,-26.27,2.630,6.934,2.630,4.400,4.086,0,0,SEARCHING,0.000,0.800,0.021,0.000
21:53:52.784,SEARCHING,3.911,-1.477,1.646,0.00,0.00,-26.25,2.661,6.934,2.571,4.400,4.160,0,0,SEARCHING,0.000,0.800,0.016,0.010
21:53:52.985,SEARCHING,3.997,-1.520,1.650,0.00,0.00,-26.19,2.661,6.934,2.600,4.400,4.160,0,0,SEARCHING,0.000,0.800,0.016,0.007
21:53:53.186,SEARCHING,4.084,-1.562,1.653,0.00,0.00,-26.15,2.600,6.730,2.600,4.317,4.160,0,0,SEARCHING,0.000,0.800,0.010,0.000
21:53:53.386,SEARCHING,4.170,-1.604,1.655,0.00,0.00,-26.18,2.600,6.730,2.542,4.400,4.160,0,0,SEARCHING,0.000,0.800,0.016,0.007
21:53:53.586,SEARCHING,4.256,-1.647,1.658,0.00,0.00,-26.15,2.571,6.730,2.825,4.400,4.086,0,0,SEARCHING,0.000,0.800,0.021,-0.028
21:53:53.786,SEARCHING,4.342,-1.689,1.662,0.00,0.00,-26.38,2.542,6.538,2.934,4.317,4.160,0,0,SEARCHING,0.000,0.800,0.010,-0.042
21:53:53.987,SEARCHING,4.428,-1.732,1.666,0.00,0.00,-26.63,2.630,6.538,2.934,4.317,4.160,0,0,SEARCHING,0.000,0.800,0.010,-0.031
21:53:54.187,SEARCHING,4.514,-1.775,1.668,0.00,0.00,-26.87,2.571,6.538,2.825,4.317,4.160,0,0,SEARCHING,0.000,0.800,0.010,-0.028
21:53:54.387,SEARCHING,4.599,-1.819,1.671,0.00,0.00,-27.09,2.542,6.356,2.860,4.317,4.160,0,0,SEARCHING,0.000,0.800,0.010,-0.035
21:53:54.589,SEARCHING,4.685,-1.862,1.673,0.00,0.00,-27.30,2.630,6.356,2.825,4.317,4.160,0,0,SEARCHING,0.000,0.800,0.010,-0.021
21:53:54.789,SEARCHING,4.770,-1.906,1.675,0.00,0.00,-27.42,2.542,6.184,2.790,4.317,3.945,0,0,SEARCHING,0.000,0.800,0.026,-0.028
21:53:54.989,SEARCHING,4.855,-1.951,1.678,0.00,0.00,-27.58,2.600,6.022,2.757,4.237,4.160,0,0,SEARCHING,0.000,0.800,0.005,-0.017
21:53:55.190,SEARCHING,4.940,-1.995,1.680,0.00,0.00,-27.70,2.571,6.022,2.692,4.237,3.878,0,0,SEARCHING,0.000,0.800,0.026,-0.014
21:53:55.390,SEARCHING,5.025,-2.040,1.685,0.00,0.00,-27.79,2.600,5.867,2.692,4.237,4.160,0,0,SEARCHING,0.000,0.800,0.005,-0.010
21:53:55.591,SEARCHING,5.110,-2.085,1.687,0.00,0.00,-27.85,2.571,5.720,2.630,4.237,4.160,0,0,SEARCHING,0.000,0.800,0.005,-0.007
21:53:55.792,SEARCHING,5.195,-2.130,1.688,0.00,0.00,-27.88,2.542,5.720,2.600,4.237,4.160,0,0,SEARCHING,0.000,0.800,0.005,-0.007
21:53:55.991,SEARCHING,5.280,-2.175,1.689,0.00,0.00,-27.93,2.600,5.448,2.600,4.237,4.237,0,0,SEARCHING,0.000,0.800,0.000,0.000
21:53:56.192,SEARCHING,5.364,-2.220,1.690,0.00,0.00,-27.92,2.661,5.448,2.571,4.237,4.237,0,0,SEARCHING,0.000,0.800,0.000,0.010
21:53:56.393,SEARCHING,5.449,-2.264,1.691,0.00,0.00,-27.85,2.692,5.321,2.600,4.317,4.237,0,0,SEARCHING,0.000,0.800,0.005,0.010
21:53:56.594,SEARCHING,5.534,-2.309,1.692,0.00,0.00,-27.78,2.757,5.200,2.514,4.317,4.237,0,0,SEARCHING,0.000,0.800,0.005,0.028
21:53:56.794,SEARCHING,5.619,-2.354,1.692,0.00,0.00,-27.61,2.757,5.321,2.542,4.317,4.237,0,0,SEARCHING,0.000,0.800,0.005,0.024
21:53:56.995,SEARCHING,5.704,-2.398,1.693,0.00,0.00,-27.46,2.724,5.200,2.542,4.237,4.160,0,0,SEARCHING,0.000,0.800,0.005,0.021
21:53:57.195,SEARCHING,5.790,-2.442,1.694,0.00,0.00,-27.33,2.757,5.085,2.630,4.237,4.237,0,0,SEARCHING,0.000,0.800,0.000,0.014
21:53:57.396,SEARCHING,5.875,-2.486,1.694,0.00,0.00,-27.24,2.757,5.085,2.630,4.317,4.014,0,0,SEARCHING,0.000,0.800,0.021,0.014
21:53:57.597,SEARCHING,5.960,-2.530,1.698,0.00,0.00,-27.14,2.757,4.974,2.600,4.237,4.237,0,0,SEARCHING,0.000,0.800,0.000,0.017
21:53:57.796,SEARCHING,6.046,-2.574,1.700,0.00,0.00,-27.02,2.757,4.974,2.571,4.317,4.237,0,0,SEARCHING,0.000,0.800,0.005,0.021
21:53:57.997,SEARCHING,6.131,-2.618,1.701,0.00,0.00,-26.91,2.724,4.974,2.600,4.317,4.237,0,0,SEARCHING,0.000,0.800,0.005,0.014
21:53:58.198,SEARCHING,6.217,-2.661,1.702,0.00,0.00,-26.83,2.692,4.868,2.542,4.317,4.317,0,0,SEARCHING,0.000,0.800,0.000,0.017
21:53:58.399,SEARCHING,6.303,-2.704,1.701,0.00,0.00,-26.74,2.661,4.868,2.571,4.237,4.317,0,0,SEARCHING,0.000,0.800,-0.005,0.010
21:53:58.599,SEARCHING,6.388,-2.747,1.703,0.00,0.00,-26.67,2.661,4.868,2.600,4.237,4.237,0,0,SEARCHING,0.000,0.800,0.000,0.007
21:53:58.800,SEARCHING,6.474,-2.790,1.702,0.00,0.00,-26.66,2.514,4.767,2.600,4.317,4.237,0,0,SEARCHING,0.000,0.800,0.005,-0.010
21:53:59.000,SEARCHING,6.560,-2.834,1.703,0.00,0.00,-26.30,4.086,4.670,2.514,4.317,4.317,0,0,SEARCHING,0.000,0.800,0.000,0.122
21:53:59.202,SEARCHING,6.646,-2.875,1.703,0.00,0.00,-25.41,4.086,4.767,3.945,4.317,4.237,0,0,SEARCHING,0.000,0.800,0.005,0.007
21:53:59.401,SEARCHING,6.733,-2.917,1.704,0.00,0.00,-25.36,3.945,4.767,3.814,4.237,4.237,0,0,SEARCHING,0.000,0.800,0.000,0.007
21:53:59.602,SEARCHING,6.820,-2.958,1.704,0.00,0.00,-25.32,3.878,4.868,3.751,4.237,4.237,0,0,SEARCHING,0.000,0.800,0.000,0.007
21:53:59.802,SEARCHING,6.907,-2.999,1.703,0.00,0.00,-25.28,3.814,4.767,3.632,4.317,4.237,0,0,SEARCHING,0.000,0.800,0.005,0.010
21:54:00.003,SEARCHING,6.993,-3.040,1.704,0.00,0.00,-25.23,3.632,4.767,3.520,4.317,4.237,0,0,SEARCHING,0.000,0.800,0.005,0.007
21:54:00.204,SEARCHING,7.080,-3.081,1.705,0.00,0.00,-25.18,3.575,4.767,3.467,4.237,4.237,0,0,SEARCHING,0.000,0.800,0.000,0.007
21:54:00.404,SEARCHING,7.167,-3.121,1.705,0.00,0.00,-25.13,3.520,4.670,3.365,4.317,4.237,0,0,SEARCHING,0.000,0.800,0.005,0.010
21:54:00.604,SEARCHING,7.254,-3.162,1.706,0.00,0.00,-25.02,3.415,4.670,3.316,4.237,4.237,0,0,SEARCHING,0.000,0.800,0.000,0.007
21:54:00.805,SEARCHING,7.341,-3.203,1.707,0.00,0.00,-24.98,3.223,4.767,3.178,4.237,4.086,0,0,SEARCHING,0.000,0.800,0.010,0.003
21:54:01.006,SEARCHING,7.428,-3.243,1.709,0.00,0.00,-24.93,3.178,4.670,3.051,4.237,4.014,0,0,SEARCHING,0.000,0.800,0.016,0.010
21:54:01.206,SEARCHING,7.515,-3.284,1.714,0.00,0.00,-24.86,3.051,4.487,2.860,4.237,3.945,0,0,SEARCHING,0.000,0.800,0.021,0.017
21:54:01.407,SEARCHING,7.602,-3.324,1.720,0.00,0.00,-24.76,2.972,4.400,2.860,4.237,3.575,0,0,SEARCHING,0.000,0.800,0.052,0.010
21:54:01.606,SEARCHING,7.690,-3.364,1.729,0.00,0.00,-24.74,2.790,4.317,2.790,4.160,3.632,0,0,SEARCHING,0.000,0.800,0.042,0.000
21:54:01.807,SEARCHING,7.777,-3.404,1.738,0.00,0.00,-24.71,2.757,4.317,2.692,4.160,3.467,0,0,SEARCHING,0.000,0.800,0.058,0.007
21:54:02.007,SEARCHING,7.864,-3.444,1.749,0.00,0.00,-24.65,2.692,4.237,2.600,4.160,3.520,0,0,SEARCHING,0.000,0.800,0.052,0.010
21:54:02.208,SEARCHING,7.951,-3.484,1.760,0.00,0.00,-24.56,2.630,4.237,2.487,4.086,3.467,0,0,SEARCHING,0.000,0.800,0.052,0.017
21:54:02.409,SEARCHING,8.039,-3.524,1.770,0.00,0.00,-24.46,2.384,4.086,2.384,4.014,3.467,0,0,SEARCHING,0.000,0.800,0.047,0.000
21:54:02.609,SEARCHING,8.126,-3.564,1.783,0.00,0.00,-24.45,2.335,3.751,2.311,4.014,3.269,0,0,SEARCHING,0.000,0.800,0.068,0.003
21:54:02.809,SEARCHING,8.213,-3.604,1.797,0.00,0.00,-24.43,2.288,3.814,2.243,3.945,3.178,0,0,SEARCHING,0.000,0.800,0.073,0.007
21:54:03.010,SEARCHING,8.301,-3.643,1.811,0.00,0.00,-24.40,2.243,3.632,2.243,3.878,3.134,0,0,SEARCHING,0.000,0.800,0.073,0.000
21:54:03.210,SEARCHING,8.388,-3.683,1.826,0.00,0.00,-24.43,2.159,3.691,2.243,3.751,3.011,0,0,SEARCHING,0.000,0.800,0.079,-0.014
21:54:03.411,SEARCHING,8.476,-3.723,1.842,0.00,0.00,-24.53,2.043,3.467,2.179,3.575,2.972,0,0,SEARCHING,0.000,0.800,0.068,-0.024
21:54:03.612,SEARCHING,8.563,-3.763,1.855,0.00,0.00,-24.68,2.007,3.467,2.080,3.575,2.896,0,0,SEARCHING,0.000,0.800,0.079,-0.014
21:54:03.812,SEARCHING,8.650,-3.803,1.870,0.00,0.00,-24.77,1.973,3.316,2.061,3.269,2.860,0,0,SEARCHING,0.000,0.800,0.052,-0.017
21:54:04.012,SEARCHING,8.737,-3.843,1.881,0.00,0.00,-24.90,1.891,3.223,2.025,3.269,2.860,0,0,SEARCHING,0.000,0.800,0.052,-0.028
21:54:04.214,SEARCHING,8.839,-3.891,1.892,0.00,0.00,-25.19,6.934,3.269,1.990,3.223,2.790,0,0,SEARCHING,0.000,0.800,0.058,0.287
21:54:04.415,SEARCHING,8.926,-3.930,1.903,0.00,0.00,-24.18,1.939,9.153,2.043,3.691,2.825,0,0,SEARCHING,0.000,0.800,0.100,-0.021
21:54:04.615,SEARCHING,9.014,-3.970,1.920,0.00,0.00,-23.30,6.538,9.949,1.990,3.691,2.896,0,0,SEARCHING,0.000,0.800,0.089,0.280
21:54:04.815,SEARCHING,9.102,-4.006,1.937,0.00,0.00,-21.40,1.760,9.153,2.119,3.632,2.934,0,0,SEARCHING,0.000,0.800,0.079,-0.077
21:54:05.016,SEARCHING,9.192,-4.042,1.953,0.00,0.00,-21.85,6.356,9.153,2.080,3.575,2.972,0,0,SEARCHING,0.000,0.800,0.068,0.259
21:54:05.216,SEARCHING,9.281,-4.076,1.966,0.00,0.00,-20.06,6.022,8.801,2.080,3.575,2.972,0,0,SEARCHING,0.000,0.800,0.068,0.252
21:54:05.417,SEARCHING,9.372,-4.108,1.979,0.00,0.00,-18.37,5.200,8.475,2.179,3.520,3.011,0,0,SEARCHING,0.000,0.800,0.058,0.213
21:54:05.618,SEARCHING,9.463,-4.137,1.990,0.00,0.00,-17.04,4.086,8.172,2.222,3.467,3.051,0,0,SEARCHING,0.000,0.800,0.047,0.164
21:54:05.818,SEARCHING,9.555,-4.165,1.999,0.00,0.00,-15.91,3.945,7.890,2.311,3.467,3.134,0,0,SEARCHING,0.000,0.800,0.037,0.143
21:54:06.018,SEARCHING,9.648,-4.190,2.006,0.00,0.00,-14.95,3.691,7.627,2.384,3.365,3.134,0,0,SEARCHING,0.000,0.800,0.026,0.119
21:54:06.219,SEARCHING,9.741,-4.215,2.012,0.00,0.00,-14.17,3.632,7.627,2.487,3.415,3.134,0,0,SEARCHING,0.000,0.800,0.031,0.101
21:54:06.420,SEARCHING,9.834,-4.238,2.017,0.00,0.00,-13.67,3.520,7.381,3.134,3.415,3.134,0,0,SEARCHING,0.000,0.800,0.031,0.028
21:54:06.620,SEARCHING,9.927,-4.260,2.024,0.00,0.00,-13.43,3.467,7.381,3.134,3.365,3.134,0,0,SEARCHING,0.000,0.800,0.026,0.024
21:54:06.822,SEARCHING,10.021,-4.282,2.030,0.00,0.00,-13.30,3.467,7.381,4.670,3.365,3.134,0,0,SEARCHING,0.000,0.800,0.026,-0.059
21:54:07.024,SEARCHING,10.114,-4.305,2.035,0.00,0.00,-13.89,3.520,7.381,6.356,3.415,3.134,0,0,SEARCHING,0.000,0.800,0.031,-0.101
21:54:07.222,SEARCHING,10.207,-4.328,2.041,0.00,0.00,-14.49,4.160,7.381,6.538,3.365,3.178,0,0,SEARCHING,0.000,0.800,0.021,-0.070
21:54:07.424,SEARCHING,10.300,-4.353,2.043,0.00,0.00,-14.96,5.085,7.151,7.890,3.415,3.467,0,0,SEARCHING,0.000,0.800,-0.005,-0.056
21:54:07.624,SEARCHING,10.392,-4.378,2.039,0.00,0.00,-15.38,4.974,7.151,8.801,3.415,3.751,0,0,SEARCHING,0.000,0.800,-0.031,-0.070
21:54:07.824,SEARCHING,10.485,-4.403,2.030,0.00,0.00,-15.89,5.085,7.151,9.949,3.415,4.160,0,0,SEARCHING,0.000,0.800,-0.063,-0.077
21:54:08.025,SEARCHING,10.577,-4.430,2.018,0.00,0.00,-16.40,4.974,7.151,9.949,3.415,4.237,0,0,SEARCHING,0.000,0.800,-0.068,-0.080
21:54:08.226,SEARCHING,10.669,-4.458,2.004,0.00,0.00,-16.94,5.085,7.151,9.534,3.415,4.237,0,0,SEARCHING,0.000,0.800,-0.068,-0.073
21:54:08.426,SEARCHING,10.761,-4.486,1.992,0.00,0.00,-17.45,5.085,7.151,9.534,3.467,4.237,0,0,SEARCHING,0.000,0.800,-0.063,-0.073
21:54:08.626,SEARCHING,10.852,-4.515,1.980,0.00,0.00,-17.92,5.085,7.151,9.153,3.520,4.237,0,0,SEARCHING,0.000,0.800,-0.058,-0.070
21:54:08.827,SEARCHING,10.944,-4.545,1.969,0.00,0.00,-18.40,5.085,7.151,8.475,3.575,4.317,0,0,SEARCHING,0.000,0.800,-0.058,-0.063
21:54:09.027,SEARCHING,11.035,-4.575,1.957,0.00,0.00,-18.84,5.085,7.151,8.475,3.632,4.317,0,0,SEARCHING,0.000,0.800,-0.052,-0.063
21:54:09.228,SEARCHING,11.125,-4.607,1.948,0.00,0.00,-19.30,5.085,7.151,8.801,3.632,4.317,0,0,SEARCHING,0.000,0.800,-0.052,-0.066
21:54:09.429,SEARCHING,11.216,-4.639,1.937,0.00,0.00,-19.76,5.085,7.151,8.475,3.691,4.317,0,0,SEARCHING,0.000,0.800,-0.047,-0.063
21:54:09.629,SEARCHING,11.306,-4.671,1.928,0.00,0.00,-20.18,5.085,7.151,8.172,3.751,4.317,0,0,SEARCHING,0.000,0.800,-0.042,-0.059
21:54:09.829,SEARCHING,11.396,-4.705,1.919,0.00,0.00,-20.60,5.200,7.151,8.172,3.751,4.317,0,0,SEARCHING,0.000,0.800,-0.042,-0.056
21:54:10.031,SEARCHING,11.486,-4.739,1.910,0.00,0.00,-20.99,5.200,6.934,7.890,3.751,4.317,0,0,SEARCHING,0.000,0.800,-0.042,-0.052
21:54:10.230,SEARCHING,11.575,-4.774,1.902,0.00,0.00,-21.34,5.200,6.934,8.475,3.751,4.317,0,0,SEARCHING,0.000,0.800,-0.042,-0.059
21:54:10.432,SEARCHING,11.665,-4.809,1.894,0.00,0.00,-21.75,5.085,6.934,8.475,3.751,4.317,0,0,SEARCHING,0.000,0.800,-0.042,-0.063
21:54:10.632,SEARCHING,11.754,-4.845,1.885,0.00,0.00,-22.20,5.321,6.934,8.172,3.751,4.317,0,0,SEARCHING,0.000,0.800,-0.042,-0.052
21:54:10.832,SEARCHING,11.843,-4.881,1.878,0.00,0.00,-22.56,5.200,6.934,7.890,3.751,4.317,0,0,SEARCHING,0.000,0.800,-0.042,-0.052
21:54:11.032,SEARCHING,11.931,-4.918,1.869,0.00,0.00,-22.93,4.974,6.934,7.890,3.751,4.317,0,0,SEARCHING,0.000,0.800,-0.042,-0.059
21:54:11.232,SEARCHING,12.019,-4.956,1.862,0.00,0.00,-23.34,4.974,6.730,7.890,3.878,4.317,0,0,SEARCHING,0.000,0.800,-0.031,-0.059
21:54:11.433,SEARCHING,12.107,-4.994,1.855,0.00,0.00,-23.76,4.868,6.730,8.172,3.878,4.317,0,0,SEARCHING,0.000,0.800,-0.031,-0.066
21:54:11.634,SEARCHING,12.195,-5.033,1.849,0.00,0.00,-24.20,4.767,6.730,8.172,3.945,4.317,0,0,SEARCHING,0.000,0.800,-0.026,-0.070
21:54:11.835,SEARCHING,12.283,-5.073,1.843,0.00,0.00,-24.66,4.767,6.538,7.890,3.878,4.400,0,0,SEARCHING,0.000,0.800,-0.037,-0.066
21:54:12.036,SEARCHING,12.370,-5.113,1.837,0.00,0.00,-25.12,4.767,6.538,7.890,3.945,4.400,0,0,SEARCHING,0.000,0.800,-0.031,-0.066
21:54:12.237,SEARCHING,12.457,-5.154,1.831,0.00,0.00,-25.56,4.767,6.538,7.890,4.014,4.317,0,0,SEARCHING,0.000,0.800,-0.021,-0.066
21:54:12.438,SEARCHING,12.543,-5.196,1.827,0.00,0.00,-26.03,4.767,6.538,7.627,3.945,4.317,0,0,SEARCHING,0.000,0.800,-0.026,-0.063
21:54:12.637,SEARCHING,12.629,-5.238,1.821,0.00,0.00,-26.47,4.670,6.538,7.627,3.945,4.317,0,0,SEARCHING,0.000,0.800,-0.026,-0.066
21:54:12.838,SEARCHING,12.715,-5.281,1.816,0.00,0.00,-26.93,4.670,6.538,7.627,3.945,4.317,0,0,SEARCHING,0.000,0.800,-0.026,-0.066
21:54:13.039,SEARCHING,12.800,-5.325,1.811,0.00,0.00,-27.38,4.670,6.356,7.627,3.945,4.317,0,0,SEARCHING,0.000,0.800,-0.026,-0.066
21:54:13.239,SEARCHING,12.885,-5.369,1.805,0.00,0.00,-27.82,4.670,6.538,7.151,4.014,4.317,0,0,SEARCHING,0.000,0.800,-0.021,-0.059
21:54:13.439,SEARCHING,12.970,-5.415,1.801,0.00,0.00,-28.23,4.670,6.538,7.151,3.945,4.317,0,0,SEARCHING,0.000,0.800,-0.026,-0.059
21:54:13.639,SEARCHING,13.055,-5.460,1.795,0.00,0.00,-28.64,4.670,6.356,7.151,3.945,4.317,0,0,SEARCHING,0.000,0.800,-0.026,-0.059
21:54:13.840,SEARCHING,13.139,-5.506,1.791,0.00,0.00,-29.03,4.670,6.356,6.934,4.014,4.317,0,0,SEARCHING,0.000,0.800,-0.021,-0.056
21:54:14.041,SEARCHING,13.223,-5.553,1.787,0.00,0.00,-29.43,4.576,6.356,6.934,4.014,4.317,0,0,SEARCHING,0.000,0.800,-0.021,-0.059
21:54:14.242,SEARCHING,13.306,-5.601,1.783,0.00,0.00,-29.84,4.670,6.356,6.934,4.086,4.317,0,0,SEARCHING,0.000,0.800,-0.016,-0.056
21:54:14.441,SEARCHING,13.389,-5.649,1.780,0.00,0.00,-30.22,4.576,6.356,6.934,4.086,4.317,0,0,SEARCHING,0.000,0.800,-0.016,-0.059
21:54:14.642,SEARCHING,13.472,-5.697,1.777,0.00,0.00,-30.61,4.576,6.356,6.730,4.086,4.317,0,0,SEARCHING,0.000,0.800,-0.016,-0.056
21:54:14.842,SEARCHING,13.555,-5.746,1.775,0.00,0.00,-30.98,4.576,6.184,6.538,4.160,4.317,0,0,SEARCHING,0.000,0.800,-0.010,-0.052
21:54:15.042,SEARCHING,13.637,-5.796,1.773,0.00,0.00,-31.34,4.576,6.184,6.538,4.160,4.317,0,0,SEARCHING,0.000,0.800,-0.010,-0.052
21:54:15.243,SEARCHING,13.719,-5.846,1.770,0.00,0.00,-31.70,4.576,6.184,6.538,4.086,4.317,0,0,SEARCHING,0.000,0.800,-0.016,-0.052
21:54:15.444,SEARCHING,13.800,-5.897,1.767,0.00,0.00,-32.06,4.487,6.184,6.356,4.086,4.237,0,0,SEARCHING,0.000,0.800,-0.010,-0.052
21:54:15.644,SEARCHING,13.881,-5.948,1.764,0.00,0.00,-32.45,4.317,6.022,6.356,4.086,4.317,0,0,SEARCHING,0.000,0.800,-0.016,-0.059
21:54:15.845,SEARCHING,13.962,-6.000,1.762,0.00,0.00,-32.86,4.237,6.184,6.184,4.086,4.237,0,0,SEARCHING,0.000,0.800,-0.010,-0.059
21:54:16.045,SEARCHING,14.043,-6.052,1.759,0.00,0.00,-33.27,4.160,6.022,6.184,4.086,4.237,0,0,SEARCHING,0.000,0.800,-0.010,-0.063
21:54:16.246,SEARCHING,14.123,-6.105,1.756,0.00,0.00,-33.70,4.086,6.022,6.022,4.160,4.317,0,0,SEARCHING,0.000,0.800,-0.010,-0.063
21:54:16.447,SEARCHING,14.202,-6.158,1.754,0.00,0.00,-34.12,4.086,6.184,6.022,4.160,4.237,0,0,SEARCHING,0.000,0.800,-0.005,-0.063
21:54:16.648,SEARCHING,14.282,-6.213,1.753,0.00,0.00,-34.54,4.014,6.022,5.867,4.160,4.317,0,0,SEARCHING,0.000,0.800,-0.010,-0.063
21:54:18.440,SEARCHING,14.348,-6.258,1.750,0.00,0.00,-34.89,4.086,6.022,5.867,4.086,4.317,0,0,SEARCHING,0.000,0.800,-0.016,-0.059
21:54:18.475,SEARCHING,14.400,-6.295,1.747,0.00,0.00,-35.16,4.086,6.022,5.867,4.160,4.237,0,0,SEARCHING,0.000,0.800,-0.005,-0.059
21:54:18.629,SEARCHING,14.478,-6.350,1.745,0.00,0.00,-35.58,4.014,5.867,5.720,4.160,4.317,0,0,SEARCHING,0.000,0.800,-0.010,-0.059
21:54:18.823,SEARCHING,14.556,-6.406,1.744,0.00,0.00,-36.01,3.945,5.720,5.720,4.160,4.317,0,0,SEARCHING,0.000,0.800,-0.010,-0.063
21:54:19.022,SEARCHING,14.634,-6.463,1.742,0.00,0.00,-36.45,3.945,5.720,5.581,4.237,4.237,0,0,SEARCHING,0.000,0.800,0.000,-0.059
21:54:19.224,SEARCHING,14.711,-6.520,1.742,0.00,0.00,-36.87,3.945,5.581,5.581,4.160,4.317,0,0,SEARCHING,0.000,0.800,-0.010,-0.059
21:54:19.425,SEARCHING,14.787,-6.578,1.740,0.00,0.00,-37.30,3.751,5.448,5.581,4.086,4.317,0,0,SEARCHING,0.000,0.800,-0.016,-0.070
21:54:19.627,SEARCHING,14.864,-6.637,1.738,0.00,0.00,-37.76,3.814,5.448,5.581,4.160,4.317,0,0,SEARCHING,0.000,0.800,-0.010,-0.066
21:54:19.827,SEARCHING,14.939,-6.696,1.736,0.00,0.00,-38.20,3.814,5.200,5.448,4.160,4.237,0,0,SEARCHING,0.000,0.800,-0.005,-0.063
21:54:20.027,SEARCHING,15.014,-6.755,1.734,0.00,0.00,-38.61,3.814,5.200,5.321,4.160,4.237,0,0,SEARCHING,0.000,0.800,-0.005,-0.059
21:54:20.229,SEARCHING,15.089,-6.815,1.734,0.00,0.00,-39.02,3.751,5.085,5.321,4.160,4.317,0,0,SEARCHING,0.000,0.800,-0.010,-0.063
21:54:20.429,SEARCHING,15.164,-6.876,1.732,0.00,0.00,-39.47,3.751,4.974,5.321,4.160,4.317,0,0,SEARCHING,0.000,0.800,-0.010,-0.063
21:54:20.629,SEARCHING,15.238,-6.937,1.730,0.00,0.00,-39.88,3.751,4.974,4.974,4.160,4.317,0,0,SEARCHING,0.000,0.800,-0.010,-0.052
21:54:20.830,SEARCHING,15.311,-6.999,1.729,0.00,0.00,-40.07,3.691,4.868,3.691,4.237,4.317,0,0,SEARCHING,0.000,0.800,-0.005,0.000
21:54:21.031,SEARCHING,15.385,-7.061,1.728,0.00,0.00,-40.07,3.632,4.868,3.691,4.160,4.317,0,0,SEARCHING,0.000,0.800,-0.010,-0.003
21:54:21.231,SEARCHING,15.458,-7.123,1.726,0.00,0.00,-40.07,3.632,4.237,3.632,4.086,4.317,0,0,SEARCHING,0.000,0.800,-0.016,0.000
21:54:21.432,SEARCHING,15.532,-7.184,1.723,0.00,0.00,-40.06,3.575,4.670,3.520,4.014,4.237,0,0,SEARCHING,0.000,0.800,-0.016,0.003
21:54:21.632,SEARCHING,15.605,-7.246,1.720,0.00,0.00,-39.98,3.575,4.014,3.520,4.086,4.237,0,0,SEARCHING,0.000,0.800,-0.010,0.003
21:54:21.832,SEARCHING,15.679,-7.308,1.717,0.00,0.00,-39.92,3.575,3.814,3.415,4.014,4.317,0,0,SEARCHING,0.000,0.800,-0.021,0.010
21:54:22.033,SEARCHING,15.752,-7.369,1.713,0.00,0.00,-39.84,3.467,3.691,3.178,3.878,4.317,0,0,SEARCHING,0.000,0.800,-0.031,0.021
21:54:22.234,SEARCHING,15.826,-7.431,1.705,0.00,0.00,-39.68,3.415,3.575,3.134,3.691,4.237,0,0,SEARCHING,0.000,0.800,-0.042,0.021
21:54:22.434,SEARCHING,15.900,-7.492,1.696,0.00,0.00,-39.53,3.415,3.632,3.011,3.632,4.237,0,0,SEARCHING,0.000,0.800,-0.047,0.031
21:54:22.635,SEARCHING,15.974,-7.553,1.685,0.00,0.00,-39.33,3.365,3.365,3.011,3.415,4.160,0,0,SEARCHING,0.000,0.800,-0.063,0.028
21:54:22.835,SEARCHING,16.049,-7.614,1.674,0.00,0.00,-39.13,3.316,3.269,2.934,3.223,4.160,0,0,SEARCHING,0.000,0.800,-0.084,0.031
21:54:23.036,SEARCHING,16.123,-7.674,1.658,0.00,0.00,-38.96,3.269,3.316,2.825,3.316,4.086,0,0,SEARCHING,0.000,0.800,-0.068,0.038
21:54:23.238,SEARCHING,16.198,-7.735,1.644,0.00,0.00,-38.72,3.178,3.316,2.860,3.178,3.945,0,0,SEARCHING,0.000,0.800,-0.073,0.028
21:54:23.438,SEARCHING,16.273,-7.794,1.628,0.00,0.00,-38.55,3.134,3.223,2.825,3.051,3.878,0,0,SEARCHING,0.000,0.800,-0.084,0.028
21:54:23.638,SEARCHING,16.348,-7.854,1.609,0.00,0.00,-38.41,3.051,3.223,2.724,2.934,3.814,0,0,SEARCHING,0.000,0.800,-0.094,0.031
21:54:23.838,SEARCHING,16.423,-7.914,1.589,0.00,0.00,-38.28,2.972,3.691,6.356,2.860,3.691,0,0,SEARCHING,0.000,0.800,-0.094,-0.143
21:54:24.040,SEARCHING,16.498,-7.974,1.568,0.00,0.00,-39.25,2.972,3.691,6.184,2.692,3.751,0,0,SEARCHING,0.000,0.800,-0.126,-0.140
21:54:24.240,SEARCHING,16.572,-8.035,1.543,0.00,0.00,-40.21,2.934,3.691,3.269,2.600,3.751,0,0,SEARCHING,0.000,0.800,-0.142,-0.028
21:54:24.440,SEARCHING,16.645,-8.097,1.513,0.00,0.00,-40.40,2.972,3.691,2.972,2.514,3.691,0,0,SEARCHING,0.000,0.800,-0.152,0.000
21:54:24.641,SEARCHING,16.718,-8.159,1.480,0.00,0.00,-40.89,2.896,3.691,6.184,2.434,3.632,0,0,SEARCHING,0.000,0.800,-0.163,-0.147
21:54:24.842,SEARCHING,16.791,-8.223,1.447,0.00,0.00,-41.41,2.825,3.691,5.867,2.335,3.575,0,0,SEARCHING,0.000,0.800,-0.178,-0.147
21:54:25.041,SEARCHING,16.862,-8.287,1.410,0.00,0.00,-42.44,2.757,3.751,6.022,2.222,3.467,0,0,SEARCHING,0.000,0.800,-0.194,-0.157
21:54:25.242,SEARCHING,16.932,-8.352,1.370,0.00,0.00,-43.13,2.661,3.814,6.022,2.099,3.365,0,0,SEARCHING,0.000,0.800,-0.215,-0.168
21:54:25.440,SEARCHING,17.002,-8.418,1.324,0.00,0.00,-44.30,2.514,3.814,2.934,2.025,3.269,0,0,SEARCHING,0.000,0.800,-0.226,-0.045
21:54:25.640,SEARCHING,17.071,-8.485,1.279,0.00,0.00,-44.55,2.384,3.814,2.630,1.973,3.178,0,0,SEARCHING,0.000,0.800,-0.231,-0.031
21:54:25.842,SEARCHING,17.139,-8.553,1.235,0.00,0.00,-45.37,2.335,3.814,2.692,2.007,3.051,0,0,SEARCHING,0.000,0.800,-0.205,-0.045
21:54:26.042,SEARCHING,17.206,-8.621,1.199,0.00,0.00,-45.63,2.288,3.751,2.692,2.119,2.972,0,0,SEARCHING,0.000,0.800,-0.163,-0.052
21:54:26.243,SEARCHING,17.273,-8.690,1.168,0.00,0.00,-46.02,2.288,3.751,2.630,2.179,2.825,0,0,SEARCHING,0.000,0.800,-0.126,-0.045
21:54:26.444,SEARCHING,17.339,-8.760,1.145,0.00,0.00,-46.92,2.266,3.632,2.099,2.222,2.757,0,0,SEARCHING,0.000,0.800,-0.105,0.028
21:54:26.645,SEARCHING,17.405,-8.830,1.126,0.00,0.00,-47.59,2.222,6.356,2.434,2.288,2.692,0,0,SEARCHING,0.000,0.800,-0.079,-0.031
21:54:26.845,SEARCHING,17.470,-8.901,1.111,0.00,0.00,-47.74,2.222,7.627,2.514,2.266,2.661,0,0,SEARCHING,0.000,0.800,-0.079,-0.042
21:54:27.046,SEARCHING,17.534,-8.972,1.098,0.00,0.00,-47.96,2.200,7.890,5.581,2.359,2.661,0,0,SEARCHING,0.000,0.800,-0.058,-0.220
21:54:27.249,SEARCHING,17.608,-9.056,1.087,0.00,0.00,-49.70,2.243,7.627,2.080,2.359,2.630,0,0,SEARCHING,0.000,0.800,-0.052,0.028
21:54:27.448,SEARCHING,17.670,-9.129,1.077,0.00,0.00,-50.26,2.222,7.381,2.384,2.434,2.600,0,0,SEARCHING,0.000,0.800,-0.031,-0.024
21:54:27.648,SEARCHING,17.731,-9.203,1.069,0.00,0.00,-51.03,2.200,7.381,5.085,2.409,2.600,0,0,SEARCHING,0.000,0.800,-0.037,-0.206
21:54:27.849,SEARCHING,17.791,-9.278,1.064,0.00,0.00,-51.72,2.266,7.381,4.670,2.434,2.542,0,0,SEARCHING,0.000,0.800,-0.021,-0.182
21:54:28.048,SEARCHING,17.850,-9.354,1.058,0.00,0.00,-52.93,2.311,7.151,1.973,2.460,2.571,0,0,SEARCHING,0.000,0.800,-0.021,0.059
21:54:28.249,SEARCHING,17.907,-9.431,1.054,0.00,0.00,-53.32,2.311,7.151,4.400,2.434,2.571,0,0,SEARCHING,0.000,0.800,-0.026,-0.164
21:54:28.451,SEARCHING,17.964,-9.508,1.050,0.00,0.00,-54.46,2.311,6.934,4.400,2.409,2.542,0,0,SEARCHING,0.000,0.800,-0.026,-0.164
21:54:28.651,SEARCHING,18.019,-9.587,1.047,0.00,0.00,-55.56,2.384,6.934,4.400,4.670,2.514,0,0,SEARCHING,0.000,0.800,0.220,-0.154
21:54:28.852,SEARCHING,18.073,-9.667,1.062,0.00,0.00,-56.66,2.222,6.538,4.237,4.767,2.571,0,0,SEARCHING,0.000,0.800,0.215,-0.171
21:54:29.052,SEARCHING,18.125,-9.747,1.109,0.00,0.00,-57.84,2.222,6.356,4.317,4.670,2.692,0,0,SEARCHING,0.000,0.800,0.189,-0.175
21:54:29.253,SEARCHING,18.176,-9.829,1.147,0.00,0.00,-58.12,8.172,6.022,4.400,4.670,2.825,0,0,SEARCHING,0.000,0.800,0.168,0.084
21:54:29.453,SEARCHING,18.227,-9.910,1.180,0.00,0.00,-57.54,8.172,6.356,4.400,4.487,2.934,0,0,SEARCHING,0.000,0.800,0.142,0.084
21:54:29.653,SEARCHING,18.279,-9.991,1.208,0.00,0.00,-56.96,8.475,6.184,4.317,4.576,2.972,0,0,SEARCHING,0.000,0.800,0.142,0.091
21:54:29.853,SEARCHING,18.331,-10.071,1.236,0.00,0.00,-56.33,8.475,6.184,4.400,4.576,3.092,0,0,SEARCHING,0.000,0.800,0.126,0.087
21:54:30.053,SEARCHING,18.385,-10.151,1.262,0.00,0.00,-55.73,8.475,6.022,4.400,4.576,3.134,0,0,SEARCHING,0.000,0.800,0.121,0.087
21:54:30.254,SEARCHING,18.439,-10.230,1.285,0.00,0.00,-55.13,8.475,6.184,4.400,4.576,3.178,0,0,SEARCHING,0.000,0.800,0.115,0.087
21:54:30.455,SEARCHING,18.495,-10.308,1.308,0.00,0.00,-54.53,8.801,6.184,4.317,4.487,3.269,0,0,SEARCHING,0.000,0.800,0.100,0.094
21:54:30.655,SEARCHING,18.551,-10.386,1.327,0.00,0.00,-53.88,8.801,6.184,4.400,4.400,3.316,0,0,SEARCHING,0.000,0.800,0.089,0.091
21:54:30.855,SEARCHING,18.608,-10.464,1.345,0.00,0.00,-53.27,8.475,6.022,4.400,4.487,3.365,0,0,SEARCHING,0.000,0.800,0.089,0.087
21:54:31.056,SEARCHING,18.665,-10.540,1.364,0.00,0.00,-52.64,9.153,6.184,4.400,4.487,3.365,0,0,SEARCHING,0.000,0.800,0.089,0.094
21:54:31.256,SEARCHING,18.724,-10.616,1.381,0.00,0.00,-51.99,8.801,6.022,4.317,4.487,3.467,0,0,SEARCHING,0.000,0.800,0.079,0.094
21:54:31.457,SEARCHING,18.783,-10.692,1.396,0.00,0.00,-51.36,8.801,6.022,4.317,4.400,3.467,0,0,SEARCHING,0.000,0.800,0.073,0.094
21:54:31.657,SEARCHING,18.844,-10.766,1.412,0.00,0.00,-50.68,8.801,6.022,4.237,4.576,3.467,0,0,SEARCHING,0.000,0.800,0.084,0.098
21:54:31.858,SEARCHING,18.905,-10.840,1.428,0.00,0.00,-50.01,8.801,6.184,4.317,4.487,3.520,0,0,SEARCHING,0.000,0.800,0.073,0.094
21:54:32.059,SEARCHING,18.967,-10.914,1.442,0.00,0.00,-49.34,9.153,6.022,4.237,4.400,3.575,0,0,SEARCHING,0.000,0.800,0.063,0.101
21:54:32.260,SEARCHING,19.030,-10.986,1.454,0.00,0.00,-48.65,8.801,6.022,4.160,4.487,3.632,0,0,SEARCHING,0.000,0.800,0.063,0.101
21:54:32.459,SEARCHING,19.094,-11.058,1.467,0.00,0.00,-47.96,8.801,6.184,4.160,4.487,3.691,0,0,SEARCHING,0.000,0.800,0.058,0.101
21:54:32.660,SEARCHING,19.158,-11.129,1.478,0.00,0.00,-47.26,8.801,6.356,4.160,4.400,3.691,0,0,SEARCHING,0.000,0.800,0.052,0.101
21:54:32.861,SEARCHING,19.224,-11.199,1.488,0.00,0.00,-46.56,8.801,6.184,4.237,4.400,3.691,0,0,SEARCHING,0.000,0.800,0.052,0.098
21:54:33.060,SEARCHING,19.290,-11.268,1.497,0.00,0.00,-45.88,8.801,6.356,4.237,4.317,3.751,0,0,SEARCHING,0.000,0.800,0.042,0.098
21:54:33.262,SEARCHING,19.357,-11.337,1.506,0.00,0.00,-45.22,8.475,6.356,4.237,4.400,3.814,0,0,SEARCHING,0.000,0.800,0.042,0.094
21:54:33.462,SEARCHING,19.425,-11.405,1.514,0.00,0.00,-44.56,8.475,6.184,4.160,4.317,3.814,0,0,SEARCHING,0.000,0.800,0.037,0.098
21:54:33.663,SEARCHING,19.494,-11.472,1.522,0.00,0.00,-43.89,8.475,6.184,4.160,4.317,3.814,0,0,SEARCHING,0.000,0.800,0.037,0.098
21:54:33.863,SEARCHING,19.563,-11.538,1.529,0.00,0.00,-43.22,8.172,6.184,4.160,4.400,3.814,0,0,SEARCHING,0.000,0.800,0.042,0.094
21:54:34.063,SEARCHING,19.634,-11.603,1.538,0.00,0.00,-42.55,8.172,6.356,4.160,4.400,3.814,0,0,SEARCHING,0.000,0.800,0.042,0.094
21:54:34.265,SEARCHING,19.705,-11.668,1.546,0.00,0.00,-41.90,8.172,6.356,4.086,4.400,3.878,0,0,SEARCHING,0.000,0.800,0.037,0.098
21:54:34.465,SEARCHING,19.777,-11.732,1.553,0.00,0.00,-41.24,7.890,6.356,4.160,4.400,3.878,0,0,SEARCHING,0.000,0.800,0.037,0.091
21:54:34.665,SEARCHING,19.849,-11.795,1.560,0.00,0.00,-40.59,7.890,6.184,4.237,4.400,3.878,0,0,SEARCHING,0.000,0.800,0.037,0.087
21:54:34.867,SEARCHING,19.922,-11.857,1.567,0.00,0.00,-39.98,7.627,6.356,4.160,4.400,3.945,0,0,SEARCHING,0.000,0.800,0.031,0.087
21:54:35.066,SEARCHING,19.996,-11.918,1.573,0.00,0.00,-39.37,7.627,6.184,4.160,4.400,3.945,0,0,SEARCHING,0.000,0.800,0.031,0.087
21:54:35.267,SEARCHING,20.070,-11.979,1.578,0.00,0.00,-38.76,7.890,6.184,4.086,4.317,3.945,0,0,SEARCHING,0.000,0.800,0.026,0.094
21:54:35.466,SEARCHING,20.146,-12.039,1.584,0.00,0.00,-38.10,7.627,6.356,4.086,4.317,3.945,0,0,SEARCHING,0.000,0.800,0.026,0.091
21:54:35.667,SEARCHING,20.221,-12.097,1.588,0.00,0.00,-37.48,7.627,6.356,4.160,4.317,3.945,0,0,SEARCHING,0.000,0.800,0.026,0.087
21:54:35.867,SEARCHING,20.298,-12.155,1.593,0.00,0.00,-36.87,7.381,6.356,4.237,4.317,4.014,0,0,SEARCHING,0.000,0.800,0.021,0.080
21:54:36.068,SEARCHING,20.375,-12.213,1.597,0.00,0.00,-36.31,7.381,6.356,4.160,4.317,3.945,0,0,SEARCHING,0.000,0.800,0.026,0.084
21:54:36.268,SEARCHING,20.452,-12.269,1.602,0.00,0.00,-35.73,7.151,6.356,4.160,4.317,4.014,0,0,SEARCHING,0.000,0.800,0.021,0.080
21:54:36.469,SEARCHING,20.531,-12.325,1.606,0.00,0.00,-35.18,7.151,6.356,4.086,4.317,4.014,0,0,SEARCHING,0.000,0.800,0.021,0.084
21:54:36.669,SEARCHING,20.609,-12.380,1.610,0.00,0.00,-34.63,6.934,6.356,4.160,4.400,4.014,0,0,SEARCHING,0.000,0.800,0.026,0.077
21:54:36.870,SEARCHING,20.689,-12.434,1.615,0.00,0.00,-34.11,6.934,6.356,4.237,4.317,4.086,0,0,SEARCHING,0.000,0.800,0.016,0.073
21:54:37.070,SEARCHING,20.768,-12.488,1.619,0.00,0.00,-33.61,6.730,6.356,4.160,4.317,4.086,0,0,SEARCHING,0.000,0.800,0.016,0.073
21:54:37.271,SEARCHING,20.848,-12.541,1.623,0.00,0.00,-33.10,6.730,6.538,4.160,4.400,4.086,0,0,SEARCHING,0.000,0.800,0.021,0.073
21:54:37.471,SEARCHING,20.929,-12.593,1.627,0.00,0.00,-32.61,6.730,6.538,4.160,4.317,4.086,0,0,SEARCHING,0.000,0.800,0.016,0.073
21:54:37.672,SEARCHING,21.010,-12.644,1.630,0.00,0.00,-32.10,6.538,6.538,4.086,4.317,4.086,0,0,SEARCHING,0.000,0.800,0.016,0.073
21:54:37.872,SEARCHING,21.092,-12.695,1.634,0.00,0.00,-31.61,6.356,6.538,4.086,4.317,4.086,0,0,SEARCHING,0.000,0.800,0.016,0.070
21:54:38.073,SEARCHING,21.173,-12.745,1.637,0.00,0.00,-31.13,6.356,6.730,4.086,4.317,4.086,0,0,SEARCHING,0.000,0.800,0.016,0.070
21:54:38.273,SEARCHING,21.256,-12.794,1.640,0.00,0.00,-30.65,6.356,6.538,4.160,4.317,4.086,0,0,SEARCHING,0.000,0.800,0.016,0.066
21:54:38.474,SEARCHING,21.339,-12.843,1.643,0.00,0.00,-30.19,6.184,6.356,4.086,4.317,4.160,0,0,SEARCHING,0.000,0.800,0.010,0.066
21:54:38.675,SEARCHING,21.422,-12.891,1.645,0.00,0.00,-29.72,6.022,6.356,4.014,4.237,4.160,0,0,SEARCHING,0.000,0.800,0.005,0.066
21:54:38.874,SEARCHING,21.505,-12.938,1.646,0.00,0.00,-29.27,5.867,6.184,3.945,4.317,4.160,0,0,SEARCHING,0.000,0.800,0.010,0.066
21:54:39.076,SEARCHING,21.589,-12.985,1.648,0.00,0.00,-28.83,5.720,6.184,4.086,4.317,4.160,0,0,SEARCHING,0.000,0.800,0.010,0.056
21:54:39.276,SEARCHING,21.673,-13.031,1.651,0.00,0.00,-28.44,5.720,6.184,3.945,4.317,4.160,0,0,SEARCHING,0.000,0.800,0.010,0.063
21:54:39.477,SEARCHING,21.758,-13.076,1.653,0.00,0.00,-28.02,5.720,5.867,4.014,4.317,4.160,0,0,SEARCHING,0.000,0.800,0.010,0.059
21:54:39.676,SEARCHING,21.843,-13.121,1.655,0.00,0.00,-27.62,5.581,5.867,3.945,4.317,4.160,0,0,SEARCHING,0.000,0.800,0.010,0.059
21:54:39.878,SEARCHING,21.928,-13.166,1.657,0.00,0.00,-27.22,5.448,5.720,3.878,4.317,4.160,0,0,SEARCHING,0.000,0.800,0.010,0.059
21:54:40.077,SEARCHING,22.013,-13.209,1.659,0.00,0.00,-26.84,5.321,5.720,3.945,4.317,4.160,0,0,SEARCHING,0.000,0.800,0.010,0.052
21:54:40.278,SEARCHING,22.099,-13.252,1.662,0.00,0.00,-26.48,5.200,5.581,3.945,4.317,4.160,0,0,SEARCHING,0.000,0.800,0.010,0.049
21:54:40.478,SEARCHING,22.185,-13.295,1.663,0.00,0.00,-26.13,5.200,5.448,3.878,4.317,4.160,0,0,SEARCHING,0.000,0.800,0.010,0.052
21:54:40.679,SEARCHING,22.272,-13.337,1.665,0.00,0.00,-25.77,5.200,5.321,3.878,4.317,4.160,0,0,SEARCHING,0.000,0.800,0.010,0.052
21:54:40.879,SEARCHING,22.358,-13.379,1.667,0.00,0.00,-25.42,5.085,5.321,3.945,4.317,4.160,0,0,SEARCHING,0.000,0.800,0.010,0.045
21:54:41.081,SEARCHING,22.445,-13.420,1.669,0.00,0.00,-25.10,4.974,5.085,3.814,4.317,4.160,0,0,SEARCHING,0.000,0.800,0.010,0.049
21:54:41.281,SEARCHING,22.532,-13.460,1.671,0.00,0.00,-24.77,4.974,4.974,3.878,4.317,4.160,0,0,SEARCHING,0.000,0.800,0.010,0.045
21:54:41.481,SEARCHING,22.619,-13.500,1.674,0.00,0.00,-24.47,4.868,4.974,4.014,4.317,4.237,0,0,SEARCHING,0.000,0.800,0.005,0.035
21:54:41.684,SEARCHING,22.707,-13.540,1.675,0.00,0.00,-24.22,4.868,4.868,3.878,4.317,4.160,0,0,SEARCHING,0.000,0.800,0.010,0.042
21:54:41.883,SEARCHING,22.794,-13.579,1.676,0.00,0.00,-23.93,4.868,4.767,3.945,4.317,4.237,0,0,SEARCHING,0.000,0.800,0.005,0.038
21:54:42.084,SEARCHING,22.882,-13.618,1.677,0.00,0.00,-23.65,4.767,4.670,3.945,4.317,4.160,0,0,SEARCHING,0.000,0.800,0.010,0.035
21:54:42.284,SEARCHING,22.970,-13.656,1.679,0.00,0.00,-23.41,4.767,4.670,3.945,4.317,4.160,0,0,SEARCHING,0.000,0.800,0.010,0.035
21:54:42.485,SEARCHING,23.058,-13.694,1.681,0.00,0.00,-23.16,4.767,4.576,3.878,4.237,4.160,0,0,SEARCHING,0.000,0.800,0.005,0.038
21:54:42.685,SEARCHING,23.147,-13.732,1.682,0.00,0.00,-22.91,4.670,4.400,3.878,4.317,4.160,0,0,SEARCHING,0.000,0.800,0.010,0.035
21:54:42.887,SEARCHING,23.235,-13.769,1.684,0.00,0.00,-22.67,4.670,4.400,3.878,4.237,4.160,0,0,SEARCHING,0.000,0.800,0.005,0.035
21:54:43.087,SEARCHING,23.324,-13.806,1.685,0.00,0.00,-22.40,4.576,4.317,3.751,4.160,4.160,0,0,SEARCHING,0.000,0.800,0.000,0.038
21:54:43.288,SEARCHING,23.413,-13.842,1.685,0.00,0.00,-22.16,4.576,4.086,3.878,4.160,4.160,0,0,SEARCHING,0.000,0.800,0.000,0.031
21:54:43.488,SEARCHING,23.502,-13.878,1.684,0.00,0.00,-21.95,4.576,4.086,3.878,4.014,4.160,0,0,SEARCHING,0.000,0.800,-0.010,0.031
21:54:43.688,SEARCHING,23.591,-13.914,1.681,0.00,0.00,-21.75,4.487,3.945,3.945,4.014,4.160,0,0,SEARCHING,0.000,0.800,-0.010,0.024
21:54:43.889,SEARCHING,23.680,-13.949,1.678,0.00,0.00,-21.57,4.487,3.814,3.945,3.814,4.160,0,0,SEARCHING,0.000,0.800,-0.026,0.024
21:54:44.090,SEARCHING,23.769,-13.985,1.672,0.00,0.00,-21.41,4.487,3.751,5.720,3.751,4.160,0,0,SEARCHING,0.000,0.800,-0.031,-0.038
21:54:44.290,SEARCHING,23.859,-14.020,1.665,0.00,0.00,-21.68,4.487,3.632,6.022,3.632,4.160,0,0,SEARCHING,0.000,0.800,-0.042,-0.045
21:54:44.491,SEARCHING,23.948,-14.055,1.657,0.00,0.00,-21.98,4.487,3.575,5.867,3.575,4.160,0,0,SEARCHING,0.000,0.800,-0.047,-0.042
21:54:44.691,SEARCHING,24.037,-14.092,1.647,0.00,0.00,-22.26,4.487,3.467,5.720,3.467,4.086,0,0,SEARCHING,0.000,0.800,-0.052,-0.038
21:54:44.891,SEARCHING,24.125,-14.128,1.636,0.00,0.00,-22.55,4.400,3.365,6.022,3.415,4.086,0,0,SEARCHING,0.000,0.800,-0.058,-0.049
21:54:45.092,SEARCHING,24.214,-14.165,1.623,0.00,0.00,-22.90,4.400,3.316,5.867,3.316,4.086,0,0,SEARCHING,0.000,0.800,-0.068,-0.045
21:54:45.292,SEARCHING,24.302,-14.203,1.609,0.00,0.00,-23.22,4.317,3.178,6.022,3.178,4.014,0,0,SEARCHING,0.000,0.800,-0.079,-0.052
21:54:45.494,SEARCHING,24.390,-14.241,1.593,0.00,0.00,-23.57,4.317,3.011,6.022,3.092,3.945,0,0,SEARCHING,0.000,0.800,-0.084,-0.052
21:54:45.695,SEARCHING,24.478,-14.279,1.576,0.00,0.00,-23.93,4.237,2.972,6.184,2.972,3.945,0,0,SEARCHING,0.000,0.800,-0.100,-0.059
21:54:45.894,SEARCHING,24.566,-14.319,1.556,0.00,0.00,-24.31,4.317,2.790,6.022,2.860,3.878,0,0,SEARCHING,0.000,0.800,-0.110,-0.052
21:54:46.096,SEARCHING,24.653,-14.358,1.533,0.00,0.00,-24.69,4.400,2.724,5.867,2.790,3.814,0,0,SEARCHING,0.000,0.800,-0.115,-0.045
21:54:46.298,SEARCHING,24.740,-14.399,1.510,0.00,0.00,-25.04,4.317,2.661,6.356,2.692,3.751,0,0,SEARCHING,0.000,0.800,-0.126,-0.059
21:54:46.497,SEARCHING,24.827,-14.440,1.485,0.00,0.00,-25.43,4.317,2.630,6.022,2.630,3.691,0,0,SEARCHING,0.000,0.800,-0.131,-0.052
21:54:46.697,SEARCHING,24.914,-14.481,1.458,0.00,0.00,-25.79,4.317,2.434,6.022,2.514,3.575,0,0,SEARCHING,0.000,0.800,-0.142,-0.052
21:54:46.898,SEARCHING,25.000,-14.523,1.425,0.00,0.00,-26.14,4.317,2.266,5.867,2.335,3.520,0,0,SEARCHING,0.000,0.800,-0.173,-0.049
21:54:47.101,SEARCHING,25.086,-14.565,1.391,0.00,0.00,-26.45,4.400,2.243,5.720,2.288,3.415,0,0,SEARCHING,0.000,0.800,-0.173,-0.042
21:54:47.300,SEARCHING,25.172,-14.608,1.356,0.00,0.00,-26.78,4.400,2.200,5.867,2.200,3.365,0,0,SEARCHING,0.000,0.800,-0.189,-0.045
21:54:47.500,SEARCHING,25.258,-14.652,1.319,0.00,0.00,-27.09,4.400,2.138,5.867,2.138,3.269,0,0,SEARCHING,0.000,0.800,-0.194,-0.045
21:54:47.701,SEARCHING,25.343,-14.696,1.279,0.00,0.00,-27.39,4.400,1.973,5.720,2.043,3.178,0,0,SEARCHING,0.000,0.800,-0.210,-0.042
21:54:47.901,SEARCHING,25.428,-14.740,1.236,0.00,0.00,-27.67,4.400,1.939,5.581,1.956,3.051,0,0,SEARCHING,0.000,0.800,-0.220,-0.038
21:54:48.102,SEARCHING,25.513,-14.785,1.191,0.00,0.00,-27.93,4.400,7.381,5.448,1.816,2.972,0,0,SEARCHING,0.000,0.800,-0.257,-0.035
21:54:48.302,SEARCHING,25.598,-14.830,1.138,0.00,0.00,-28.18,4.400,7.381,5.448,1.708,2.757,0,0,SEARCHING,0.000,0.800,-0.267,-0.035
21:54:48.502,SEARCHING,25.682,-14.875,1.086,0.00,0.00,-28.43,4.400,7.381,5.448,1.670,2.630,0,0,SEARCHING,0.000,0.800,-0.262,-0.035
21:54:48.704,SEARCHING,25.767,-14.921,1.030,0.00,0.00,-28.65,4.487,7.151,5.321,1.567,2.514,0,0,SEARCHING,0.000,0.800,-0.288,-0.028
21:54:48.905,SEARCHING,25.851,-14.967,0.972,0.00,0.00,-28.86,4.400,7.151,5.321,1.467,2.335,0,0,SEARCHING,0.000,0.800,-0.304,-0.031
21:54:49.106,SEARCHING,25.935,-15.014,0.911,0.00,0.00,-29.06,4.400,6.730,5.200,1.467,2.179,0,0,SEARCHING,0.000,0.800,-0.267,-0.028
21:54:49.306,SEARCHING,26.019,-15.061,0.861,0.00,0.00,-29.23,4.400,6.538,5.085,1.536,2.061,0,0,SEARCHING,0.000,0.800,-0.199,-0.024
21:54:49.507,SEARCHING,26.103,-15.108,0.826,0.00,0.00,-29.40,4.317,6.356,5.085,6.184,1.923,0,0,SEARCHING,0.000,0.800,0.430,-0.028
21:54:49.708,SEARCHING,26.186,-15.155,0.844,0.00,0.00,-29.59,4.317,6.538,5.085,6.356,1.973,0,0,SEARCHING,0.000,0.800,0.420,-0.028
21:54:49.909,SEARCHING,26.270,-15.202,0.857,0.00,0.00,-29.77,4.317,6.356,4.974,6.356,2.080,0,0,SEARCHING,0.000,0.800,0.388,-0.024
21:54:50.109,SEARCHING,26.353,-15.250,0.944,0.00,0.00,-29.94,4.317,6.538,4.974,1.354,2.266,0,0,SEARCHING,0.000,0.800,-0.357,-0.024
21:54:50.309,SEARCHING,26.436,-15.298,0.944,0.00,0.00,-30.11,4.317,6.356,4.974,6.184,2.222,0,0,SEARCHING,0.000,0.800,0.346,-0.024
21:54:50.509,SEARCHING,26.519,-15.346,1.010,0.00,0.00,-30.26,4.317,6.538,4.868,6.022,2.487,0,0,SEARCHING,0.000,0.800,0.283,-0.021
21:54:52.446,SEARCHING,26.602,-15.395,0.959,0.00,0.00,-30.42,4.317,6.356,4.868,6.184,2.335,0,0,SEARCHING,0.000,0.800,0.320,-0.021
21:54:52.647,SEARCHING,26.685,-15.444,1.036,0.00,0.00,-30.56,4.237,6.356,4.868,5.867,2.542,0,0,SEARCHING,0.000,0.800,0.267,-0.024
21:54:52.846,SEARCHING,26.767,-15.493,1.088,0.00,0.00,-30.73,4.237,6.184,4.767,5.720,2.661,0,0,SEARCHING,0.000,0.800,0.241,-0.021
21:54:53.048,SEARCHING,26.850,-15.542,1.136,0.00,0.00,-30.88,4.237,6.184,4.767,5.720,2.790,0,0,SEARCHING,0.000,0.800,0.220,-0.021
21:54:53.250,SEARCHING,26.932,-15.591,1.178,0.00,0.00,-31.02,4.317,6.022,4.767,5.581,2.934,0,0,SEARCHING,0.000,0.800,0.194,-0.017
21:54:53.452,SEARCHING,27.014,-15.641,1.215,0.00,0.00,-31.14,4.160,6.022,4.670,5.448,3.011,0,0,SEARCHING,0.000,0.800,0.178,-0.021
21:54:53.653,SEARCHING,27.096,-15.690,1.248,0.00,0.00,-31.30,4.237,5.867,4.670,5.448,3.092,0,0,SEARCHING,0.000,0.800,0.168,-0.017
21:54:53.853,SEARCHING,27.178,-15.740,1.282,0.00,0.00,-31.42,4.160,5.867,4.670,5.200,3.178,0,0,SEARCHING,0.000,0.800,0.147,-0.021
21:54:54.055,SEARCHING,27.260,-15.790,1.311,0.00,0.00,-31.56,4.160,5.720,4.576,5.085,3.269,0,0,SEARCHING,0.000,0.800,0.131,-0.017
21:54:54.256,SEARCHING,27.342,-15.841,1.336,0.00,0.00,-31.68,4.086,5.581,4.576,5.200,3.223,0,0,SEARCHING,0.000,0.800,0.142,-0.021
21:54:54.455,SEARCHING,27.424,-15.891,1.363,0.00,0.00,-31.81,4.237,5.581,4.576,5.200,3.365,0,0,SEARCHING,0.000,0.800,0.126,-0.014
21:54:54.656,SEARCHING,27.505,-15.942,1.389,0.00,0.00,-31.90,4.237,5.448,4.576,4.974,3.415,0,0,SEARCHING,0.000,0.800,0.110,-0.014
21:54:54.857,SEARCHING,27.587,-15.993,1.410,0.00,0.00,-31.97,4.487,5.321,4.576,4.974,3.467,0,0,SEARCHING,0.000,0.800,0.105,-0.003
21:54:55.059,SEARCHING,27.668,-16.043,1.430,0.00,0.00,-31.96,4.767,5.200,4.487,4.974,3.575,0,0,SEARCHING,0.000,0.800,0.094,0.010
21:54:55.258,SEARCHING,27.749,-16.094,1.449,0.00,0.00,-31.89,4.767,5.085,4.400,4.767,3.575,0,0,SEARCHING,0.000,0.800,0.084,0.014
21:54:55.459,SEARCHING,27.831,-16.145,1.464,0.00,0.00,-31.80,4.670,5.085,4.487,4.767,3.691,0,0,SEARCHING,0.000,0.800,0.073,0.007
21:54:55.659,SEARCHING,27.913,-16.195,1.480,0.00,0.00,-31.74,4.670,4.974,4.487,4.868,3.691,0,0,SEARCHING,0.000,0.800,0.079,0.007
21:54:55.860,SEARCHING,27.994,-16.246,1.495,0.00,0.00,-31.69,4.576,4.868,4.400,4.767,3.691,0,0,SEARCHING,0.000,0.800,0.073,0.007
21:54:56.062,SEARCHING,28.076,-16.296,1.509,0.00,0.00,-31.66,4.487,4.767,4.487,4.670,3.751,0,0,SEARCHING,0.000,0.800,0.063,0.000
21:54:56.262,SEARCHING,28.158,-16.347,1.521,0.00,0.00,-31.65,4.400,4.670,4.487,4.670,3.814,0,0,SEARCHING,0.000,0.800,0.058,-0.003
21:54:56.462,SEARCHING,28.239,-16.397,1.533,0.00,0.00,-31.67,4.237,4.670,4.400,4.576,3.814,0,0,SEARCHING,0.000,0.800,0.052,-0.007
21:54:56.663,SEARCHING,28.321,-16.448,1.543,0.00,0.00,-31.69,4.237,4.576,4.400,4.487,3.878,0,0,SEARCHING,0.000,0.800,0.042,-0.007
21:54:56.864,SEARCHING,28.403,-16.498,1.551,0.00,0.00,-31.74,4.160,4.400,4.317,4.400,3.878,0,0,SEARCHING,0.000,0.800,0.037,-0.007
21:54:57.064,SEARCHING,28.484,-16.549,1.559,0.00,0.00,-31.79,4.086,4.317,4.237,4.317,3.945,0,0,SEARCHING,0.000,0.800,0.026,-0.007
21:54:57.264,SEARCHING,28.566,-16.599,1.564,0.00,0.00,-31.86,4.014,4.317,4.317,4.317,3.878,0,0,SEARCHING,0.000,0.800,0.031,-0.014
21:54:57.465,SEARCHING,28.647,-16.650,1.569,0.00,0.00,-31.97,3.878,4.160,4.237,4.237,3.945,0,0,SEARCHING,0.000,0.800,0.021,-0.017
21:54:57.667,SEARCHING,28.729,-16.701,1.573,0.00,0.00,-32.10,3.814,4.086,4.237,4.160,3.945,0,0,SEARCHING,0.000,0.800,0.016,-0.021
21:54:57.867,SEARCHING,28.810,-16.752,1.576,0.00,0.00,-32.25,3.691,4.014,4.160,4.014,3.878,0,0,SEARCHING,0.000,0.800,0.010,-0.024
21:54:58.067,SEARCHING,28.891,-16.803,1.577,0.00,0.00,-32.40,3.632,3.945,4.086,3.945,3.814,0,0,SEARCHING,0.000,0.800,0.010,-0.024
21:54:58.267,SEARCHING,28.972,-16.855,1.579,0.00,0.00,-32.58,3.575,3.878,4.014,3.878,3.814,0,0,SEARCHING,0.000,0.800,0.005,-0.024
21:54:58.465,SEARCHING,29.053,-16.907,1.580,0.00,0.00,-32.76,3.467,3.751,4.014,3.751,3.691,0,0,SEARCHING,0.000,0.800,0.005,-0.031
21:54:58.665,SEARCHING,29.134,-16.959,1.581,0.00,0.00,-32.99,3.365,3.632,3.878,3.632,3.632,0,0,SEARCHING,0.000,0.800,0.000,-0.031
21:54:58.867,SEARCHING,29.214,-17.011,1.581,0.00,0.00,-33.20,3.316,3.575,3.814,3.575,3.575,0,0,SEARCHING,0.000,0.800,0.000,-0.031
21:54:59.067,SEARCHING,29.294,-17.064,1.581,0.00,0.00,-33.41,3.223,3.520,3.751,3.520,3.467,0,0,SEARCHING,0.000,0.800,0.005,-0.035
21:54:59.268,SEARCHING,29.374,-17.117,1.581,0.00,0.00,-33.67,3.134,3.415,3.691,3.365,3.415,0,0,SEARCHING,0.000,0.800,-0.005,-0.038
21:54:59.468,SEARCHING,29.454,-17.170,1.581,0.00,0.00,-33.93,3.011,3.316,3.575,3.316,3.316,0,0,SEARCHING,0.000,0.800,0.000,-0.042
21:54:59.669,SEARCHING,29.534,-17.224,1.581,0.00,0.00,-34.22,2.972,3.223,3.520,3.223,3.223,0,0,SEARCHING,0.000,0.800,0.000,-0.042
21:54:59.870,SEARCHING,29.613,-17.278,1.581,0.00,0.00,-34.52,2.860,3.134,3.415,3.134,3.134,0,0,SEARCHING,0.000,0.800,0.000,-0.045
21:55:00.070,SEARCHING,29.692,-17.333,1.581,0.00,0.00,-34.84,2.790,3.051,3.316,3.051,3.051,0,0,SEARCHING,0.000,0.800,0.000,-0.045
21:55:00.270,SEARCHING,29.771,-17.388,1.581,0.00,0.00,-35.16,2.724,2.934,3.269,2.972,2.934,0,0,SEARCHING,0.000,0.800,0.005,-0.049
21:55:00.471,SEARCHING,29.849,-17.443,1.580,0.00,0.00,-35.49,2.661,2.896,3.178,2.896,2.896,0,0,SEARCHING,0.000,0.800,0.000,-0.049
21:55:00.672,SEARCHING,29.927,-17.499,1.581,0.00,0.00,-35.83,2.542,2.790,3.051,2.790,2.790,0,0,SEARCHING,0.000,0.800,0.000,-0.052
21:55:00.872,SEARCHING,30.005,-17.555,1.581,0.00,0.00,-36.20,2.434,2.692,2.972,2.724,2.692,0,0,SEARCHING,0.000,0.800,0.005,-0.059
21:55:01.072,SEARCHING,30.082,-17.612,1.580,0.00,0.00,-36.60,2.384,2.630,2.896,2.630,2.600,0,0,SEARCHING,0.000,0.800,0.005,-0.059
21:55:01.271,SEARCHING,30.159,-17.670,1.581,0.00,0.00,-37.02,2.311,2.514,2.825,2.514,2.487,0,0,SEARCHING,0.000,0.800,0.005,-0.063
21:55:01.472,SEARCHING,30.235,-17.728,1.582,0.00,0.00,-37.48,2.200,2.409,2.724,2.434,2.434,0,0,SEARCHING,0.000,0.800,0.000,-0.070
21:55:01.673,SEARCHING,30.311,-17.787,1.582,0.00,0.00,-37.98,2.119,2.335,2.630,2.359,2.335,0,0,SEARCHING,0.000,0.800,0.005,-0.073
21:55:01.874,SEARCHING,30.387,-17.846,1.582,0.00,0.00,-38.49,2.043,2.266,2.542,2.266,2.266,0,0,SEARCHING,0.000,0.800,0.000,-0.077
21:55:02.074,SEARCHING,30.462,-17.906,1.582,0.00,0.00,-39.01,1.973,2.179,2.434,2.179,2.179,0,0,SEARCHING,0.000,0.800,0.000,-0.077
21:55:02.274,SEARCHING,30.536,-17.967,1.583,0.00,0.00,-39.57,1.876,2.099,2.359,2.080,2.080,0,0,SEARCHING,0.000,0.800,0.000,-0.087
21:55:02.475,SEARCHING,30.610,-18.028,1.583,0.00,0.00,-40.19,1.788,2.007,2.288,2.007,2.007,0,0,SEARCHING,0.000,0.800,0.000,-0.098
21:55:02.676,SEARCHING,30.683,-18.090,1.583,0.00,0.00,-40.87,1.708,1.923,2.200,1.923,1.939,0,0,SEARCHING,0.000,0.800,-0.005,-0.105
21:55:02.877,SEARCHING,30.755,-18.154,1.582,0.00,0.00,-41.60,1.634,1.845,2.099,1.831,1.831,0,0,SEARCHING,0.000,0.784,0.000,-0.108
21:55:03.077,SEARCHING,30.823,-18.215,1.582,0.00,0.00,-42.37,1.557,1.760,2.025,1.760,1.760,0,0,SEARCHING,0.000,0.713,0.000,-0.119
21:55:03.278,SEARCHING,30.885,-18.272,1.582,0.00,0.00,-43.22,1.476,1.682,1.956,1.695,1.682,0,0,SEARCHING,0.000,0.648,0.005,-0.133
21:55:03.477,SEARCHING,30.940,-18.325,1.583,0.00,0.00,-44.15,1.421,1.623,1.891,1.623,1.623,0,0,SEARCHING,0.000,0.603,0.000,-0.140
21:55:03.678,SEARCHING,30.991,-18.375,1.583,0.00,0.00,-45.12,1.362,1.567,1.831,1.567,1.567,0,0,SEARCHING,0.000,0.560,0.000,-0.150
21:55:03.880,SEARCHING,31.037,-18.422,1.583,0.00,0.00,-46.17,1.308,1.515,1.788,1.515,1.515,0,0,SEARCHING,0.000,0.521,0.000,-0.164
21:55:04.082,SEARCHING,31.079,-18.466,1.583,0.00,0.00,-47.32,1.264,1.457,1.760,1.467,1.467,0,0,SEARCHING,0.000,0.484,0.000,-0.178
21:55:04.280,SEARCHING,31.118,-18.509,1.583,0.00,0.00,-48.56,1.217,1.430,1.720,1.430,1.430,0,0,SEARCHING,0.000,0.461,0.000,-0.192
21:55:04.481,SEARCHING,31.154,-18.550,1.583,0.00,0.00,-49.90,1.179,1.387,1.695,1.387,1.395,0,0,SEARCHING,0.000,0.433,-0.005,-0.206
21:55:04.681,SEARCHING,31.186,-18.589,1.582,0.00,0.00,-51.35,1.138,1.362,1.670,1.354,1.354,0,0,SEARCHING,0.000,0.414,0.000,-0.224
21:55:04.881,SEARCHING,31.216,-18.628,1.582,0.00,0.00,-52.92,1.111,1.323,1.658,1.330,1.323,0,0,SEARCHING,0.000,0.391,0.005,-0.238
21:55:05.081,SEARCHING,31.244,-18.665,1.583,0.00,0.00,-54.58,1.079,1.308,1.646,1.308,1.308,0,0,SEARCHING,0.000,0.379,0.000,-0.255
21:55:05.282,SEARCHING,31.269,-18.702,1.583,0.00,0.00,-56.37,1.050,1.285,1.658,1.278,1.285,0,0,SEARCHING,0.000,0.364,-0.005,-0.280
21:55:05.482,SEARCHING,31.293,-18.739,1.582,0.00,0.00,-58.33,1.031,1.278,1.658,1.278,1.278,0,0,SEARCHING,0.000,0.358,0.000,-0.294
21:55:05.683,SEARCHING,31.315,-18.775,1.582,0.00,0.00,-60.40,1.008,1.264,1.695,1.264,1.264,0,0,SEARCHING,0.000,0.348,0.000,-0.322
21:55:05.884,SEARCHING,31.335,-18.812,1.583,0.00,0.00,-62.64,0.995,1.264,1.733,1.264,1.257,0,0,SEARCHING,0.000,0.346,0.005,-0.343
21:55:06.085,SEARCHING,31.353,-18.849,1.583,0.00,0.00,-65.00,0.978,1.264,1.695,1.257,1.264,0,0,SEARCHING,0.000,0.343,-0.005,-0.346
21:55:06.285,SEARCHING,31.370,-18.887,1.582,0.00,0.00,-67.37,0.961,1.271,1.646,1.271,1.271,0,0,SEARCHING,0.000,0.343,0.000,-0.346
21:55:06.485,SEARCHING,31.385,-18.925,1.582,0.00,0.00,-69.70,0.961,1.285,1.589,1.278,1.285,0,0,SEARCHING,0.000,0.349,-0.005,-0.329
21:55:06.685,SEARCHING,31.399,-18.965,1.582,0.00,0.00,-71.96,0.953,1.293,1.546,1.293,1.293,0,0,SEARCHING,0.000,0.350,0.000,-0.322
21:55:06.886,SEARCHING,31.412,-19.005,1.582,0.00,0.00,-74.16,0.949,1.308,1.505,1.315,1.315,0,0,SEARCHING,0.000,0.356,0.000,-0.311
21:55:07.087,SEARCHING,31.423,-19.046,1.583,0.00,0.00,-76.26,0.946,1.330,1.457,1.323,1.330,0,0,SEARCHING,0.000,0.364,-0.005,-0.297
21:55:07.288,SEARCHING,31.432,-19.089,1.582,0.00,0.00,-78.28,0.946,1.346,1.421,1.354,1.354,0,0,SEARCHING,0.000,0.371,0.000,-0.283
21:55:07.488,SEARCHING,31.441,-19.134,1.583,0.00,0.00,-80.20,0.942,1.378,1.378,1.370,1.378,0,0,SEARCHING,0.000,0.384,-0.005,-0.269
21:55:07.689,SEARCHING,31.448,-19.180,1.582,0.00,0.00,-82.03,0.946,1.395,1.338,1.404,1.395,0,0,SEARCHING,0.000,0.392,0.005,-0.248
21:55:07.889,SEARCHING,31.454,-19.226,1.583,0.00,0.00,-83.70,0.942,1.421,1.300,1.421,1.430,0,0,SEARCHING,0.000,0.403,-0.005,-0.234
21:55:08.090,SEARCHING,31.459,-19.274,1.582,0.00,0.00,-85.30,0.938,1.430,1.264,1.439,1.439,0,0,SEARCHING,0.000,0.406,0.000,-0.220
21:55:08.290,SEARCHING,31.462,-19.323,1.582,0.00,0.00,-86.75,0.942,1.387,1.224,1.387,1.387,0,0,SEARCHING,0.000,0.388,0.000,-0.196
21:55:08.492,SEARCHING,31.465,-19.369,1.581,0.00,0.00,-88.05,0.938,1.330,1.186,1.330,1.330,0,0,SEARCHING,0.000,0.363,0.000,-0.178
21:55:08.693,SEARCHING,31.466,-19.412,1.582,0.00,0.00,-89.23,0.946,1.285,1.144,1.285,1.285,0,0,SEARCHING,0.000,0.346,0.000,-0.147
21:55:08.892,SEARCHING,31.466,-19.453,1.582,0.00,0.00,-90.20,0.949,1.244,1.111,1.244,1.244,0,0,SEARCHING,0.000,0.330,0.000,-0.122
21:55:09.092,SEARCHING,31.466,-19.492,1.581,0.00,0.00,-91.02,0.946,1.198,1.084,1.198,1.198,0,0,SEARCHING,0.000,0.311,0.000,-0.108
21:55:09.293,SEARCHING,31.465,-19.528,1.580,0.00,0.00,-91.75,0.938,1.167,1.050,1.162,1.167,0,0,SEARCHING,0.000,0.298,-0.005,-0.091
21:55:09.494,SEARCHING,31.463,-19.564,1.580,0.00,0.00,-92.34,0.934,1.138,1.026,1.133,1.138,0,0,SEARCHING,0.000,0.286,-0.005,-0.077
21:55:09.694,SEARCHING,31.462,-19.598,1.580,0.00,0.00,-92.81,0.942,1.095,0.995,1.095,1.095,0,0,SEARCHING,0.000,0.272,0.000,-0.045
21:55:09.894,SEARCHING,31.460,-19.630,1.580,0.00,0.00,-93.09,0.934,1.064,0.965,1.059,1.064,0,0,SEARCHING,0.000,0.260,-0.005,-0.028
21:55:10.095,SEARCHING,31.459,-19.660,1.578,0.00,0.00,-93.26,0.923,1.031,0.942,1.031,1.031,0,0,SEARCHING,0.000,0.246,0.000,-0.017
21:55:10.296,SEARCHING,31.457,-19.690,1.578,0.00,0.00,-93.36,0.908,1.008,0.915,1.004,1.004,0,0,SEARCHING,0.000,0.236,0.000,-0.007
21:55:10.496,SEARCHING,31.455,-19.717,1.578,0.00,0.00,-93.36,0.904,0.974,0.890,0.974,0.974,0,0,SEARCHING,0.000,0.222,0.000,0.014
21:55:10.697,SEARCHING,31.454,-19.744,1.578,0.00,0.00,-93.24,0.897,0.953,0.867,0.949,0.953,0,0,SEARCHING,0.000,0.212,-0.005,0.031
21:55:10.897,SEARCHING,31.452,-19.769,1.578,0.00,0.00,-93.03,0.877,0.930,0.851,0.930,0.930,0,0,SEARCHING,0.000,0.203,0.000,0.028
21:55:11.098,SEARCHING,31.451,-19.793,1.578,0.00,0.00,-92.81,0.863,0.904,0.829,0.904,0.904,0,0,SEARCHING,0.000,0.200,0.000,0.038
21:55:11.298,SEARCHING,31.450,-19.817,1.578,0.00,0.00,-92.51,0.857,0.883,0.806,0.883,0.883,0,0,SEARCHING,0.000,0.200,0.000,0.059
21:55:11.498,SEARCHING,31.449,-19.841,1.579,0.00,0.00,-92.08,0.838,0.863,0.786,0.863,0.860,0,0,SEARCHING,0.000,0.200,0.005,0.063
21:55:11.700,SEARCHING,31.448,-19.865,1.579,0.00,0.00,-91.65,0.817,0.841,0.763,0.841,0.841,0,0,SEARCHING,0.000,0.200,0.000,0.070
21:55:11.901,SEARCHING,31.448,-19.889,1.579,0.00,0.00,-91.14,0.806,0.823,0.743,0.820,0.820,0,0,SEARCHING,0.000,0.200,0.000,0.084
21:55:12.101,SEARCHING,31.447,-19.913,1.579,0.00,0.00,-90.55,0.784,0.800,0.720,0.797,0.797,0,0,SEARCHING,0.000,0.200,0.000,0.091
21:55:12.302,INSPECTING,31.447,-19.927,1.611,0.00,0.00,-90.24,0.770,0.786,0.708,0.786,0.786,0,0,INSPECT_TOP,0.000,0.100,0.500,0.000
21:55:12.503,INSPECTING,31.447,-19.939,1.713,0.00,0.00,-90.24,0.768,0.776,0.698,0.776,0.773,0,0,INSPECT_TOP,0.000,0.100,0.500,0.000
21:55:12.703,INSPECTING,31.447,-19.951,1.813,0.00,0.00,-90.24,0.770,0.763,0.689,0.763,0.763,0,0,INSPECT_LEFT,0.000,0.100,0.000,0.600
21:55:12.904,INSPECTING,31.447,-19.963,1.863,0.00,0.00,-88.18,0.724,0.758,0.675,0.758,0.758,0,0,INSPECT_TOP,0.000,0.100,0.500,0.000
21:55:13.104,INSPECTING,31.448,-19.975,1.963,0.00,0.00,-88.18,0.726,0.748,0.667,0.748,0.748,0,0,INSPECT_TOP,0.000,0.100,0.500,0.000
21:55:13.306,INSPECTING,31.448,-19.987,2.063,0.00,0.00,-88.18,0.722,0.738,0.658,0.738,0.738,0,0,INSPECT_TOP,0.000,0.100,0.500,0.000
21:55:13.505,INSPECTING,31.448,-19.999,2.163,0.00,0.00,-88.18,0.715,0.724,0.648,0.726,0.724,0,0,INSPECT_TOP,0.000,0.100,0.500,0.000
21:55:13.706,INSPECTING,31.449,-20.011,2.263,0.00,0.00,-88.18,0.713,0.713,0.637,0.715,0.713,0,0,INSPECT_TOP,0.000,0.100,0.500,0.000
21:55:13.906,TURNING,31.449,-20.018,2.304,0.00,0.00,-86.57,0.706,0.711,0.630,0.708,0.708,0,0,TURNING,0.000,0.050,0.000,1.400
21:55:14.107,TURNING,31.450,-20.024,2.304,0.00,0.00,-76.95,0.607,0.750,0.636,0.748,0.750,0,0,TURNING,0.000,0.050,0.000,1.400
21:55:14.308,TURNING,31.452,-20.030,2.304,0.00,0.00,-67.32,0.538,0.717,0.658,0.715,0.720,0,0,TURNING,0.000,0.050,0.000,1.400
21:55:14.508,TURNING,31.454,-20.035,2.304,0.00,0.00,-57.70,0.502,0.623,0.711,0.622,0.625,0,0,TURNING,0.000,0.050,0.000,1.400
21:55:14.708,TURNING,31.458,-20.040,2.304,0.00,0.00,-48.07,0.479,0.564,0.687,0.565,0.565,0,0,TURNING,0.000,0.050,0.000,1.400
21:55:14.909,TURNING,31.462,-20.044,2.304,0.00,0.00,-38.44,0.474,0.531,0.601,0.532,0.531,0,0,TURNING,0.000,0.050,0.000,1.400
21:55:15.111,TURNING,31.467,-20.047,2.304,0.00,0.00,-28.82,0.486,0.514,0.550,0.514,0.513,0,0,TURNING,0.000,0.050,0.000,1.400
21:55:15.311,TURNING,31.473,-20.050,2.304,0.00,0.00,-19.19,0.514,0.518,0.521,0.519,0.518,0,0,TURNING,0.000,0.050,0.000,1.400
21:55:15.512,TURNING,31.478,-20.051,2.304,0.00,0.00,-9.57,0.538,0.513,0.490,0.513,0.513,0,0,TURNING,0.000,0.050,0.000,1.400
21:55:15.712,TURNING,31.484,-20.052,2.304,0.00,0.00,0.06,0.581,0.522,0.471,0.521,0.521,0,0,TURNING,0.000,0.050,0.000,1.400
21:55:15.913,TURNING,31.490,-20.052,2.304,0.00,0.00,9.68,0.656,0.549,0.473,0.547,0.547,0,0,TURNING,0.000,0.050,0.000,1.400
21:55:16.114,TURNING,31.496,-20.050,2.304,0.00,0.00,19.31,0.770,0.599,0.487,0.601,0.596,0,0,TURNING,0.000,0.050,0.000,1.400
21:55:16.314,TURNING,31.502,-20.048,2.304,0.00,0.00,28.94,0.970,0.679,0.517,0.677,0.679,0,0,TURNING,0.000,0.050,0.000,1.400
21:55:16.514,TURNING,31.507,-20.044,2.304,0.00,0.00,38.56,1.338,0.809,0.575,0.811,0.809,0,0,TURNING,0.000,0.050,0.000,1.400
21:55:16.716,TURNING,31.511,-20.040,2.304,0.00,0.00,48.19,2.243,1.031,0.661,1.035,1.017,0,0,TURNING,0.000,0.050,0.000,1.400
21:55:16.915,TURNING,31.515,-20.036,2.304,0.00,0.00,57.81,3.316,1.421,0.803,1.421,1.430,0,0,TURNING,0.000,0.050,0.000,1.400
21:55:17.116,TURNING,31.518,-20.030,2.304,0.00,0.00,67.44,3.520,2.288,1.045,2.384,2.384,0,0,TURNING,0.000,0.050,0.000,1.400
21:55:17.316,TURNING,31.519,-20.025,2.304,0.00,0.00,77.06,3.691,3.632,1.515,2.757,3.632,0,0,TURNING,0.000,0.050,0.000,1.400
21:55:17.566,RETURNING,31.520,-20.022,2.304,0.00,0.00,81.88,4.237,3.691,2.061,2.724,3.632,0,0,RETURNING,0.000,0.800,-0.110,0.199
21:55:17.751,RETURNING,31.522,-20.006,2.276,0.00,0.00,82.10,4.160,3.632,2.119,2.757,3.632,0,0,RETURNING,0.000,0.800,-0.105,0.185
21:55:17.954,RETURNING,31.524,-19.990,2.260,0.00,0.00,82.32,4.237,3.632,2.119,2.825,3.632,0,0,RETURNING,0.000,0.800,-0.094,0.189
21:55:18.157,RETURNING,31.524,-19.990,2.238,0.00,0.00,82.32,4.160,3.632,2.119,2.896,3.632,0,0,RETURNING,0.000,0.800,-0.084,0.185
21:55:18.356,RETURNING,31.529,-19.958,2.226,0.00,0.00,80.03,4.237,3.520,2.243,2.896,3.575,0,0,RETURNING,0.000,0.800,-0.079,0.168
21:55:18.550,RETURNING,31.535,-19.927,2.211,0.00,0.00,80.52,3.945,3.520,1.939,2.972,3.575,0,0,RETURNING,0.000,0.800,-0.068,0.210
21:55:18.753,RETURNING,31.535,-19.927,2.193,0.00,0.00,80.52,3.945,3.520,1.956,3.011,3.520,0,0,RETURNING,0.000,0.800,-0.058,0.206
21:55:18.960,RETURNING,31.537,-19.911,2.184,0.00,0.00,80.75,3.945,3.520,1.956,3.011,3.520,0,0,RETURNING,0.000,0.800,-0.058,0.206
21:55:19.162,RETURNING,31.540,-19.895,2.172,0.00,0.00,80.99,3.878,3.520,1.990,3.092,3.520,0,0,RETURNING,0.000,0.800,-0.047,0.196
21:55:19.355,RETURNING,31.542,-19.880,2.164,0.00,0.00,81.21,3.878,3.520,2.007,3.092,3.520,0,0,RETURNING,0.000,0.800,-0.047,0.192
21:55:19.560,RETURNING,31.542,-19.880,2.153,0.00,0.00,81.21,3.945,3.520,2.080,3.134,3.520,0,0,RETURNING,0.000,0.800,-0.042,0.182
