timestamp,state,x,y,z,roll_deg,pitch_deg,yaw_deg,dist_left,dist_center,dist_right,dist_top,dist_bottom,dtof_alert,collision_event,best_dir,max_space,cmd_vx,cmd_vz,cmd_yaw
00:40:36.497,SEARCHING,0.000,0.000,1.000,0.00,0.00,0.00,8.760,7.342,7.350,7.340,7.342,0,0,SEARCHING,0.000,0.240,0.000,0.005
00:40:36.655,SEARCHING,0.047,0.000,1.000,0.00,0.00,0.90,6.080,1.170,1.196,1.169,1.171,0,0,SEARCHING,0.000,0.347,0.000,0.332
00:40:36.855,SEARCHING,0.112,0.003,1.000,0.00,0.00,5.41,6.594,1.063,1.048,1.061,1.067,0,0,SEARCHING,0.000,0.276,0.000,0.539
00:40:37.055,SEARCHING,0.165,0.011,1.000,0.00,0.00,11.94,4.769,1.032,0.956,1.032,1.031,0,0,SEARCHING,0.000,0.256,0.000,0.634
00:40:37.257,SEARCHING,0.214,0.024,1.000,0.00,0.00,19.32,3.080,2.474,0.881,2.093,1.033,0,0,SEARCHING,0.000,0.416,0.176,0.657
00:40:37.456,SEARCHING,0.309,0.065,1.000,0.00,0.00,26.74,2.162,5.054,0.845,4.816,2.278,0,0,SEARCHING,0.000,0.708,0.315,0.614
00:40:37.658,SEARCHING,0.436,0.138,1.000,0.00,0.00,33.64,1.793,3.844,3.199,3.784,2.445,0,0,SEARCHING,0.000,0.778,0.237,0.348
00:40:37.858,SEARCHING,0.564,0.228,1.000,0.00,0.00,35.83,1.594,2.889,4.736,2.933,2.408,0,0,SEARCHING,0.000,0.795,0.150,-0.141
00:40:38.058,SEARCHING,0.694,0.320,1.000,0.00,0.00,33.61,1.518,2.957,4.729,2.996,2.452,0,0,SEARCHING,0.000,0.799,0.104,-0.301
00:40:38.259,SEARCHING,0.830,0.405,1.000,0.00,0.00,30.00,1.514,3.285,4.348,3.290,2.459,0,0,SEARCHING,0.000,0.800,0.105,-0.339
00:40:38.459,SEARCHING,0.970,0.480,1.000,0.00,0.00,26.12,1.535,3.876,3.941,3.810,2.445,0,0,SEARCHING,0.000,0.800,0.144,-0.329
00:40:38.660,SEARCHING,1.116,0.547,1.000,0.00,0.00,22.57,2.114,6.057,3.669,5.404,2.454,0,0,SEARCHING,0.000,0.800,0.212,-0.236
00:40:38.860,SEARCHING,1.265,0.605,1.000,0.00,0.00,20.13,2.240,6.017,3.308,5.715,2.468,0,0,SEARCHING,0.000,0.800,0.260,-0.156
00:40:39.061,SEARCHING,1.416,0.658,1.000,0.00,0.00,18.50,2.393,5.283,3.090,5.328,2.457,0,0,SEARCHING,0.000,0.800,0.266,-0.106
00:40:39.261,SEARCHING,1.568,0.707,1.000,0.00,0.00,17.40,2.510,4.966,2.971,4.975,2.472,0,0,SEARCHING,0.000,0.800,0.254,-0.070
00:40:39.462,SEARCHING,1.721,0.754,1.000,0.00,0.00,16.69,2.634,4.722,2.841,4.728,2.445,0,0,SEARCHING,0.000,0.800,0.243,-0.041
00:40:39.662,SEARCHING,1.875,0.799,1.000,0.00,0.00,16.28,2.708,4.525,2.797,4.599,2.457,0,0,SEARCHING,0.000,0.800,0.234,-0.020
00:40:39.863,SEARCHING,2.028,0.844,1.000,0.00,0.00,16.09,2.719,4.394,2.781,4.434,2.482,0,0,SEARCHING,0.000,0.800,0.222,-0.011
00:40:40.064,SEARCHING,2.182,0.888,1.000,0.00,0.00,15.99,2.760,4.274,2.735,4.335,2.470,0,0,SEARCHING,0.000,0.800,0.213,-0.003
00:40:40.265,SEARCHING,2.336,0.932,1.000,0.00,0.00,15.98,3.501,4.111,2.723,4.164,2.456,0,0,SEARCHING,0.000,0.800,0.206,0.022
00:40:40.466,SEARCHING,2.490,0.977,1.000,0.00,0.00,16.41,3.968,4.038,2.623,4.064,2.401,0,0,SEARCHING,0.000,0.800,0.202,0.076
00:40:40.666,SEARCHING,2.643,1.023,1.000,0.00,0.00,17.37,3.922,4.087,2.469,4.091,2.441,0,0,SEARCHING,0.000,0.800,0.201,0.105
00:40:40.866,SEARCHING,2.795,1.072,1.000,0.00,0.00,18.63,3.789,4.232,2.370,4.191,2.484,0,0,SEARCHING,0.000,0.800,0.198,0.120
00:40:41.067,SEARCHING,2.946,1.125,1.000,0.00,0.00,20.02,3.608,4.651,2.371,4.540,2.472,0,0,SEARCHING,0.000,0.800,0.208,0.120
00:40:41.268,SEARCHING,3.096,1.181,1.000,0.00,0.00,21.37,3.423,4.880,2.398,4.825,2.462,0,0,SEARCHING,0.000,0.800,0.228,0.110
00:40:41.468,SEARCHING,3.244,1.241,1.000,0.00,0.00,22.58,3.279,4.963,2.414,5.037,2.441,0,0,SEARCHING,0.000,0.800,0.243,0.096
00:40:41.669,SEARCHING,3.391,1.304,1.000,0.00,0.00,23.64,3.124,5.012,2.444,5.079,2.466,0,0,SEARCHING,0.000,0.800,0.249,0.081
00:40:41.870,SEARCHING,3.538,1.369,1.000,0.00,0.00,24.53,3.019,5.076,2.442,5.084,2.428,0,0,SEARCHING,0.000,0.800,0.253,0.070
00:40:42.070,SEARCHING,3.683,1.436,1.000,0.00,0.00,25.31,2.944,5.133,2.440,5.109,2.457,0,0,SEARCHING,0.000,0.800,0.254,0.062
00:40:42.271,SEARCHING,3.827,1.506,1.000,0.00,0.00,25.99,2.861,5.193,2.461,5.167,2.460,0,0,SEARCHING,0.000,0.800,0.255,0.052
00:40:42.472,SEARCHING,3.970,1.576,1.000,0.00,0.00,26.56,2.807,5.199,2.490,5.162,2.451,0,0,SEARCHING,0.000,0.800,0.256,0.043
00:40:42.672,SEARCHING,4.113,1.648,1.000,0.00,0.00,27.03,2.762,5.166,2.516,5.196,2.467,0,0,SEARCHING,0.000,0.800,0.256,0.035
00:40:42.873,SEARCHING,4.256,1.722,1.000,0.00,0.00,27.40,2.728,5.112,2.672,5.134,2.463,0,0,SEARCHING,0.000,0.800,0.255,0.020
00:40:43.073,SEARCHING,4.397,1.795,1.000,0.00,0.00,27.57,2.706,5.094,2.763,5.018,2.449,0,0,SEARCHING,0.000,0.800,0.253,0.003
00:40:43.274,SEARCHING,4.539,1.870,1.000,0.00,0.00,27.58,2.738,5.047,2.768,4.946,2.437,0,0,SEARCHING,0.000,0.800,0.250,-0.003
00:40:43.474,SEARCHING,4.681,1.944,1.000,0.00,0.00,27.55,2.746,4.957,2.776,4.878,2.475,0,0,SEARCHING,0.000,0.800,0.245,-0.003
00:40:43.675,SEARCHING,4.823,2.018,1.000,0.00,0.00,27.51,2.703,4.832,2.761,4.763,2.484,0,0,SEARCHING,0.000,0.800,0.237,-0.004
00:40:43.876,SEARCHING,4.965,2.091,1.000,0.00,0.00,27.46,2.663,4.785,2.753,4.624,2.461,0,0,SEARCHING,0.000,0.800,0.232,-0.007
00:40:44.076,SEARCHING,5.107,2.165,1.000,0.00,0.00,27.53,5.775,4.613,2.673,4.446,2.449,0,0,SEARCHING,0.000,0.800,0.225,0.075
00:40:44.277,SEARCHING,5.248,2.240,1.000,0.00,0.00,28.68,6.660,5.229,2.644,4.899,2.432,0,0,SEARCHING,0.000,0.800,0.230,0.153
00:40:44.478,SEARCHING,5.388,2.319,1.000,0.00,0.00,30.52,6.325,7.533,2.664,5.561,2.453,0,0,SEARCHING,0.000,0.800,0.259,0.172
00:40:44.679,SEARCHING,5.524,2.402,1.000,0.00,0.00,32.34,2.845,8.189,2.741,5.491,2.477,0,0,SEARCHING,0.000,0.800,0.267,0.092
00:40:44.878,SEARCHING,5.659,2.489,1.000,0.00,0.00,33.07,2.391,8.253,2.805,5.370,2.462,0,0,SEARCHING,0.000,0.800,0.266,-0.005
00:40:45.079,SEARCHING,5.793,2.576,1.000,0.00,0.00,33.06,4.263,8.122,2.753,5.200,2.439,0,0,SEARCHING,0.000,0.800,0.264,0.043
00:40:45.280,SEARCHING,5.926,2.664,1.000,0.00,0.00,33.77,5.112,8.038,2.728,5.048,2.460,0,0,SEARCHING,0.000,0.800,0.258,0.107
00:40:45.481,SEARCHING,6.059,2.754,1.000,0.00,0.00,35.08,5.000,7.856,2.804,4.864,2.463,0,0,SEARCHING,0.000,0.800,0.247,0.125
00:40:45.681,SEARCHING,6.188,2.848,1.000,0.00,0.00,36.49,4.692,7.678,2.877,4.749,2.456,0,0,SEARCHING,0.000,0.800,0.240,0.117
00:40:45.881,SEARCHING,6.316,2.944,1.000,0.00,0.00,37.80,4.565,7.501,2.875,4.608,2.434,0,0,SEARCHING,0.000,0.800,0.237,0.108
00:40:46.082,SEARCHING,6.442,3.043,1.000,0.00,0.00,38.81,4.570,7.244,6.297,4.444,2.464,0,0,SEARCHING,0.000,0.800,0.227,0.016
00:40:46.283,SEARCHING,6.566,3.144,1.000,0.00,0.00,38.78,4.542,7.178,6.915,4.248,2.426,0,0,SEARCHING,0.000,0.800,0.219,-0.040
00:40:46.483,SEARCHING,6.691,3.243,1.000,0.00,0.00,38.26,4.557,7.043,6.962,4.087,2.412,0,0,SEARCHING,0.000,0.800,0.211,-0.056
00:40:46.683,SEARCHING,6.817,3.342,1.000,0.00,0.00,37.62,4.594,7.116,6.864,3.881,2.427,0,0,SEARCHING,0.000,0.800,0.197,-0.057
00:40:46.884,SEARCHING,6.945,3.439,1.000,0.00,0.00,36.96,4.656,7.092,6.896,3.696,2.414,0,0,SEARCHING,0.000,0.800,0.182,-0.057
00:40:47.085,SEARCHING,7.073,3.534,1.000,0.00,0.00,36.32,4.675,7.060,6.804,3.466,2.422,0,0,SEARCHING,0.000,0.800,0.163,-0.055
00:40:47.285,SEARCHING,7.202,3.629,1.000,0.00,0.00,35.70,4.754,6.964,6.696,3.340,2.422,0,0,SEARCHING,0.000,0.800,0.148,-0.052
00:40:47.486,SEARCHING,7.333,3.721,1.000,0.00,0.00,35.11,4.806,6.916,6.576,3.256,2.434,0,0,SEARCHING,0.000,0.800,0.133,-0.048
00:40:47.687,SEARCHING,7.464,3.813,1.000,0.00,0.00,34.57,4.686,6.798,6.542,3.175,2.375,0,0,SEARCHING,0.000,0.800,0.127,-0.048
00:40:47.889,SEARCHING,7.596,3.903,1.000,0.00,0.00,34.02,4.596,6.908,6.471,3.016,2.416,0,0,SEARCHING,0.000,0.800,0.113,-0.049
00:40:48.089,SEARCHING,7.729,3.992,1.000,0.00,0.00,33.45,4.474,6.827,6.264,2.871,2.420,0,0,SEARCHING,0.000,0.800,0.091,-0.050
00:40:48.290,SEARCHING,7.863,4.080,1.000,0.00,0.00,32.87,4.452,6.817,6.142,2.724,2.429,0,0,SEARCHING,0.000,0.800,0.070,-0.051
00:40:48.489,SEARCHING,7.998,4.166,1.000,0.00,0.00,32.29,4.442,6.740,5.977,2.568,2.445,0,0,SEARCHING,0.000,0.800,0.022,-0.049
00:40:48.689,SEARCHING,8.133,4.251,1.000,0.00,0.00,31.74,4.430,6.731,5.852,2.430,2.442,0,0,SEARCHING,0.000,0.800,0.005,-0.046
00:40:48.891,SEARCHING,8.270,4.334,1.000,0.00,0.00,31.22,4.421,6.753,5.659,2.322,2.440,0,0,SEARCHING,0.000,0.800,0.001,-0.043
00:40:49.091,SEARCHING,8.407,4.417,1.000,0.00,0.00,30.74,4.407,6.691,5.590,2.244,2.465,0,0,SEARCHING,0.000,0.800,0.000,-0.040
00:40:49.291,SEARCHING,8.545,4.498,1.000,0.00,0.00,30.29,4.401,6.639,5.471,5.358,2.465,0,0,SEARCHING,0.000,0.800,0.148,-0.037
00:40:49.492,SEARCHING,8.683,4.578,1.000,0.00,0.00,29.88,4.409,6.482,5.409,5.944,2.433,0,0,SEARCHING,0.000,0.800,0.251,-0.034
00:40:49.692,SEARCHING,8.822,4.657,1.000,0.00,0.00,29.49,4.401,6.332,5.306,6.136,2.434,0,0,SEARCHING,0.000,0.800,0.285,-0.032
00:40:49.893,SEARCHING,8.962,4.736,1.000,0.00,0.00,29.12,4.388,6.202,5.212,6.124,2.429,0,0,SEARCHING,0.000,0.800,0.295,-0.030
