timestamp,state,x,y,z,roll_deg,pitch_deg,yaw_deg,dist_left,dist_center,dist_right,dist_top,dist_bottom,dtof_alert,collision_event,best_dir,max_space,cmd_vx,cmd_vz,cmd_yaw
20:32:32.027,SEARCHING,0.000,0.000,0.000,0.00,0.00,0.00,10.000,10.000,10.000,10.000,10.000,0,0,SEARCHING,0.000,0.800,0.000,0.000
20:32:32.229,SEARCHING,0.128,0.000,1.000,0.00,0.00,0.00,10.000,10.000,10.000,10.000,10.000,0,0,SEARCHING,0.000,0.800,0.000,0.000
20:32:32.430,SEARCHING,0.256,-0.001,1.023,0.00,0.00,-1.77,1.300,4.237,4.487,4.237,2.514,0,0,SEARCHING,0.000,0.800,0.194,-0.382
20:32:32.632,SEARCHING,0.384,-0.008,1.062,0.00,0.00,-3.97,2.571,4.576,3.632,4.670,2.571,0,0,SEARCHING,0.000,0.800,0.210,-0.080
20:32:32.833,SEARCHING,0.511,-0.017,1.102,0.00,0.00,-4.68,2.542,4.868,3.575,4.670,2.724,0,0,SEARCHING,0.000,0.800,0.184,-0.080
20:32:33.034,SEARCHING,0.639,-0.028,1.141,0.00,0.00,-5.40,2.630,5.085,3.520,4.767,2.692,0,0,SEARCHING,0.000,0.800,0.194,-0.067
20:32:33.236,SEARCHING,0.766,-0.041,1.178,0.00,0.00,-6.00,2.630,5.448,3.467,4.868,2.934,0,0,SEARCHING,0.000,0.800,0.163,-0.064
20:32:33.437,SEARCHING,0.894,-0.055,1.209,0.00,0.00,-6.58,2.661,6.356,3.415,5.085,3.011,0,0,SEARCHING,0.000,0.800,0.163,-0.058
20:32:33.638,SEARCHING,1.021,-0.070,1.242,0.00,0.00,-7.12,2.600,6.184,3.365,5.321,3.051,0,0,SEARCHING,0.000,0.800,0.168,-0.061
20:32:33.835,SEARCHING,1.148,-0.086,1.274,0.00,0.00,-7.70,2.571,6.022,3.365,5.200,3.134,0,0,SEARCHING,0.000,0.800,0.152,-0.064
20:32:34.034,SEARCHING,1.274,-0.104,1.304,0.00,0.00,-8.30,2.514,5.720,3.269,5.085,3.223,0,0,SEARCHING,0.000,0.800,0.136,-0.064
20:32:34.234,SEARCHING,1.401,-0.123,1.330,0.00,0.00,-8.86,2.542,5.581,3.223,5.085,3.269,0,0,SEARCHING,0.000,0.800,0.131,-0.058
20:32:34.434,SEARCHING,1.527,-0.143,1.356,0.00,0.00,-9.38,2.571,5.448,3.178,4.974,3.316,0,0,SEARCHING,0.000,0.800,0.121,-0.052
20:32:34.634,SEARCHING,1.654,-0.165,1.380,0.00,0.00,-9.84,2.571,5.200,3.134,4.974,3.365,0,0,SEARCHING,0.000,0.800,0.115,-0.049
20:32:34.835,SEARCHING,1.780,-0.187,1.403,0.00,0.00,-10.28,2.542,5.085,3.134,4.974,3.520,0,0,SEARCHING,0.000,0.800,0.100,-0.052
20:32:35.035,SEARCHING,1.905,-0.210,1.422,0.00,0.00,-10.71,2.571,4.974,3.011,4.868,3.520,0,0,SEARCHING,0.000,0.800,0.094,-0.040
20:32:35.235,SEARCHING,2.031,-0.235,1.441,0.00,0.00,-11.08,2.542,4.868,3.011,4.767,3.575,0,0,SEARCHING,0.000,0.800,0.084,-0.043
20:32:35.437,SEARCHING,2.157,-0.259,1.456,0.00,0.00,-11.40,2.571,4.670,2.896,4.670,3.691,0,0,SEARCHING,0.000,0.800,0.068,-0.031
20:32:35.638,SEARCHING,2.282,-0.285,1.469,0.00,0.00,-11.68,2.600,4.576,2.860,4.576,3.691,0,0,SEARCHING,0.000,0.800,0.063,-0.024
20:32:35.837,SEARCHING,2.407,-0.311,1.481,0.00,0.00,-11.90,2.600,4.487,2.790,4.487,3.691,0,0,SEARCHING,0.000,0.800,0.058,-0.018
20:32:36.038,SEARCHING,2.533,-0.338,1.493,0.00,0.00,-12.05,2.514,4.400,2.661,4.317,3.467,0,0,SEARCHING,0.000,0.800,0.068,-0.015
20:32:36.239,SEARCHING,2.658,-0.365,1.504,0.00,0.00,-12.16,2.571,4.237,2.571,4.237,3.632,0,0,SEARCHING,0.000,0.800,0.047,0.000
20:32:36.439,SEARCHING,2.783,-0.391,1.512,0.00,0.00,-12.14,2.487,4.160,2.571,4.160,3.751,0,0,SEARCHING,0.000,0.800,0.031,-0.009
20:32:36.639,SEARCHING,2.908,-0.418,1.517,0.00,0.00,-12.14,5.867,4.014,2.514,4.086,3.814,0,0,SEARCHING,0.000,0.800,0.021,0.159
20:32:36.840,SEARCHING,3.033,-0.444,1.520,0.00,0.00,-10.66,2.384,4.086,2.542,4.014,3.814,0,0,SEARCHING,0.000,0.800,0.016,-0.018
20:32:37.041,SEARCHING,3.159,-0.468,1.524,0.00,0.00,-10.84,5.581,4.014,2.514,4.014,3.814,0,0,SEARCHING,0.000,0.800,0.016,0.153
20:32:37.242,SEARCHING,3.285,-0.491,1.527,0.00,0.00,-9.45,5.321,4.014,2.487,4.086,3.814,0,0,SEARCHING,0.000,0.800,0.021,0.150
20:32:37.442,SEARCHING,3.412,-0.510,1.531,0.00,0.00,-8.10,4.868,4.086,2.600,4.086,3.878,0,0,SEARCHING,0.000,0.800,0.016,0.125
20:32:37.642,SEARCHING,3.539,-0.527,1.535,0.00,0.00,-6.94,4.670,4.237,2.600,4.160,3.878,0,0,SEARCHING,0.000,0.800,0.021,0.119
20:32:37.842,SEARCHING,3.666,-0.542,1.539,0.00,0.00,-5.90,4.400,4.317,2.692,4.237,3.691,0,0,SEARCHING,0.000,0.800,0.042,0.101
20:32:38.043,SEARCHING,3.793,-0.554,1.547,0.00,0.00,-4.98,4.160,4.317,2.724,4.317,3.878,0,0,SEARCHING,0.000,0.800,0.031,0.089
20:32:38.245,SEARCHING,3.921,-0.564,1.556,0.00,0.00,-4.19,4.014,4.400,2.724,4.317,3.814,0,0,SEARCHING,0.000,0.800,0.037,0.083
20:32:38.445,SEARCHING,4.048,-0.573,1.562,0.00,0.00,-3.44,3.945,4.487,2.661,4.317,3.945,0,0,SEARCHING,0.000,0.800,0.026,0.086
20:32:38.644,SEARCHING,4.176,-0.580,1.569,0.00,0.00,-2.61,3.814,4.670,2.487,4.400,3.878,0,0,SEARCHING,0.000,0.800,0.037,0.098
20:32:38.846,SEARCHING,4.304,-0.585,1.575,0.00,0.00,-1.72,3.691,5.321,2.514,4.400,3.945,0,0,SEARCHING,0.000,0.800,0.031,0.089
20:32:39.050,SEARCHING,4.432,-0.588,1.582,0.00,0.00,-0.93,3.632,5.448,2.487,4.487,3.945,0,0,SEARCHING,0.000,0.800,0.037,0.089
20:32:39.251,SEARCHING,4.560,-0.589,1.589,0.00,0.00,-0.14,3.520,5.867,2.460,4.487,3.945,0,0,SEARCHING,0.000,0.800,0.037,0.086
20:32:39.452,SEARCHING,4.688,-0.589,1.597,0.00,0.00,0.60,3.467,6.022,2.487,4.487,3.814,0,0,SEARCHING,0.000,0.800,0.047,0.080
20:32:39.652,SEARCHING,4.816,-0.587,1.605,0.00,0.00,1.33,3.316,5.867,2.514,4.487,4.014,0,0,SEARCHING,0.000,0.800,0.031,0.067
20:32:39.852,SEARCHING,4.944,-0.583,1.611,0.00,0.00,1.98,3.365,5.720,2.571,4.487,4.014,0,0,SEARCHING,0.000,0.800,0.031,0.064
20:32:40.053,SEARCHING,5.072,-0.578,1.617,0.00,0.00,2.54,3.269,5.581,2.542,4.487,4.014,0,0,SEARCHING,0.000,0.800,0.031,0.061
20:32:40.254,SEARCHING,5.200,-0.572,1.623,0.00,0.00,3.10,3.178,5.321,2.542,4.487,3.945,0,0,SEARCHING,0.000,0.800,0.037,0.055
20:32:40.455,SEARCHING,5.328,-0.564,1.629,0.00,0.00,3.58,3.051,5.321,2.542,4.487,3.945,0,0,SEARCHING,0.000,0.800,0.037,0.046
20:32:40.655,SEARCHING,5.455,-0.556,1.635,0.00,0.00,4.02,3.011,5.085,2.514,4.487,4.086,0,0,SEARCHING,0.000,0.800,0.026,0.046
20:32:40.857,SEARCHING,5.583,-0.547,1.641,0.00,0.00,4.43,3.011,4.974,2.514,4.487,4.160,0,0,SEARCHING,0.000,0.800,0.021,0.046
20:32:41.058,SEARCHING,5.711,-0.536,1.645,0.00,0.00,4.81,2.972,4.868,2.542,4.400,4.160,0,0,SEARCHING,0.000,0.800,0.016,0.040
20:32:41.259,SEARCHING,5.838,-0.525,1.648,0.00,0.00,5.17,2.896,4.767,2.542,4.317,4.160,0,0,SEARCHING,0.000,0.800,0.010,0.034
20:32:41.458,SEARCHING,5.966,-0.513,1.651,0.00,0.00,5.48,2.896,4.670,2.630,4.400,4.160,0,0,SEARCHING,0.000,0.800,0.016,0.024
20:32:41.658,SEARCHING,6.093,-0.501,1.653,0.00,0.00,5.57,2.896,4.576,3.011,4.400,4.014,0,0,SEARCHING,0.000,0.800,0.026,-0.009
20:32:41.858,SEARCHING,6.220,-0.489,1.659,0.00,0.00,5.48,2.896,4.487,2.972,4.400,4.160,0,0,SEARCHING,0.000,0.800,0.016,-0.006
20:32:42.057,SEARCHING,6.348,-0.476,1.662,0.00,0.00,5.43,2.896,4.237,2.972,4.317,4.160,0,0,SEARCHING,0.000,0.800,0.010,-0.006
20:32:42.257,SEARCHING,6.475,-0.464,1.663,0.00,0.00,5.36,2.896,4.237,3.051,4.237,4.086,0,0,SEARCHING,0.000,0.800,0.010,-0.012
20:32:42.458,SEARCHING,6.603,-0.453,1.665,0.00,0.00,5.24,2.896,4.086,2.972,4.086,4.086,0,0,SEARCHING,0.000,0.800,0.000,-0.006
20:32:42.658,SEARCHING,6.730,-0.441,1.666,0.00,0.00,5.16,2.896,4.014,3.051,4.014,3.945,0,0,SEARCHING,0.000,0.800,0.005,-0.012
20:32:42.858,SEARCHING,6.858,-0.430,1.666,0.00,0.00,5.03,2.825,3.814,3.011,3.814,3.814,0,0,SEARCHING,0.000,0.800,0.000,-0.015
20:32:43.060,SEARCHING,6.985,-0.418,1.666,0.00,0.00,4.84,2.757,3.751,3.269,3.751,3.691,0,0,SEARCHING,0.000,0.800,0.005,-0.040
20:32:43.260,SEARCHING,7.113,-0.408,1.667,0.00,0.00,4.40,2.630,3.575,3.365,3.575,3.575,0,0,SEARCHING,0.000,0.800,0.000,-0.058
20:32:43.460,SEARCHING,7.240,-0.399,1.666,0.00,0.00,3.81,2.460,3.467,3.269,3.467,3.467,0,0,SEARCHING,0.000,0.800,0.000,-0.070
20:32:43.662,SEARCHING,7.368,-0.391,1.665,0.00,0.00,3.14,2.384,3.365,3.178,3.365,3.365,0,0,SEARCHING,0.000,0.800,0.000,-0.073
20:32:43.863,SEARCHING,7.496,-0.385,1.666,0.00,0.00,2.45,2.311,3.316,3.092,3.269,3.269,0,0,SEARCHING,0.000,0.800,0.000,-0.076
20:32:44.063,SEARCHING,7.624,-0.380,1.666,0.00,0.00,1.81,2.311,3.223,2.972,3.223,3.269,0,0,SEARCHING,0.000,0.800,-0.005,-0.067
20:32:44.263,SEARCHING,7.752,-0.376,1.665,0.00,0.00,1.22,2.335,3.092,2.860,3.178,3.178,0,0,SEARCHING,0.000,0.800,0.000,-0.055
20:32:44.464,SEARCHING,7.880,-0.374,1.665,0.00,0.00,0.72,2.266,3.092,2.790,3.134,3.134,0,0,SEARCHING,0.000,0.800,0.000,-0.058
20:32:44.666,SEARCHING,8.008,-0.373,1.664,0.00,0.00,0.22,2.288,3.134,2.692,3.223,3.134,0,0,SEARCHING,0.000,0.800,0.010,-0.046
20:32:44.867,SEARCHING,8.136,-0.373,1.667,0.00,0.00,-0.18,2.288,3.316,2.542,3.316,3.316,0,0,SEARCHING,0.000,0.800,0.000,-0.031
20:32:45.066,SEARCHING,8.264,-0.374,1.666,0.00,0.00,-0.45,2.222,3.134,2.409,3.223,3.467,0,0,SEARCHING,0.000,0.800,-0.026,-0.024
20:32:45.266,SEARCHING,8.392,-0.375,1.659,0.00,0.00,-0.66,2.179,2.934,2.335,3.092,3.632,0,0,SEARCHING,0.000,0.800,-0.058,-0.021
20:32:45.467,SEARCHING,8.520,-0.376,1.646,0.00,0.00,-0.81,2.159,2.825,2.222,2.934,3.632,0,0,SEARCHING,0.000,0.800,-0.079,-0.009
20:32:45.668,SEARCHING,8.648,-0.378,1.629,0.00,0.00,-0.91,2.043,2.692,2.138,2.825,3.632,0,0,SEARCHING,0.000,0.800,-0.094,-0.015
20:32:45.868,SEARCHING,8.776,-0.380,1.608,0.00,0.00,-1.07,1.939,2.600,2.119,2.692,3.691,0,0,SEARCHING,0.000,0.800,-0.121,-0.031
20:32:46.069,SEARCHING,8.904,-0.383,1.584,0.00,0.00,-1.42,1.802,2.434,2.119,2.571,3.814,0,0,SEARCHING,0.000,0.800,-0.152,-0.058
20:32:46.269,SEARCHING,9.032,-0.387,1.551,0.00,0.00,-1.98,1.670,2.266,2.043,2.434,3.814,0,0,SEARCHING,0.000,0.800,-0.178,-0.076
20:32:46.469,SEARCHING,9.160,-0.392,1.513,0.00,0.00,-2.73,1.557,2.119,1.973,2.243,3.751,0,0,SEARCHING,0.000,0.800,-0.215,-0.095
20:32:46.670,SEARCHING,9.287,-0.399,1.471,0.00,0.00,-3.70,1.430,2.179,1.907,2.179,3.691,0,0,SEARCHING,0.000,0.800,-0.226,-0.122
20:32:46.870,SEARCHING,9.415,-0.408,1.425,0.00,0.00,-4.77,1.439,2.025,1.831,2.043,3.467,0,0,SEARCHING,0.000,0.800,-0.241,-0.104
20:32:47.070,SEARCHING,9.542,-0.420,1.376,0.00,0.00,-5.59,1.567,1.923,1.733,1.923,3.316,0,0,SEARCHING,0.000,0.800,-0.262,-0.043
20:32:47.274,SEARCHING,9.670,-0.433,1.322,0.00,0.00,-5.96,1.634,1.788,1.747,1.774,3.178,0,0,SEARCHING,0.000,0.800,-0.299,-0.028
20:32:47.477,SEARCHING,9.797,-0.446,1.261,0.00,0.00,-6.16,1.670,1.658,1.670,1.646,3.011,0,0,SEARCHING,0.000,0.800,-0.330,0.000
20:32:47.676,SEARCHING,9.924,-0.460,1.192,0.00,0.00,-6.30,1.567,1.646,1.646,1.525,2.896,0,0,SEARCHING,0.000,0.800,-0.372,-0.021
20:32:47.877,SEARCHING,10.052,-0.474,1.115,0.00,0.00,-6.30,1.720,2.860,1.646,1.421,2.724,0,0,SEARCHING,0.000,0.800,-0.404,0.018
20:32:48.078,SEARCHING,10.179,-0.488,1.032,0.00,0.00,-6.10,1.788,2.757,1.634,1.315,2.571,0,0,SEARCHING,0.000,0.800,-0.446,0.037
20:32:48.278,SEARCHING,10.306,-0.501,0.941,0.00,0.00,-5.75,1.760,2.692,1.634,1.237,2.266,0,0,SEARCHING,0.000,0.800,-0.441,0.031
20:32:48.479,SEARCHING,10.434,-0.514,0.859,0.00,0.00,-5.52,1.747,2.661,1.623,2.630,2.099,0,0,SEARCHING,0.000,0.800,0.115,0.031
20:32:48.680,SEARCHING,10.561,-0.526,0.888,0.00,0.00,-5.22,1.747,2.571,1.611,2.514,2.179,0,0,SEARCHING,0.000,0.800,0.073,0.034
20:32:48.880,SEARCHING,10.688,-0.537,0.902,0.00,0.00,-4.89,1.733,2.487,1.634,2.487,2.179,0,0,SEARCHING,0.000,0.800,0.068,0.024
20:32:49.080,SEARCHING,10.816,-0.548,0.914,0.00,0.00,-4.68,1.708,2.434,1.634,2.409,2.222,0,0,SEARCHING,0.000,0.800,0.042,0.018
20:32:49.281,SEARCHING,10.944,-0.558,0.920,0.00,0.00,-4.50,1.708,2.359,1.600,2.288,2.222,0,0,SEARCHING,0.000,0.800,0.016,0.028
20:32:49.481,SEARCHING,11.071,-0.567,0.924,0.00,0.00,-3.16,3.814,2.359,1.496,2.359,2.222,0,0,SEARCHING,0.000,0.800,0.031,0.285
20:32:49.682,SEARCHING,11.199,-0.572,0.930,0.00,0.00,-0.48,4.086,2.409,1.486,2.434,2.266,0,0,SEARCHING,0.000,0.800,0.037,0.300
20:32:49.882,SEARCHING,11.327,-0.570,0.938,0.00,0.00,2.33,1.387,2.600,1.496,2.600,2.266,0,0,SEARCHING,0.000,0.800,0.068,-0.037
20:32:50.081,SEARCHING,11.455,-0.565,0.952,0.00,0.00,3.59,4.400,2.600,1.505,2.600,2.311,0,0,SEARCHING,0.000,0.800,0.058,0.306
20:32:50.281,SEARCHING,11.583,-0.555,0.963,0.00,0.00,4.53,4.767,2.542,1.486,2.542,2.359,0,0,SEARCHING,0.000,0.800,0.037,0.324
20:32:50.482,SEARCHING,11.710,-0.542,0.969,0.00,0.00,7.43,4.670,2.487,1.546,2.487,2.335,0,0,SEARCHING,0.000,0.800,0.031,0.303
20:32:50.682,SEARCHING,11.836,-0.523,0.976,0.00,0.00,10.15,4.317,2.571,1.634,2.571,2.409,0,0,SEARCHING,0.000,0.800,0.031,0.266
20:32:50.883,SEARCHING,11.962,-0.498,0.984,0.00,0.00,12.56,2.138,2.724,1.708,2.692,2.409,0,0,SEARCHING,0.000,0.800,0.052,0.083
20:32:51.085,SEARCHING,12.087,-0.469,0.994,0.00,0.00,13.97,3.814,2.757,1.760,2.757,2.434,0,0,SEARCHING,0.000,0.800,0.058,0.214
20:32:51.284,SEARCHING,12.211,-0.437,1.006,0.00,0.00,14.99,1.816,2.790,1.774,2.825,2.460,0,0,SEARCHING,0.000,0.800,0.063,0.009
20:32:51.485,SEARCHING,12.334,-0.403,1.016,0.00,0.00,15.17,3.751,2.724,1.670,2.757,2.487,0,0,SEARCHING,0.000,0.800,0.047,0.232
20:32:51.689,SEARCHING,12.457,-0.368,1.025,0.00,0.00,17.37,3.632,2.757,1.623,2.825,2.542,0,0,SEARCHING,0.000,0.800,0.047,0.239
20:32:51.889,SEARCHING,12.579,-0.328,1.035,0.00,0.00,19.53,3.691,2.972,1.646,2.972,2.542,0,0,SEARCHING,0.000,0.800,0.068,0.236
20:32:52.088,SEARCHING,12.699,-0.283,1.051,0.00,0.00,21.65,1.448,3.269,1.695,3.223,2.571,0,0,SEARCHING,0.000,0.800,0.094,-0.070
20:32:52.289,SEARCHING,12.818,-0.236,1.070,0.00,0.00,22.24,3.134,3.269,1.682,3.316,2.630,0,0,SEARCHING,0.000,0.800,0.094,0.193
20:32:52.489,SEARCHING,12.935,-0.186,1.090,0.00,0.00,23.95,2.790,3.467,1.695,3.365,2.692,0,0,SEARCHING,0.000,0.800,0.089,0.162
20:32:52.691,SEARCHING,13.052,-0.132,1.107,0.00,0.00,25.28,2.571,3.365,1.760,3.365,2.724,0,0,SEARCHING,0.000,0.800,0.084,0.125
20:32:52.891,SEARCHING,13.167,-0.077,1.123,0.00,0.00,26.42,2.600,3.223,1.760,3.223,2.790,0,0,SEARCHING,0.000,0.800,0.058,0.128
20:32:53.091,SEARCHING,13.281,-0.019,1.136,0.00,0.00,27.54,2.600,3.134,1.802,3.178,2.790,0,0,SEARCHING,0.000,0.800,0.052,0.119
20:32:53.294,SEARCHING,13.394,0.041,1.145,0.00,0.00,28.56,2.335,3.751,1.831,3.751,2.860,0,0,SEARCHING,0.000,0.800,0.100,0.083
20:32:53.493,SEARCHING,13.506,0.103,1.164,0.00,0.00,29.31,2.335,3.575,1.876,3.520,2.896,0,0,SEARCHING,0.000,0.800,0.073,0.073
20:32:53.692,SEARCHING,13.618,0.166,1.177,0.00,0.00,29.95,2.266,3.365,1.923,3.365,2.934,0,0,SEARCHING,0.000,0.800,0.052,0.055
20:32:53.893,SEARCHING,13.728,0.231,1.186,0.00,0.00,30.50,2.311,3.223,2.080,3.134,2.972,0,0,SEARCHING,0.000,0.800,0.021,0.034
20:32:54.094,SEARCHING,13.838,0.296,1.190,0.00,0.00,30.77,2.288,3.092,2.119,3.051,2.972,0,0,SEARCHING,0.000,0.800,0.010,0.024
20:32:54.296,SEARCHING,13.948,0.362,1.192,0.00,0.00,30.99,2.311,3.011,2.099,2.972,2.972,0,0,SEARCHING,0.000,0.800,0.000,0.031
20:32:54.496,SEARCHING,14.058,0.428,1.192,0.00,0.00,31.27,2.266,2.896,2.080,2.860,2.860,0,0,SEARCHING,0.000,0.800,0.000,0.028
20:32:54.697,SEARCHING,14.167,0.494,1.191,0.00,0.00,31.55,2.266,2.757,2.007,2.790,2.724,0,0,SEARCHING,0.000,0.800,0.010,0.040
20:32:54.897,SEARCHING,14.276,0.562,1.192,0.00,0.00,31.94,2.200,2.661,1.891,2.630,2.661,0,0,SEARCHING,0.000,0.800,-0.005,0.052
20:32:55.097,SEARCHING,14.384,0.630,1.191,0.00,0.00,32.48,2.200,2.571,1.788,2.514,2.514,0,0,SEARCHING,0.000,0.800,0.000,0.073
20:32:55.297,SEARCHING,14.492,0.699,1.191,0.00,0.00,33.16,2.080,2.409,1.682,2.409,2.409,0,0,SEARCHING,0.000,0.800,0.000,0.080
20:32:55.499,SEARCHING,14.599,0.770,1.191,0.00,0.00,33.92,1.973,2.222,1.876,2.266,2.222,0,0,SEARCHING,0.000,0.800,0.010,0.018
20:32:55.706,SEARCHING,14.705,0.841,1.193,0.00,0.00,33.92,1.845,2.138,2.138,2.159,2.138,0,0,SEARCHING,0.000,0.800,0.005,-0.052
20:32:55.904,SEARCHING,14.811,0.912,1.195,0.00,0.00,33.32,1.733,2.119,2.243,2.119,2.099,0,0,SEARCHING,0.000,0.800,0.005,-0.092
20:32:56.105,SEARCHING,14.919,0.982,1.196,0.00,0.00,32.35,1.567,2.099,2.266,2.080,2.080,0,0,SEARCHING,0.000,0.800,0.000,-0.138
20:32:56.308,SEARCHING,15.028,1.049,1.195,0.00,0.00,31.03,1.430,2.119,2.222,2.099,2.119,0,0,SEARCHING,0.000,0.800,-0.005,-0.174
20:32:56.506,SEARCHING,15.138,1.114,1.195,0.00,0.00,29.39,1.300,2.200,2.099,2.200,2.159,0,0,SEARCHING,0.000,0.800,0.010,-0.205
20:32:56.707,SEARCHING,15.251,1.175,1.196,0.00,0.00,27.47,1.217,2.288,1.907,2.288,2.266,0,0,SEARCHING,0.000,0.800,0.005,-0.208
20:32:56.909,SEARCHING,15.365,1.232,1.199,0.00,0.00,25.62,1.244,2.434,1.774,2.460,2.179,0,0,SEARCHING,0.000,0.800,0.063,-0.168
20:32:57.110,SEARCHING,15.481,1.286,1.216,0.00,0.00,24.16,1.264,2.542,1.658,2.542,2.179,0,0,SEARCHING,0.000,0.800,0.079,-0.132
20:32:57.310,SEARCHING,15.598,1.338,1.232,0.00,0.00,22.95,1.271,2.542,1.611,2.571,2.061,0,0,SEARCHING,0.000,0.800,0.115,-0.116
20:32:57.512,SEARCHING,15.716,1.387,1.257,0.00,0.00,21.95,1.300,4.160,1.557,2.972,1.923,0,0,SEARCHING,0.000,0.800,0.220,-0.089
20:32:57.713,SEARCHING,15.835,1.434,1.311,0.00,0.00,21.20,1.300,4.576,1.496,3.415,1.788,0,0,SEARCHING,0.000,0.800,0.320,-0.070
20:32:57.914,SEARCHING,15.955,1.480,1.374,0.00,0.00,20.56,1.308,4.868,1.505,3.223,1.720,0,0,SEARCHING,0.000,0.800,0.325,-0.070
20:32:58.112,SEARCHING,16.075,1.524,1.441,0.00,0.00,19.94,1.338,5.085,1.467,3.092,1.682,0,0,SEARCHING,0.000,0.800,0.325,-0.046
20:32:58.312,SEARCHING,16.196,1.567,1.504,0.00,0.00,19.58,1.338,4.974,1.476,2.896,1.788,0,0,SEARCHING,0.000,0.800,0.257,-0.049
20:32:58.513,SEARCHING,16.316,1.610,1.550,0.00,0.00,19.14,1.330,4.868,1.486,2.825,1.907,0,0,SEARCHING,0.000,0.800,0.205,-0.055
20:32:58.713,SEARCHING,16.437,1.651,1.587,0.00,0.00,18.68,1.362,4.487,1.430,2.724,2.007,0,0,SEARCHING,0.000,0.800,0.157,-0.024
20:32:58.914,SEARCHING,16.559,1.692,1.615,0.00,0.00,18.54,1.346,2.757,1.421,2.542,2.099,0,0,SEARCHING,0.000,0.800,0.100,-0.028
20:32:59.114,SEARCHING,16.680,1.733,1.632,0.00,0.00,18.29,1.323,2.600,1.404,2.409,2.159,0,0,SEARCHING,0.000,0.800,0.058,-0.031
20:32:59.316,SEARCHING,16.802,1.772,1.642,0.00,0.00,17.05,2.600,2.542,2.266,2.311,2.179,0,0,SEARCHING,0.000,0.800,0.031,0.040
20:32:59.516,SEARCHING,16.924,1.810,1.647,0.00,0.00,17.46,2.514,2.487,2.200,2.159,2.179,0,0,SEARCHING,0.000,0.800,-0.005,0.040
20:32:59.716,SEARCHING,17.046,1.849,1.643,0.00,0.00,17.82,2.460,2.359,2.179,2.043,2.179,0,0,SEARCHING,0.000,0.800,-0.037,0.037
20:32:59.917,SEARCHING,17.168,1.888,1.634,0.00,0.00,18.07,3.011,2.222,2.243,1.876,2.138,0,0,SEARCHING,0.000,0.800,-0.079,0.080
20:33:00.118,SEARCHING,17.289,1.929,1.617,0.00,0.00,18.82,3.011,3.945,2.266,1.774,2.080,0,0,SEARCHING,0.000,0.800,-0.100,0.076
20:33:00.318,SEARCHING,17.410,1.970,1.596,0.00,0.00,19.51,2.934,3.751,2.661,1.670,2.025,0,0,SEARCHING,0.000,0.800,-0.126,0.024
20:33:00.518,SEARCHING,17.531,2.013,1.567,0.00,0.00,19.56,2.896,3.632,3.011,1.546,1.939,0,0,SEARCHING,0.000,0.800,-0.157,-0.009
20:33:00.718,SEARCHING,17.652,2.056,1.534,0.00,0.00,19.49,2.825,3.520,2.860,1.421,1.831,0,0,SEARCHING,0.000,0.800,-0.189,-0.003
20:33:00.918,SEARCHING,17.772,2.099,1.494,0.00,0.00,19.45,2.724,3.415,2.825,1.346,1.708,0,0,SEARCHING,0.000,0.800,-0.189,-0.009
20:33:02.086,SEARCHING,17.863,2.131,1.464,0.00,0.00,19.39,2.692,3.415,2.790,1.412,1.658,0,0,SEARCHING,0.000,0.800,-0.126,-0.009
20:33:02.162,SEARCHING,17.938,2.157,1.437,0.00,0.00,19.35,2.542,3.269,2.661,1.505,2.630,0,0,SEARCHING,0.000,0.800,-0.341,-0.012
20:33:02.343,SEARCHING,18.059,2.200,1.409,0.00,0.00,19.22,2.434,3.134,2.542,1.536,2.571,0,0,SEARCHING,0.000,0.800,-0.315,-0.012
20:33:02.541,SEARCHING,18.180,2.242,1.350,0.00,0.00,19.12,2.311,2.972,2.384,1.695,2.409,0,0,SEARCHING,0.000,0.800,-0.210,-0.009
20:33:02.743,SEARCHING,18.301,2.283,1.314,0.00,0.00,19.02,2.179,2.825,2.266,1.845,2.266,0,0,SEARCHING,0.000,0.800,-0.121,-0.012
20:33:02.941,SEARCHING,18.422,2.325,1.291,0.00,0.00,18.91,2.043,2.724,2.138,1.860,2.222,0,0,SEARCHING,0.000,0.800,-0.105,-0.015
20:33:03.142,SEARCHING,18.543,2.366,1.273,0.00,0.00,18.79,1.939,2.630,2.025,1.907,2.159,0,0,SEARCHING,0.000,0.800,-0.073,-0.015
20:33:03.342,SEARCHING,18.664,2.408,1.258,0.00,0.00,18.67,1.876,2.487,1.860,1.923,2.138,0,0,SEARCHING,0.000,0.800,-0.063,0.003
20:33:03.542,SEARCHING,18.786,2.449,1.246,0.00,0.00,18.72,1.845,2.359,1.788,1.956,2.159,0,0,SEARCHING,0.000,0.800,-0.058,0.012
20:33:03.744,SEARCHING,18.907,2.490,1.232,0.00,0.00,18.87,1.860,2.243,1.720,1.907,2.159,0,0,SEARCHING,0.000,0.800,-0.073,0.031
20:33:03.944,SEARCHING,19.028,2.531,1.221,0.00,0.00,19.11,1.860,2.080,1.747,2.099,2.043,0,0,SEARCHING,0.000,0.800,0.016,0.024
20:33:04.144,SEARCHING,19.149,2.573,1.223,0.00,0.00,19.36,1.860,1.990,1.774,1.956,1.973,0,0,SEARCHING,0.000,0.800,-0.005,0.018
20:33:04.345,SEARCHING,19.269,2.616,1.222,0.00,0.00,19.56,1.845,1.831,1.670,1.831,1.831,0,0,SEARCHING,0.000,0.800,0.000,0.040
20:33:04.545,SEARCHING,19.390,2.659,1.222,0.00,0.00,19.82,1.860,1.708,1.720,1.720,1.708,0,0,SEARCHING,0.000,0.800,0.005,0.031
20:33:04.746,SEARCHING,19.510,2.703,1.223,0.00,0.00,20.17,1.816,1.578,1.578,1.589,1.578,0,0,SEARCHING,0.000,0.800,0.005,0.058
20:33:04.947,SEARCHING,19.630,2.748,1.224,0.00,0.00,20.76,1.774,1.476,1.448,1.457,1.467,0,0,SEARCHING,0.000,0.787,-0.005,0.089
20:33:05.148,SEARCHING,19.745,2.792,1.222,0.00,0.00,21.63,1.720,1.387,1.323,1.404,1.404,0,0,SEARCHING,0.000,0.740,0.000,0.122
20:33:05.350,SEARCHING,19.854,2.836,1.222,0.00,0.00,22.84,1.670,1.338,1.198,1.346,1.330,0,0,SEARCHING,0.000,0.714,0.010,0.165
20:33:05.550,SEARCHING,19.958,2.882,1.224,0.00,0.00,24.47,1.578,1.323,1.074,1.308,1.323,0,0,SEARCHING,0.000,0.705,-0.010,0.208
20:33:05.751,SEARCHING,20.059,2.929,1.227,0.00,0.00,26.47,1.476,1.264,0.949,1.257,1.257,0,0,SEARCHING,0.000,0.674,0.000,0.263
20:33:05.952,SEARCHING,20.163,2.984,1.164,0.00,0.00,29.04,1.346,3.092,0.820,3.092,2.600,0,0,SEARCHING,0.000,0.800,0.073,0.333
20:33:06.152,SEARCHING,20.274,3.049,1.181,0.00,0.00,32.05,1.230,2.542,0.809,2.542,2.487,0,0,SEARCHING,0.000,0.800,0.010,0.297
20:33:06.353,SEARCHING,20.381,3.119,1.184,0.00,0.00,34.60,1.122,2.119,0.792,2.119,2.119,0,0,SEARCHING,0.000,0.800,0.000,0.260
20:33:06.554,SEARCHING,20.485,3.193,1.184,0.00,0.00,36.69,1.017,1.816,3.520,1.802,1.816,0,0,SEARCHING,0.000,0.800,-0.005,-0.489
20:33:06.754,SEARCHING,20.590,3.266,1.183,0.00,0.00,32.23,1.054,2.099,3.223,2.099,2.099,0,0,SEARCHING,0.000,0.800,0.000,-0.447
20:33:06.952,SEARCHING,20.700,3.331,1.183,0.00,0.00,28.34,1.127,2.514,2.825,2.542,2.542,0,0,SEARCHING,0.000,0.800,0.000,-0.373
20:33:07.151,SEARCHING,20.814,3.389,1.184,0.00,0.00,25.11,1.198,2.860,2.661,2.790,2.692,0,0,SEARCHING,0.000,0.800,0.016,-0.321
20:33:07.351,SEARCHING,20.931,3.441,1.192,0.00,0.00,22.35,1.338,4.160,2.460,4.160,2.692,0,0,SEARCHING,0.000,0.800,0.157,-0.239
20:33:07.551,SEARCHING,21.051,3.487,1.221,0.00,0.00,20.43,1.557,3.691,2.335,3.691,2.825,0,0,SEARCHING,0.000,0.800,0.100,-0.150
20:33:07.751,SEARCHING,21.171,3.531,1.239,0.00,0.00,19.11,1.634,3.520,2.222,3.520,2.934,0,0,SEARCHING,0.000,0.800,0.068,-0.113
20:33:07.952,SEARCHING,21.292,3.572,1.251,0.00,0.00,18.17,1.720,3.365,2.119,3.316,3.011,0,0,SEARCHING,0.000,0.800,0.037,-0.076
20:33:08.156,SEARCHING,21.414,3.611,1.257,0.00,0.00,17.50,1.747,3.134,2.007,3.134,2.972,0,0,SEARCHING,0.000,0.800,0.021,-0.052
20:33:08.354,SEARCHING,21.536,3.649,1.260,0.00,0.00,17.08,1.788,2.972,2.025,2.972,2.934,0,0,SEARCHING,0.000,0.800,0.005,-0.046
20:33:08.554,SEARCHING,21.659,3.686,1.261,0.00,0.00,16.75,1.831,2.896,1.956,2.896,2.860,0,0,SEARCHING,0.000,0.800,0.005,-0.024
20:33:08.754,SEARCHING,21.781,3.723,1.262,0.00,0.00,16.58,1.788,2.790,1.831,2.790,2.757,0,0,SEARCHING,0.000,0.800,0.005,-0.009
20:33:08.955,SEARCHING,21.904,3.760,1.263,0.00,0.00,17.50,3.632,2.757,1.708,2.724,2.661,0,0,SEARCHING,0.000,0.800,0.010,0.217
20:33:09.155,SEARCHING,22.025,3.800,1.264,0.00,0.00,19.46,3.415,2.724,1.695,2.790,2.790,0,0,SEARCHING,0.000,0.800,0.000,0.208
20:33:09.356,SEARCHING,22.146,3.844,1.264,0.00,0.00,20.20,3.092,2.825,1.682,2.825,2.860,0,0,SEARCHING,0.000,0.800,-0.005,0.190
20:33:09.556,SEARCHING,22.265,3.890,1.264,0.00,0.00,21.91,2.896,2.934,1.670,2.896,2.896,0,0,SEARCHING,0.000,0.800,0.000,0.177
20:33:09.757,SEARCHING,22.383,3.939,1.265,0.00,0.00,23.50,2.757,3.092,1.670,3.051,2.934,0,0,SEARCHING,0.000,0.800,0.016,0.165
20:33:09.957,SEARCHING,22.500,3.992,1.267,0.00,0.00,25.00,2.600,4.014,1.695,3.945,3.092,0,0,SEARCHING,0.000,0.800,0.084,0.144
20:33:10.159,SEARCHING,22.616,4.047,1.287,0.00,0.00,26.25,2.487,4.160,1.733,4.160,3.134,0,0,SEARCHING,0.000,0.800,0.094,0.122
20:33:10.358,SEARCHING,22.730,4.104,1.306,0.00,0.00,27.37,2.384,4.317,1.733,4.317,3.178,0,0,SEARCHING,0.000,0.800,0.100,0.110
20:33:10.559,SEARCHING,22.843,4.164,1.327,0.00,0.00,28.36,2.266,4.400,1.733,4.400,3.223,0,0,SEARCHING,0.000,0.800,0.100,0.095
20:33:10.759,SEARCHING,22.955,4.226,1.346,0.00,0.00,29.19,2.243,4.487,1.720,4.487,3.269,0,0,SEARCHING,0.000,0.800,0.100,0.095
20:33:10.961,SEARCHING,23.067,4.289,1.366,0.00,0.00,30.00,2.159,4.576,1.733,4.576,3.316,0,0,SEARCHING,0.000,0.800,0.100,0.080
20:33:11.161,SEARCHING,23.177,4.353,1.386,0.00,0.00,30.72,2.099,4.670,1.760,4.767,3.415,0,0,SEARCHING,0.000,0.800,0.100,0.064
20:33:11.362,SEARCHING,23.287,4.419,1.406,0.00,0.00,31.31,2.025,4.868,1.747,4.767,3.415,0,0,SEARCHING,0.000,0.800,0.100,0.055
20:33:11.566,SEARCHING,23.396,4.486,1.425,0.00,0.00,31.84,2.007,5.085,2.630,4.767,3.520,0,0,SEARCHING,0.000,0.800,0.089,-0.083
20:33:11.769,SEARCHING,23.505,4.553,1.442,0.00,0.00,31.10,1.990,4.767,2.487,4.670,3.575,0,0,SEARCHING,0.000,0.800,0.079,-0.070
20:33:11.969,SEARCHING,23.615,4.619,1.457,0.00,0.00,30.50,2.007,4.487,2.384,4.487,3.575,0,0,SEARCHING,0.000,0.800,0.068,-0.055
20:33:12.170,SEARCHING,23.726,4.683,1.470,0.00,0.00,30.03,2.061,4.317,2.335,4.400,3.632,0,0,SEARCHING,0.000,0.800,0.058,-0.040
20:33:12.370,SEARCHING,23.837,4.747,1.481,0.00,0.00,29.67,2.080,4.160,2.288,4.237,3.691,0,0,SEARCHING,0.000,0.800,0.042,-0.031
20:33:12.572,SEARCHING,23.948,4.810,1.488,0.00,0.00,29.40,2.061,4.086,2.200,4.160,3.691,0,0,SEARCHING,0.000,0.800,0.037,-0.021
20:33:12.772,SEARCHING,24.060,4.873,1.494,0.00,0.00,29.28,2.061,3.945,2.080,4.086,3.751,0,0,SEARCHING,0.000,0.800,0.026,-0.003
20:33:12.973,SEARCHING,24.171,4.935,1.500,0.00,0.00,29.26,2.061,3.945,2.007,4.014,3.751,0,0,SEARCHING,0.000,0.800,0.021,0.009
20:33:13.173,SEARCHING,24.283,4.998,1.503,0.00,0.00,29.37,2.080,3.814,1.990,3.878,3.691,0,0,SEARCHING,0.000,0.800,0.016,0.015
20:33:13.374,SEARCHING,24.394,5.061,1.506,0.00,0.00,29.54,2.080,3.878,1.956,3.878,3.751,0,0,SEARCHING,0.000,0.800,0.010,0.021
20:33:13.574,SEARCHING,24.505,5.124,1.509,0.00,0.00,30.12,2.692,3.878,1.939,3.878,3.691,0,0,SEARCHING,0.000,0.800,0.016,0.101
20:33:13.775,SEARCHING,24.616,5.189,1.514,0.00,0.00,31.08,2.542,4.237,1.973,4.237,3.751,0,0,SEARCHING,0.000,0.800,0.037,0.080
20:33:13.975,SEARCHING,24.725,5.256,1.522,0.00,0.00,31.84,2.487,4.576,1.923,4.317,3.814,0,0,SEARCHING,0.000,0.800,0.037,0.083
20:33:14.176,SEARCHING,24.833,5.324,1.530,0.00,0.00,32.56,2.460,4.767,1.956,4.487,3.814,0,0,SEARCHING,0.000,0.800,0.047,0.073
20:33:14.379,SEARCHING,24.941,5.394,1.540,0.00,0.00,33.16,2.409,5.321,1.990,4.576,3.814,0,0,SEARCHING,0.000,0.800,0.052,0.061
20:33:14.579,SEARCHING,25.048,5.464,1.550,0.00,0.00,33.69,2.311,5.867,2.007,4.576,3.814,0,0,SEARCHING,0.000,0.800,0.052,0.046
20:33:14.779,SEARCHING,25.154,5.536,1.560,0.00,0.00,34.14,2.335,5.720,2.007,4.576,3.878,0,0,SEARCHING,0.000,0.800,0.047,0.049
20:33:14.976,SEARCHING,25.260,5.608,1.569,0.00,0.00,34.59,2.311,5.448,1.956,4.576,3.878,0,0,SEARCHING,0.000,0.800,0.047,0.055
20:33:15.176,SEARCHING,25.365,5.681,1.579,0.00,0.00,35.07,2.266,5.321,1.973,4.487,3.945,0,0,SEARCHING,0.000,0.800,0.037,0.046
20:33:15.376,SEARCHING,25.469,5.755,1.586,0.00,0.00,35.40,2.159,5.085,2.025,4.487,3.945,0,0,SEARCHING,0.000,0.800,0.037,0.021
20:33:15.576,SEARCHING,25.574,5.829,1.593,0.00,0.00,35.63,2.222,5.085,2.007,4.487,4.014,0,0,SEARCHING,0.000,0.800,0.031,0.034
20:33:15.777,SEARCHING,25.677,5.904,1.600,0.00,0.00,35.88,2.179,4.868,2.025,4.487,4.014,0,0,SEARCHING,0.000,0.800,0.031,0.024
20:33:15.978,SEARCHING,25.781,5.979,1.606,0.00,0.00,36.06,2.138,4.868,2.099,4.487,3.945,0,0,SEARCHING,0.000,0.800,0.037,0.006
20:33:16.178,SEARCHING,25.884,6.054,1.612,0.00,0.00,36.13,2.138,4.670,2.159,4.487,4.014,0,0,SEARCHING,0.000,0.800,0.031,-0.003
20:33:16.379,SEARCHING,25.988,6.130,1.618,0.00,0.00,36.15,2.138,4.576,2.119,4.487,4.014,0,0,SEARCHING,0.000,0.800,0.031,0.003
20:33:16.579,SEARCHING,26.091,6.205,1.624,0.00,0.00,36.20,2.200,4.487,2.099,4.400,4.086,0,0,SEARCHING,0.000,0.800,0.021,0.015
20:33:16.780,SEARCHING,26.194,6.281,1.628,0.00,0.00,36.26,2.138,4.400,2.138,4.317,4.014,0,0,SEARCHING,0.000,0.800,0.021,0.000
20:33:16.980,SEARCHING,26.298,6.357,1.631,0.00,0.00,36.29,2.138,4.237,2.119,4.237,4.086,0,0,SEARCHING,0.000,0.800,0.010,0.003
20:33:17.181,SEARCHING,26.401,6.433,1.633,0.00,0.00,36.34,2.159,4.086,2.119,4.086,4.086,0,0,SEARCHING,0.000,0.800,0.000,0.006
20:33:17.382,SEARCHING,26.504,6.508,1.633,0.00,0.00,36.37,2.159,4.086,2.138,3.945,4.086,0,0,SEARCHING,0.000,0.800,-0.010,0.003
20:33:17.582,SEARCHING,26.607,6.584,1.631,0.00,0.00,36.38,2.138,3.945,2.099,3.945,4.014,0,0,SEARCHING,0.000,0.800,-0.005,0.006
20:33:17.783,SEARCHING,26.710,6.660,1.628,0.00,0.00,36.43,2.222,3.814,2.179,3.691,3.945,0,0,SEARCHING,0.000,0.800,-0.021,0.006
20:33:17.985,SEARCHING,26.813,6.736,1.621,0.00,0.00,36.48,2.288,3.575,2.243,3.467,3.878,0,0,SEARCHING,0.000,0.800,-0.037,0.006
20:33:18.184,SEARCHING,26.916,6.812,1.613,0.00,0.00,36.50,2.311,3.365,2.384,3.365,3.814,0,0,SEARCHING,0.000,0.800,-0.042,-0.009
20:33:18.384,SEARCHING,27.019,6.889,1.606,0.00,0.00,36.40,2.311,3.316,2.359,3.316,3.691,0,0,SEARCHING,0.000,0.800,-0.037,-0.006
20:33:18.585,SEARCHING,27.122,6.964,1.599,0.00,0.00,36.36,2.311,3.269,2.311,3.223,3.691,0,0,SEARCHING,0.000,0.800,-0.047,0.000
20:33:18.784,SEARCHING,27.225,7.040,1.590,0.00,0.00,36.34,2.311,3.316,2.311,3.178,3.575,0,0,SEARCHING,0.000,0.800,-0.042,0.000
20:33:18.985,SEARCHING,27.328,7.116,1.581,0.00,0.00,36.36,2.288,3.223,2.311,3.011,3.520,0,0,SEARCHING,0.000,0.800,-0.058,-0.003
20:33:19.185,SEARCHING,27.431,7.192,1.569,0.00,0.00,36.31,2.335,3.092,2.311,2.934,3.415,0,0,SEARCHING,0.000,0.800,-0.058,0.003
20:33:19.391,SEARCHING,27.534,7.268,1.556,0.00,0.00,36.31,2.243,3.316,2.359,2.860,3.316,0,0,SEARCHING,0.000,0.800,-0.058,-0.015
20:33:19.593,SEARCHING,27.637,7.344,1.544,0.00,0.00,36.20,2.288,3.223,2.311,2.757,3.269,0,0,SEARCHING,0.000,0.800,-0.068,-0.003
20:33:19.793,SEARCHING,27.741,7.419,1.531,0.00,0.00,36.22,2.243,3.092,2.243,2.630,3.134,0,0,SEARCHING,0.000,0.800,-0.073,0.000
20:33:19.994,SEARCHING,27.844,7.495,1.515,0.00,0.00,36.13,2.119,3.051,5.867,2.434,3.051,0,0,SEARCHING,0.000,0.800,-0.100,-0.211
20:33:20.194,SEARCHING,27.949,7.569,1.490,0.00,0.00,34.13,1.973,3.092,6.184,2.200,3.178,0,0,SEARCHING,0.000,0.800,-0.168,-0.242
20:33:20.395,SEARCHING,28.055,7.639,1.455,0.00,0.00,32.89,1.891,3.223,6.538,2.099,3.223,0,0,SEARCHING,0.000,0.800,-0.199,-0.263
20:33:20.595,SEARCHING,28.164,7.707,1.412,0.00,0.00,30.45,1.939,3.269,1.907,1.973,3.316,0,0,SEARCHING,0.000,0.800,-0.246,0.006
20:33:20.796,SEARCHING,28.274,7.771,1.363,0.00,0.00,30.59,1.923,3.223,6.184,1.939,3.178,0,0,SEARCHING,0.000,0.800,-0.241,-0.251
20:33:20.997,SEARCHING,28.386,7.835,1.313,0.00,0.00,28.34,1.939,3.316,5.085,1.816,3.178,0,0,SEARCHING,0.000,0.800,-0.283,-0.223
20:33:21.196,SEARCHING,28.499,7.894,1.250,0.00,0.00,27.61,1.973,3.365,4.400,1.708,3.092,0,0,SEARCHING,0.000,0.800,-0.315,-0.196
20:33:21.398,SEARCHING,28.613,7.952,1.190,0.00,0.00,25.85,1.973,3.365,3.415,1.845,2.972,0,0,SEARCHING,0.000,0.800,-0.246,-0.150
20:33:21.599,SEARCHING,28.729,8.007,1.177,0.00,0.00,24.56,2.025,3.520,2.434,3.520,2.934,0,0,SEARCHING,0.000,0.800,0.068,-0.058
20:33:21.799,SEARCHING,28.846,8.059,1.190,0.00,0.00,23.96,2.025,3.520,3.223,3.575,2.934,0,0,SEARCHING,0.000,0.800,0.073,-0.128
20:33:22.000,SEARCHING,28.963,8.110,1.204,0.00,0.00,22.82,2.061,3.575,3.051,3.575,3.011,0,0,SEARCHING,0.000,0.800,0.063,-0.110
20:33:22.200,SEARCHING,29.082,8.159,1.217,0.00,0.00,21.84,2.061,3.632,3.011,3.575,3.011,0,0,SEARCHING,0.000,0.800,0.063,-0.107
20:33:22.400,SEARCHING,29.201,8.206,1.229,0.00,0.00,20.86,2.025,3.691,2.860,3.575,3.051,0,0,SEARCHING,0.000,0.800,0.058,-0.101
20:33:22.602,SEARCHING,29.321,8.250,1.241,0.00,0.00,19.94,2.043,3.691,2.860,3.691,3.092,0,0,SEARCHING,0.000,0.800,0.063,-0.098
20:33:22.801,SEARCHING,29.441,8.293,1.254,0.00,0.00,19.02,2.025,3.814,2.757,3.814,3.134,0,0,SEARCHING,0.000,0.800,0.068,-0.092
20:33:23.000,SEARCHING,29.562,8.334,1.268,0.00,0.00,18.21,1.990,3.878,2.661,3.878,3.134,0,0,SEARCHING,0.000,0.800,0.073,-0.089
20:33:23.199,SEARCHING,29.684,8.373,1.283,0.00,0.00,17.45,2.043,3.945,2.571,3.945,3.178,0,0,SEARCHING,0.000,0.800,0.073,-0.070
20:33:23.401,SEARCHING,29.807,8.411,1.298,0.00,0.00,16.84,2.080,4.014,2.514,4.086,3.223,0,0,SEARCHING,0.000,0.800,0.079,-0.058
20:33:23.601,SEARCHING,29.929,8.448,1.313,0.00,0.00,16.28,2.043,4.160,2.542,4.160,3.269,0,0,SEARCHING,0.000,0.800,0.079,-0.067
20:33:23.802,SEARCHING,30.052,8.483,1.330,0.00,0.00,15.66,2.061,4.317,2.487,4.237,3.316,0,0,SEARCHING,0.000,0.800,0.079,-0.058
20:33:24.003,SEARCHING,30.176,8.517,1.347,0.00,0.00,15.17,2.061,4.317,2.460,4.317,3.365,0,0,SEARCHING,0.000,0.800,0.079,-0.055
20:33:24.203,SEARCHING,30.299,8.550,1.363,0.00,0.00,14.66,2.061,4.487,2.434,4.487,3.365,0,0,SEARCHING,0.000,0.800,0.089,-0.052
20:33:24.404,SEARCHING,30.423,8.582,1.380,0.00,0.00,14.16,2.007,4.576,2.409,4.487,3.415,0,0,SEARCHING,0.000,0.800,0.084,-0.058
20:33:24.604,SEARCHING,30.548,8.613,1.397,0.00,0.00,13.63,1.990,4.576,2.359,4.576,3.467,0,0,SEARCHING,0.000,0.800,0.084,-0.055
20:33:24.806,SEARCHING,30.672,8.643,1.413,0.00,0.00,13.18,2.007,4.670,2.359,4.576,3.520,0,0,SEARCHING,0.000,0.800,0.079,-0.052
20:33:25.005,SEARCHING,30.797,8.671,1.429,0.00,0.00,12.71,2.025,4.576,2.384,4.576,3.575,0,0,SEARCHING,0.000,0.800,0.073,-0.052
20:33:25.205,SEARCHING,30.922,8.699,1.445,0.00,0.00,12.22,2.061,4.670,2.359,4.670,3.575,0,0,SEARCHING,0.000,0.800,0.079,-0.043
20:33:25.408,SEARCHING,31.047,8.726,1.459,0.00,0.00,11.86,2.080,4.670,2.311,4.576,3.632,0,0,SEARCHING,0.000,0.800,0.068,-0.034
20:33:25.607,SEARCHING,31.172,8.752,1.472,0.00,0.00,11.54,2.061,4.576,2.222,4.576,3.691,0,0,SEARCHING,0.000,0.800,0.063,-0.024
20:33:25.809,SEARCHING,31.298,8.777,1.485,0.00,0.00,11.31,2.043,4.576,2.243,4.487,3.691,0,0,SEARCHING,0.000,0.800,0.058,-0.031
20:33:26.008,SEARCHING,31.423,8.802,1.497,0.00,0.00,11.05,2.080,4.576,2.243,4.576,3.751,0,0,SEARCHING,0.000,0.800,0.058,-0.024
20:33:26.210,SEARCHING,31.549,8.826,1.508,0.00,0.00,10.84,2.099,4.576,2.243,4.576,3.814,0,0,SEARCHING,0.000,0.800,0.052,-0.021
20:33:26.410,SEARCHING,31.675,8.850,1.519,0.00,0.00,10.67,2.099,4.487,2.266,4.576,3.814,0,0,SEARCHING,0.000,0.800,0.052,-0.024
20:33:26.611,SEARCHING,31.801,8.874,1.529,0.00,0.00,10.44,2.080,4.400,2.243,4.400,3.814,0,0,SEARCHING,0.000,0.800,0.042,-0.024
20:33:26.811,SEARCHING,31.926,8.897,1.536,0.00,0.00,10.23,2.119,4.317,2.243,4.317,3.878,0,0,SEARCHING,0.000,0.800,0.031,-0.018
20:33:27.011,SEARCHING,32.052,8.919,1.541,0.00,0.00,10.01,2.138,4.086,2.600,4.160,3.814,0,0,SEARCHING,0.000,0.800,0.026,-0.058
20:33:27.212,SEARCHING,32.179,8.941,1.547,0.00,0.00,9.48,2.159,4.014,2.630,4.014,3.814,0,0,SEARCHING,0.000,0.800,0.016,-0.058
20:33:27.412,SEARCHING,32.305,8.962,1.549,0.00,0.00,8.97,2.200,3.878,2.600,3.814,3.751,0,0,SEARCHING,0.000,0.800,0.005,-0.049
20:33:27.613,SEARCHING,32.431,8.981,1.550,0.00,0.00,8.58,2.266,3.751,2.542,3.751,3.751,0,0,SEARCHING,0.000,0.800,0.000,-0.034
20:33:27.815,SEARCHING,32.558,9.000,1.550,0.00,0.00,8.23,2.222,3.632,2.571,3.632,3.632,0,0,SEARCHING,0.000,0.800,0.000,-0.043
20:33:28.015,SEARCHING,32.685,9.018,1.550,0.00,0.00,7.88,2.222,3.520,2.542,3.520,3.520,0,0,SEARCHING,0.000,0.800,0.000,-0.040
20:33:28.215,SEARCHING,32.812,9.035,1.550,0.00,0.00,7.58,2.222,3.415,2.487,3.415,3.415,0,0,SEARCHING,0.000,0.800,0.000,-0.034
20:33:28.416,SEARCHING,32.939,9.052,1.550,0.00,0.00,7.32,2.288,3.316,2.542,3.316,3.316,0,0,SEARCHING,0.000,0.800,0.000,-0.031
20:33:28.615,SEARCHING,33.066,9.068,1.550,0.00,0.00,7.06,2.243,3.223,2.487,3.178,3.178,0,0,SEARCHING,0.000,0.800,0.000,-0.031
20:33:28.818,SEARCHING,33.193,9.083,1.550,0.00,0.00,6.78,2.222,3.011,2.514,3.051,3.051,0,0,SEARCHING,0.000,0.800,0.000,-0.037
20:33:29.020,SEARCHING,33.320,9.098,1.550,0.00,0.00,6.46,2.179,2.934,2.514,2.934,2.896,0,0,SEARCHING,0.000,0.800,0.005,-0.043
20:33:29.219,SEARCHING,33.447,9.112,1.550,0.00,0.00,6.08,2.222,2.790,2.542,2.825,2.790,0,0,SEARCHING,0.000,0.800,0.005,-0.040
20:33:29.421,SEARCHING,33.574,9.125,1.551,0.00,0.00,5.75,2.222,2.692,2.487,2.692,2.692,0,0,SEARCHING,0.000,0.800,0.000,-0.034
20:33:29.621,SEARCHING,33.702,9.138,1.552,0.00,0.00,5.41,2.243,2.571,2.460,2.600,2.571,0,0,SEARCHING,0.000,0.800,0.005,-0.028
20:33:29.821,SEARCHING,33.829,9.150,1.553,0.00,0.00,5.17,2.243,2.434,2.384,2.434,2.434,0,0,SEARCHING,0.000,0.800,0.000,-0.018
20:33:30.022,SEARCHING,33.957,9.161,1.552,0.00,0.00,5.04,2.200,2.335,2.288,2.335,2.311,0,0,SEARCHING,0.000,0.800,0.005,-0.012
20:33:30.223,SEARCHING,34.084,9.172,1.553,0.00,0.00,4.95,2.179,2.222,2.159,2.222,2.222,0,0,SEARCHING,0.000,0.800,0.000,0.003
20:33:30.423,SEARCHING,34.212,9.183,1.553,0.00,0.00,5.03,2.138,2.080,2.025,2.061,2.080,0,0,SEARCHING,0.000,0.800,-0.005,0.018
20:33:30.624,SEARCHING,34.339,9.195,1.552,0.00,0.00,5.17,2.007,1.956,1.923,1.973,1.973,0,0,SEARCHING,0.000,0.800,0.000,0.015
20:33:30.825,SEARCHING,34.467,9.206,1.552,0.00,0.00,5.32,1.876,1.831,1.802,1.831,1.831,0,0,SEARCHING,0.000,0.800,0.000,0.015
20:33:31.024,SEARCHING,34.594,9.218,1.552,0.00,0.00,5.47,1.760,1.720,1.682,1.720,1.720,0,0,SEARCHING,0.000,0.800,0.000,0.018
20:33:31.223,SEARCHING,34.721,9.231,1.552,0.00,0.00,5.65,1.623,1.589,1.557,1.589,1.589,0,0,SEARCHING,0.000,0.800,0.000,0.018
20:33:31.424,SEARCHING,34.849,9.243,1.552,0.00,0.00,5.83,1.505,1.467,1.430,1.467,1.467,0,0,SEARCHING,0.000,0.782,0.000,0.024
20:33:31.624,SEARCHING,34.971,9.256,1.553,0.00,0.00,6.05,1.387,1.346,1.308,1.346,1.346,0,0,SEARCHING,0.000,0.718,0.000,0.031
20:33:31.825,SEARCHING,35.083,9.268,1.552,0.00,0.00,6.32,1.271,1.230,1.198,1.230,1.230,0,0,SEARCHING,0.000,0.656,0.000,0.034
20:33:32.026,SEARCHING,35.185,9.280,1.552,0.00,0.00,6.62,1.167,1.133,1.095,1.127,1.127,0,0,SEARCHING,0.000,0.604,0.000,0.040
20:33:32.226,SEARCHING,35.279,9.291,1.552,0.00,0.00,6.97,1.074,1.035,1.008,1.035,1.035,0,0,SEARCHING,0.000,0.552,0.000,0.043
20:33:32.426,SEARCHING,35.364,9.302,1.552,0.00,0.00,7.39,0.982,0.946,0.919,0.949,0.949,0,0,SEARCHING,0.000,0.504,0.000,0.049
20:33:32.627,SEARCHING,35.443,9.312,1.552,0.00,0.00,7.85,0.901,0.870,0.841,0.873,0.873,0,0,SEARCHING,0.000,0.464,0.000,0.055
20:33:32.867,INSPECTING,35.515,9.322,1.552,0.00,0.00,8.40,0.832,0.797,0.768,0.797,0.797,0,0,SEARCHING,0.000,0.000,0.000,0.070
20:33:33.028,INSPECTING,35.529,9.325,1.552,0.00,0.00,13.90,0.829,0.776,0.731,0.776,0.776,0,0,LEFT,0.829,0.120,0.000,0.800
20:33:33.230,INSPECTING,35.547,9.331,1.552,0.00,0.00,21.23,0.863,0.773,0.700,0.773,0.773,0,0,LEFT,0.863,0.120,0.000,0.800
20:33:33.430,INSPECTING,35.565,9.339,1.552,0.00,0.00,28.56,0.919,0.784,0.683,0.786,0.784,0,0,LEFT,0.919,0.120,0.000,0.800
20:33:33.630,INSPECTING,35.581,9.349,1.552,0.00,0.00,35.90,1.012,0.811,0.681,0.814,0.814,0,0,LEFT,1.012,0.120,0.000,0.800
20:33:33.831,INSPECTING,35.596,9.361,1.552,0.00,0.00,43.23,1.035,0.863,0.691,0.860,0.863,0,0,LEFT,1.035,0.120,0.000,0.800
20:33:34.031,INSPECTING,35.609,9.375,1.552,0.00,0.00,50.57,0.970,0.934,0.717,0.942,0.942,0,0,LEFT,0.970,0.120,0.000,0.800
20:33:34.232,INSPECTING,35.621,9.390,1.620,0.00,0.00,54.23,0.938,1.012,0.745,1.008,1.004,0,0,TOP,1.008,0.120,0.600,0.000
20:33:35.455,INSPECTING,35.632,9.406,1.604,0.00,0.00,54.23,0.930,1.004,0.738,0.995,1.004,0,0,BOTTOM,1.004,0.120,-0.600,0.000
20:33:35.496,INSPECTING,35.640,9.417,1.488,0.00,0.00,54.23,0.915,0.995,0.731,0.991,0.986,0,0,TOP,0.991,0.120,0.600,0.000
20:33:35.662,INSPECTING,35.651,9.433,1.620,0.00,0.00,54.23,0.897,0.970,0.715,0.970,0.970,0,0,TOP,0.970,0.120,0.600,0.000
20:33:35.857,INSPECTING,35.663,9.448,1.740,0.00,0.00,54.23,0.883,0.953,0.702,0.953,0.953,0,0,TOP,0.953,0.120,0.600,0.000
20:33:36.056,INSPECTING,35.674,9.464,1.724,0.00,0.00,54.23,0.870,0.938,0.689,0.934,0.938,0,0,BOTTOM,0.938,0.120,-0.600,0.000
20:33:36.257,INSPECTING,35.685,9.480,1.740,0.00,0.00,54.23,0.854,0.923,0.677,0.919,0.923,0,0,BOTTOM,0.923,0.120,-0.600,0.000
20:33:36.458,INSPECTING,35.696,9.495,1.740,0.00,0.00,54.23,0.844,0.904,0.665,0.904,0.908,0,0,BOTTOM,0.908,0.120,-0.600,0.000
20:33:36.659,INSPECTING,35.708,9.511,1.740,0.00,0.00,54.23,0.829,0.890,0.656,0.890,0.890,0,0,TOP,0.890,0.120,0.600,0.000
20:33:36.859,INSPECTING,35.719,9.526,1.724,0.00,0.00,54.23,0.811,0.870,0.641,0.873,0.870,0,0,TOP,0.873,0.120,0.600,0.000
20:33:37.058,INSPECTING,35.730,9.542,1.860,0.00,0.00,54.23,0.800,0.860,0.632,0.857,0.860,0,0,BOTTOM,0.860,0.120,-0.600,0.000
20:33:37.260,INSPECTING,35.741,9.557,1.860,0.00,0.00,54.23,0.784,0.838,0.620,0.838,0.838,0,0,TOP,0.838,0.120,0.600,0.000
20:33:37.459,INSPECTING,35.752,9.573,1.980,0.00,0.00,54.23,0.770,0.820,0.607,0.823,0.823,0,0,TOP,0.823,0.120,0.600,0.000
20:33:37.660,INSPECTING,35.764,9.589,2.100,0.00,0.00,54.23,0.760,0.817,0.599,0.814,0.806,0,0,TOP,0.814,0.120,0.600,0.000
20:33:37.860,INSPECTING,35.775,9.604,2.220,0.00,0.00,54.23,0.745,0.800,0.585,0.803,0.792,0,0,TOP,0.803,0.120,0.600,0.000
20:33:38.062,INSPECTING,35.786,9.620,2.340,0.00,0.00,54.23,0.731,0.784,0.573,0.781,0.781,0,0,TOP,0.781,0.120,0.600,0.000
20:33:38.263,INSPECTING,35.797,9.635,2.324,0.00,0.00,54.23,0.717,0.768,0.562,0.765,0.765,0,0,TOP,0.765,0.120,0.600,0.000
20:33:38.465,INSPECTING,35.809,9.651,2.325,0.00,0.00,54.23,0.704,0.753,0.551,0.750,0.748,0,0,TOP,0.750,0.120,0.600,0.000
20:33:38.665,INSPECTING,35.820,9.666,2.324,0.00,0.00,54.23,0.689,0.736,0.538,0.733,0.731,0,0,TOP,0.733,0.120,0.600,0.000
20:33:38.865,INSPECTING,35.831,9.682,2.324,0.00,0.00,54.23,0.675,0.724,0.525,0.720,0.720,0,0,TOP,0.720,0.120,0.600,0.000
20:33:39.065,INSPECTING,35.842,9.698,2.324,0.00,0.00,54.23,0.661,0.702,0.518,0.700,0.702,0,0,BOTTOM,0.702,0.120,-0.600,0.000
20:33:39.268,INSPECTING,35.853,9.713,2.339,0.00,0.00,54.23,0.648,0.693,0.504,0.689,0.689,0,0,TOP,0.689,0.120,0.600,0.000
20:33:39.467,INSPECTING,35.865,9.729,2.324,0.00,0.00,54.23,0.634,0.675,0.493,0.669,0.667,0,0,TOP,0.669,0.120,0.600,0.000
20:33:39.668,INSPECTING,35.876,9.744,2.324,0.00,0.00,54.23,0.618,0.656,0.481,0.656,0.650,0,0,TOP,0.656,0.120,0.600,0.000
20:33:39.869,INSPECTING,35.887,9.760,2.324,0.00,0.00,54.23,0.609,0.639,0.468,0.639,0.636,0,0,TOP,0.639,0.120,0.600,0.000
20:33:40.070,INSPECTING,35.898,9.776,2.324,0.00,0.00,54.23,0.593,0.627,0.453,0.625,0.625,0,0,TOP,0.625,0.120,0.600,0.000
20:33:40.266,INSPECTING,35.910,9.791,2.324,0.00,0.00,54.23,0.576,0.605,0.445,0.604,0.605,0,0,BOTTOM,0.605,0.120,-0.600,0.000
20:33:40.510,TURNING,35.921,9.807,2.339,0.00,0.00,54.23,0.565,0.591,0.435,0.591,0.597,0,0,TURNING,0.000,0.050,0.000,-1.200
20:33:40.667,TURNING,35.925,9.811,2.332,0.00,0.00,45.98,0.572,0.536,0.409,0.537,0.538,0,0,TURNING,0.000,0.050,0.000,-1.200
20:33:40.868,TURNING,35.931,9.817,2.332,0.00,0.00,34.98,0.553,0.432,0.357,0.434,0.431,0,0,TURNING,0.000,0.050,0.000,-1.200
20:33:41.068,TURNING,35.937,9.821,2.332,0.00,0.00,23.98,0.462,0.392,0.338,0.391,0.392,0,0,TURNING,0.000,0.050,0.000,-1.200
20:33:41.268,TURNING,35.945,9.823,2.332,0.00,0.00,12.98,0.392,0.359,0.330,0.358,0.359,0,0,TURNING,0.000,0.050,0.000,-1.200
20:33:41.469,TURNING,35.953,9.824,2.332,0.00,0.00,1.98,0.349,0.341,0.334,0.341,0.341,0,0,TURNING,0.000,0.050,0.000,-1.200
20:33:41.669,TURNING,35.961,9.824,2.332,0.00,0.00,-9.02,0.314,0.327,0.341,0.327,0.327,0,0,TURNING,0.000,0.050,0.000,-1.200
20:33:41.869,TURNING,35.969,9.822,2.332,0.00,0.00,-20.02,0.288,0.322,0.363,0.321,0.321,0,0,TURNING,0.000,0.050,0.000,-1.200
20:33:42.071,TURNING,35.976,9.819,2.332,0.00,0.00,-31.02,0.282,0.330,0.399,0.329,0.331,0,0,TURNING,0.000,0.050,0.000,-1.200
20:33:42.271,TURNING,35.982,9.814,2.332,0.00,0.00,-42.02,0.294,0.368,0.503,0.368,0.370,0,0,TURNING,0.000,0.050,0.000,-1.200
20:33:42.471,TURNING,35.988,9.808,2.332,0.00,0.00,-53.03,0.314,0.420,0.636,0.418,0.419,0,0,TURNING,0.000,0.050,0.000,-1.200
20:33:42.672,TURNING,35.992,9.801,2.332,0.00,0.00,-64.03,0.358,0.522,0.982,0.524,0.527,0,0,TURNING,0.000,0.050,0.000,-1.200
20:33:42.878,TURNING,35.995,9.794,2.332,0.00,0.00,-75.03,0.437,0.748,1.395,0.738,0.748,0,0,TURNING,0.000,0.050,0.000,-1.200
20:33:43.077,TURNING,35.996,9.786,2.332,0.00,0.00,-86.03,0.581,1.244,1.448,1.257,1.285,0,0,TURNING,0.000,0.050,0.000,-1.200
20:33:43.279,TURNING,35.996,9.778,2.332,0.00,0.00,-97.03,0.982,1.496,1.557,1.496,1.496,0,0,TURNING,0.000,0.050,0.000,-1.200
20:33:43.479,TURNING,35.995,9.770,2.332,0.00,0.00,-108.03,1.395,1.476,1.658,1.476,1.476,0,0,TURNING,0.000,0.050,0.000,-1.200
20:33:43.720,RETURNING,35.992,9.763,2.332,0.00,0.00,-119.03,1.362,1.546,1.876,1.557,1.546,0,0,TURNING,0.000,0.000,0.000,0.000
20:33:43.919,RETURNING,35.991,9.762,2.332,0.00,0.00,-119.23,1.330,1.589,1.990,1.589,1.589,0,0,RETURNING,0.000,0.080,0.000,-0.174
20:33:44.113,RETURNING,35.991,9.762,2.332,0.00,0.00,-119.23,1.330,1.589,2.007,1.589,1.589,0,0,RETURNING,0.000,0.160,0.000,-0.177
20:33:44.347,RETURNING,35.990,9.759,2.332,0.00,0.00,-119.43,1.330,1.589,1.990,1.589,1.600,0,0,RETURNING,0.000,0.240,-0.005,-0.174
20:33:44.546,RETURNING,35.982,9.746,2.332,0.00,0.00,-120.02,1.315,1.589,1.990,1.589,1.589,0,0,RETURNING,0.000,0.320,0.000,-0.180
20:33:44.753,RETURNING,35.975,9.734,2.331,0.00,0.00,-120.43,1.308,1.578,1.973,1.578,1.578,0,0,RETURNING,0.000,0.400,0.000,-0.180
20:33:44.961,RETURNING,35.966,9.719,2.331,0.00,0.00,-120.85,1.293,1.557,1.973,1.567,1.567,0,0,RETURNING,0.000,0.480,0.000,-0.187
20:33:45.158,RETURNING,35.961,9.711,2.332,0.00,0.00,-121.07,1.285,1.557,1.939,1.557,1.557,0,0,RETURNING,0.000,0.560,0.000,-0.184
20:33:45.360,RETURNING,35.949,9.691,2.332,0.00,0.00,-121.49,1.278,1.546,1.939,1.546,1.557,0,0,RETURNING,0.000,0.640,-0.005,-0.187
20:33:45.543,RETURNING,35.936,9.669,2.331,0.00,0.00,-121.92,1.264,1.546,1.939,1.536,1.536,0,0,RETURNING,0.000,0.720,0.000,-0.193
20:33:45.753,RETURNING,35.912,9.632,2.331,0.00,0.00,-122.58,1.257,1.536,1.923,1.525,1.536,0,0,RETURNING,0.000,0.800,-0.005,-0.193
20:33:45.974,RETURNING,35.904,9.618,2.331,0.00,0.00,-122.80,1.204,1.476,1.845,1.476,1.476,0,0,RETURNING,0.000,0.787,0.000,-0.202
20:33:46.149,RETURNING,35.895,9.605,2.331,0.00,0.00,-123.03,1.204,1.476,1.845,1.476,1.476,0,0,RETURNING,0.000,0.787,0.000,-0.202
20:33:46.328,RETURNING,35.869,9.566,2.331,0.00,0.00,-123.73,1.192,1.457,1.816,1.467,1.467,0,0,RETURNING,0.000,0.777,0.000,-0.202
20:33:46.544,RETURNING,35.852,9.540,2.331,0.00,0.00,-124.19,1.156,1.430,1.788,1.430,1.430,0,0,RETURNING,0.000,0.763,0.000,-0.214
20:33:46.737,RETURNING,35.835,9.514,2.331,0.00,0.00,-124.68,1.144,1.412,1.760,1.412,1.404,0,0,RETURNING,0.000,0.753,0.005,-0.214
20:33:46.937,RETURNING,35.818,9.490,2.332,0.00,0.00,-125.19,1.133,1.404,1.747,1.395,1.404,0,0,RETURNING,0.000,0.749,-0.005,-0.217
20:33:47.129,RETURNING,35.818,9.490,2.331,0.00,0.00,-125.19,1.116,1.395,1.733,1.395,1.395,0,0,RETURNING,0.000,0.744,0.000,-0.223
20:33:47.340,RETURNING,35.801,9.466,2.330,0.00,0.00,-125.70,1.095,1.378,1.695,1.370,1.378,0,0,RETURNING,0.000,0.735,-0.005,-0.226
20:33:47.628,RETURNING,35.788,9.448,2.330,0.00,0.00,-126.09,1.090,1.370,1.682,1.370,1.370,0,0,RETURNING,0.000,0.731,0.000,-0.226
20:33:47.812,RETURNING,35.783,9.442,2.329,0.00,0.00,-126.22,1.059,1.323,1.634,1.330,1.330,0,0,RETURNING,0.000,0.705,0.000,-0.232
20:33:48.004,RETURNING,35.771,9.425,2.328,0.00,0.00,-126.62,1.084,1.362,1.670,1.354,1.362,0,0,RETURNING,0.000,0.726,-0.005,-0.226
20:33:48.197,RETURNING,35.758,9.408,2.328,0.00,0.00,-127.01,1.069,1.338,1.646,1.338,1.346,0,0,RETURNING,0.000,0.714,-0.005,-0.229
20:33:48.369,RETURNING,35.758,9.407,2.327,0.00,0.00,-127.00,1.069,1.346,1.646,1.346,1.346,0,0,RETURNING,0.000,0.718,0.000,-0.229
20:33:48.563,RETURNING,35.740,9.385,2.327,0.00,0.00,-127.53,1.064,1.330,1.634,1.330,1.330,0,0,RETURNING,0.000,0.710,0.000,-0.229
20:33:48.744,RETURNING,35.723,9.362,2.327,0.00,0.00,-128.05,1.040,1.315,1.611,1.315,1.315,0,0,RETURNING,0.000,0.701,0.000,-0.239
20:33:48.935,RETURNING,35.715,9.351,2.326,0.00,0.00,-128.32,1.026,1.300,1.578,1.300,1.300,0,0,RETURNING,0.000,0.693,0.000,-0.239
20:33:49.135,RETURNING,35.715,9.351,2.327,0.00,0.00,-128.32,1.017,1.293,1.567,1.293,1.293,0,0,RETURNING,0.000,0.689,0.000,-0.242
20:33:49.335,RETURNING,35.706,9.341,2.327,0.00,0.00,-128.60,1.004,1.264,1.546,1.264,1.271,0,0,RETURNING,0.000,0.674,-0.005,-0.245
20:33:49.549,RETURNING,35.706,9.341,2.326,0.00,0.00,-128.60,0.991,1.271,1.515,1.271,1.257,0,0,RETURNING,0.000,0.678,0.010,-0.245
20:33:49.745,RETURNING,35.689,9.319,2.328,0.00,0.00,-129.16,1.004,1.271,1.525,1.271,1.278,0,0,RETURNING,0.000,0.678,-0.005,-0.239
20:33:49.943,RETURNING,35.689,9.319,2.328,0.00,0.00,-129.16,0.995,1.264,1.525,1.271,1.264,0,0,RETURNING,0.000,0.674,0.005,-0.245
20:33:50.152,RETURNING,35.689,9.319,2.330,0.00,0.00,-129.16,0.974,1.257,1.496,1.250,1.237,0,0,RETURNING,0.000,0.671,0.010,-0.251
20:33:50.335,RETURNING,35.689,9.319,2.332,0.00,0.00,-129.16,0.974,1.257,1.496,1.257,1.237,0,0,RETURNING,0.000,0.671,0.016,-0.251
20:33:50.541,RETURNING,35.681,9.309,2.334,0.00,0.00,-129.45,0.970,1.250,1.486,1.250,1.244,0,0,RETURNING,0.000,0.667,0.005,-0.251
20:33:50.737,RETURNING,35.672,9.299,2.334,0.00,0.00,-129.74,0.978,1.257,1.505,1.250,1.250,0,0,RETURNING,0.000,0.671,0.000,-0.251
20:33:50.942,RETURNING,35.672,9.299,2.334,0.00,0.00,-129.74,0.978,1.257,1.505,1.250,1.250,0,0,RETURNING,0.000,0.671,0.000,-0.251
20:33:51.150,RETURNING,35.672,9.299,2.334,0.00,0.00,-129.74,0.978,1.257,1.505,1.250,1.250,0,0,RETURNING,0.000,0.671,0.000,-0.251
20:33:51.346,RETURNING,35.672,9.299,2.334,0.00,0.00,-129.74,0.978,1.257,1.505,1.250,1.250,0,0,RETURNING,0.000,0.671,0.000,-0.251
20:33:51.547,RETURNING,35.664,9.288,2.335,0.00,0.00,-130.02,0.974,1.257,1.496,1.257,1.237,0,0,RETURNING,0.000,0.671,0.016,-0.251
20:33:51.755,RETURNING,35.647,9.268,2.337,0.00,0.00,-130.61,0.957,1.230,1.467,1.230,1.224,0,0,RETURNING,0.000,0.656,0.005,-0.254
20:33:51.965,RETURNING,35.647,9.268,2.337,0.00,0.00,-130.61,0.957,1.237,1.467,1.237,1.230,0,0,RETURNING,0.000,0.660,0.005,-0.254
20:33:52.171,RETURNING,35.621,9.239,2.338,0.00,0.00,-131.49,0.957,1.237,1.467,1.237,1.224,0,0,RETURNING,0.000,0.660,0.010,-0.254
20:33:52.351,RETURNING,35.612,9.229,2.340,0.00,0.00,-131.78,0.930,1.204,1.430,1.204,1.204,0,0,RETURNING,0.000,0.642,0.000,-0.263
20:33:52.567,RETURNING,35.612,9.229,2.340,0.00,0.00,-131.78,0.934,1.211,1.430,1.211,1.211,0,0,RETURNING,0.000,0.646,0.000,-0.260
20:33:52.755,RETURNING,35.595,9.209,2.340,0.00,0.00,-132.38,0.926,1.198,1.430,1.204,1.204,0,0,RETURNING,0.000,0.639,0.000,-0.266
20:33:52.948,RETURNING,35.595,9.209,2.340,0.00,0.00,-132.38,0.919,1.198,1.412,1.198,1.198,0,0,RETURNING,0.000,0.639,0.000,-0.266
20:33:53.152,RETURNING,35.586,9.200,2.340,0.00,0.00,-132.68,0.908,1.186,1.395,1.192,1.192,0,0,RETURNING,0.000,0.632,0.000,-0.269
20:33:53.366,RETURNING,35.578,9.191,2.340,0.00,0.00,-132.99,0.890,1.167,1.395,1.173,1.173,0,0,RETURNING,0.000,0.623,0.000,-0.285
20:33:53.571,RETURNING,35.552,9.163,2.341,0.00,0.00,-133.96,0.897,1.167,1.404,1.179,1.167,0,0,RETURNING,0.000,0.623,0.010,-0.281
20:33:53.759,RETURNING,35.526,9.137,2.342,0.00,0.00,-134.94,0.890,1.167,1.404,1.173,1.167,0,0,RETURNING,0.000,0.623,0.005,-0.288
20:33:53.966,RETURNING,35.526,9.137,2.343,0.00,0.00,-134.94,0.873,1.156,1.387,1.162,1.162,0,0,RETURNING,0.000,0.616,0.000,-0.297
20:33:54.157,RETURNING,35.526,9.137,2.342,0.00,0.00,-134.94,0.860,1.150,1.387,1.150,1.156,0,0,RETURNING,0.000,0.613,-0.005,-0.309
20:33:54.369,RETURNING,35.517,9.128,2.342,0.00,0.00,-135.28,0.870,1.156,1.387,1.162,1.156,0,0,RETURNING,0.000,0.616,0.005,-0.300
20:33:54.580,RETURNING,35.482,9.093,2.342,0.00,0.00,-136.65,0.870,1.150,1.378,1.156,1.156,0,0,RETURNING,0.000,0.613,0.000,-0.297
20:33:54.768,RETURNING,35.464,9.077,2.342,0.00,0.00,-137.35,0.841,1.144,1.387,1.138,1.138,0,0,RETURNING,0.000,0.610,0.000,-0.327
20:33:54.973,RETURNING,35.464,9.077,2.342,0.00,0.00,-137.35,0.841,1.138,1.412,1.138,1.138,0,0,RETURNING,0.000,0.607,0.000,-0.337
20:33:55.158,RETURNING,35.464,9.077,2.341,0.00,0.00,-137.35,0.841,1.138,1.404,1.138,1.138,0,0,RETURNING,0.000,0.607,0.000,-0.333
20:33:55.366,RETURNING,35.464,9.077,2.341,0.00,0.00,-137.35,0.835,1.138,1.430,1.133,1.133,0,0,RETURNING,0.000,0.607,0.000,-0.349
20:33:55.567,RETURNING,35.446,9.060,2.341,0.00,0.00,-138.15,0.832,1.133,1.404,1.133,1.133,0,0,RETURNING,0.000,0.604,0.000,-0.343
20:33:55.776,RETURNING,35.446,9.060,2.340,0.00,0.00,-138.15,0.820,1.127,1.430,1.122,1.133,0,0,RETURNING,0.000,0.601,-0.010,-0.364
20:33:55.974,RETURNING,35.410,9.029,2.339,0.00,0.00,-139.79,0.829,1.133,1.404,1.133,1.127,0,0,RETURNING,0.000,0.604,0.005,-0.346
20:33:56.169,RETURNING,35.410,9.029,2.339,0.00,0.00,-139.79,0.817,1.127,1.448,1.122,1.127,0,0,RETURNING,0.000,0.601,-0.005,-0.373
20:33:56.366,RETURNING,35.410,9.029,2.339,0.00,0.00,-139.79,0.817,1.122,1.448,1.122,1.127,0,0,RETURNING,0.000,0.598,-0.005,-0.373
20:33:56.563,RETURNING,35.410,9.029,2.338,0.00,0.00,-139.79,0.806,1.116,1.505,1.116,1.116,0,0,RETURNING,0.000,0.595,0.000,-0.404
20:33:56.760,RETURNING,35.410,9.029,2.338,0.00,0.00,-139.79,0.817,1.127,1.448,1.122,1.127,0,0,RETURNING,0.000,0.601,-0.005,-0.373
20:33:56.964,RETURNING,35.410,9.029,2.337,0.00,0.00,-139.79,0.817,1.127,1.448,1.122,1.127,0,0,RETURNING,0.000,0.601,-0.005,-0.373
20:33:57.172,RETURNING,35.391,9.013,2.337,0.00,0.00,-140.70,0.806,1.116,1.505,1.116,1.116,0,0,RETURNING,0.000,0.595,0.000,-0.404
20:33:57.371,RETURNING,35.373,8.998,2.337,0.00,0.00,-141.60,0.809,1.116,1.496,1.111,1.105,0,0,RETURNING,0.000,0.595,0.005,-0.398
20:33:57.571,RETURNING,35.373,8.998,2.338,0.00,0.00,-141.60,0.803,1.064,1.546,1.064,1.064,0,0,RETURNING,0.000,0.568,0.000,-0.419
20:33:57.762,RETURNING,35.373,8.998,2.338,0.00,0.00,-141.60,0.806,1.090,1.505,1.095,1.090,0,0,RETURNING,0.000,0.581,0.005,-0.404
20:33:57.966,RETURNING,35.373,8.998,2.339,0.00,0.00,-141.60,0.803,1.064,1.546,1.059,1.064,0,0,RETURNING,0.000,0.568,-0.005,-0.419
20:33:58.174,RETURNING,35.373,8.998,2.338,0.00,0.00,-141.60,0.803,1.069,1.557,1.069,1.069,0,0,RETURNING,0.000,0.570,0.000,-0.422
20:33:58.366,RETURNING,35.355,8.984,2.338,0.00,0.00,-142.57,0.803,1.074,1.505,1.074,1.074,0,0,RETURNING,0.000,0.573,0.000,-0.407
20:33:58.571,RETURNING,35.355,8.984,2.338,0.00,0.00,-142.57,0.797,1.040,1.634,1.035,1.035,0,0,RETURNING,0.000,0.555,0.000,-0.450
20:33:58.766,RETURNING,35.355,8.984,2.339,0.00,0.00,-142.57,0.803,1.074,1.496,1.079,1.074,0,0,RETURNING,0.000,0.573,0.005,-0.404
20:33:58.968,RETURNING,35.346,8.977,2.340,0.00,0.00,-143.03,0.803,1.074,1.496,1.079,1.074,0,0,RETURNING,0.000,0.573,0.005,-0.404
20:33:59.173,RETURNING,35.346,8.977,2.342,0.00,0.00,-143.03,0.797,1.054,1.611,1.059,1.054,0,0,RETURNING,0.000,0.562,0.005,-0.444
20:33:59.365,RETURNING,35.346,8.977,2.342,0.00,0.00,-143.03,0.797,1.054,1.589,1.059,1.050,0,0,RETURNING,0.000,0.562,0.010,-0.437
20:33:59.574,RETURNING,35.346,8.977,2.344,0.00,0.00,-143.03,0.792,1.031,1.634,1.031,1.026,0,0,RETURNING,0.000,0.550,0.005,-0.456
20:33:59.776,RETURNING,35.337,8.970,2.345,0.00,0.00,-143.56,0.797,1.050,1.623,1.054,1.050,0,0,RETURNING,0.000,0.560,0.005,-0.447
20:33:59.975,RETURNING,35.337,8.970,2.344,0.00,0.00,-143.56,0.795,1.050,1.634,1.045,1.050,0,0,RETURNING,0.000,0.560,-0.005,-0.453
20:34:00.170,RETURNING,35.337,8.970,2.345,0.00,0.00,-143.56,0.797,1.017,1.708,1.012,1.017,0,0,RETURNING,0.000,0.542,-0.005,-0.468
20:34:00.373,RETURNING,35.337,8.970,2.344,0.00,0.00,-143.56,0.797,1.017,1.708,1.012,1.017,0,0,RETURNING,0.000,0.542,-0.005,-0.468
20:34:00.591,RETURNING,35.319,8.957,2.343,0.00,0.00,-144.59,0.797,1.017,1.708,1.017,1.017,0,0,RETURNING,0.000,0.542,0.000,-0.468
20:34:00.788,RETURNING,35.301,8.945,2.343,0.00,0.00,-145.66,0.797,1.004,1.774,0.999,0.999,0,0,RETURNING,0.000,0.535,0.000,-0.483
20:34:01.001,RETURNING,35.293,8.939,2.343,0.00,0.00,-146.23,0.797,0.999,1.802,0.991,0.991,0,0,RETURNING,0.000,0.533,0.000,-0.489
20:34:01.178,RETURNING,35.266,8.921,2.344,0.00,0.00,-147.89,0.797,0.978,1.831,0.974,0.974,0,0,RETURNING,0.000,0.522,0.000,-0.496
20:34:01.383,RETURNING,35.266,8.921,2.343,0.00,0.00,-147.89,0.806,0.919,2.138,0.919,0.926,0,0,RETURNING,0.000,0.490,-0.010,-0.541
20:34:01.590,RETURNING,35.249,8.911,2.342,0.00,0.00,-149.13,0.806,0.934,2.080,0.938,0.938,0,0,RETURNING,0.000,0.498,0.000,-0.532
20:34:01.787,RETURNING,35.232,8.901,2.342,0.00,0.00,-150.35,0.806,0.919,2.179,0.919,0.915,0,0,RETURNING,0.000,0.490,0.005,-0.548
20:34:01.988,RETURNING,35.232,8.901,2.342,0.00,0.00,-150.35,0.817,0.957,2.972,0.961,0.953,0,0,RETURNING,0.000,0.511,0.010,-0.621
20:34:02.198,RETURNING,35.214,8.891,2.343,0.00,0.00,-151.78,0.817,0.942,2.514,0.953,0.930,0,0,RETURNING,0.000,0.502,0.031,-0.578
20:34:02.402,RETURNING,35.196,8.881,2.346,0.00,0.00,-153.16,0.817,0.957,2.825,0.953,0.957,0,0,RETURNING,0.000,0.511,-0.005,-0.609
20:34:02.600,RETURNING,35.168,8.867,2.346,0.00,0.00,-155.31,0.823,0.986,3.223,0.982,0.978,0,0,RETURNING,0.000,0.526,0.005,-0.633
20:34:02.788,RETURNING,35.139,8.855,2.346,0.00,0.00,-157.49,0.800,1.035,3.575,1.031,1.045,0,0,RETURNING,0.000,0.552,-0.016,-0.679
20:34:02.986,RETURNING,35.118,8.846,2.346,0.00,0.00,-159.15,0.717,1.204,4.086,1.198,1.198,0,0,RETURNING,0.000,0.642,0.000,-0.800
20:34:03.188,RETURNING,35.094,8.837,2.348,0.00,0.00,-160.99,0.689,1.237,4.086,1.230,1.237,0,0,RETURNING,0.000,0.660,-0.005,-0.800
20:34:03.384,RETURNING,35.094,8.837,2.347,0.00,0.00,-160.99,0.700,1.467,4.160,1.370,1.496,0,0,RETURNING,0.000,0.782,-0.073,-0.800
20:34:03.598,RETURNING,35.069,8.829,2.340,0.00,0.00,-162.82,0.695,1.457,4.160,1.467,1.496,0,0,RETURNING,0.000,0.777,-0.016,-0.800
20:34:03.795,RETURNING,35.012,8.812,2.338,0.00,0.00,-166.49,0.691,1.476,4.160,1.370,1.404,0,0,RETURNING,0.000,0.787,-0.021,-0.800
20:34:03.998,RETURNING,35.012,8.812,2.338,0.00,0.00,-166.49,0.809,2.099,3.878,2.099,2.080,0,0,RETURNING,0.000,0.800,0.005,-0.685
20:34:04.193,RETURNING,34.949,8.799,2.338,0.00,0.00,-169.76,0.773,1.845,4.086,1.860,1.876,0,0,RETURNING,0.000,0.800,-0.005,-0.734
20:34:04.393,RETURNING,34.949,8.799,2.340,0.00,0.00,-169.76,0.904,3.011,3.415,2.571,3.051,0,0,RETURNING,0.000,0.800,-0.073,-0.569
20:34:04.585,RETURNING,34.949,8.799,2.325,0.00,0.00,-169.76,0.841,2.487,3.814,2.243,2.200,0,0,RETURNING,0.000,0.800,0.010,-0.649
20:34:04.803,RETURNING,34.917,8.793,2.327,0.00,0.00,-171.25,0.863,2.571,3.632,2.311,2.266,0,0,RETURNING,0.000,0.800,0.010,-0.618
20:34:04.995,RETURNING,34.886,8.789,2.317,0.00,0.00,-172.67,0.938,3.092,3.365,2.692,3.092,0,0,RETURNING,0.000,0.800,-0.058,-0.538
20:34:05.191,RETURNING,34.886,8.789,2.306,0.00,0.00,-172.67,0.974,3.223,3.092,2.692,3.178,0,0,RETURNING,0.000,0.800,-0.068,-0.493
20:34:05.394,RETURNING,34.886,8.789,2.294,0.00,0.00,-172.67,0.965,3.223,3.134,2.724,3.223,0,0,RETURNING,0.000,0.800,-0.068,-0.502
20:34:05.602,RETURNING,34.886,8.789,2.283,0.00,0.00,-172.67,0.942,3.134,3.365,2.757,3.092,0,0,RETURNING,0.000,0.800,-0.047,-0.535
20:34:05.792,RETURNING,34.886,8.789,2.273,0.00,0.00,-172.67,0.974,3.178,3.134,2.790,3.178,0,0,RETURNING,0.000,0.800,-0.052,-0.496
20:34:06.036,RETURNING,34.854,8.785,2.266,0.00,0.00,-173.89,0.965,3.178,3.365,2.790,3.178,0,0,RETURNING,0.000,0.800,-0.052,-0.517
20:34:06.213,RETURNING,34.854,8.785,2.256,0.00,0.00,-173.89,0.970,3.178,3.223,2.825,3.178,0,0,RETURNING,0.000,0.800,-0.047,-0.505
20:34:06.414,RETURNING,34.822,8.781,2.248,0.00,0.00,-175.05,1.059,3.269,3.051,2.860,3.269,0,0,RETURNING,0.000,0.800,-0.052,-0.431
20:34:06.604,RETURNING,34.790,8.779,2.236,0.00,0.00,-176.02,1.064,3.365,3.092,2.896,3.269,0,0,RETURNING,0.000,0.800,-0.047,-0.431
20:34:06.798,RETURNING,34.790,8.779,2.218,0.00,0.00,-176.02,1.167,4.014,2.896,2.934,4.014,0,0,RETURNING,0.000,0.800,-0.110,-0.358
20:34:07.004,RETURNING,34.790,8.779,2.197,0.00,0.00,-176.02,1.144,3.878,2.934,2.972,3.878,0,0,RETURNING,0.000,0.800,-0.094,-0.373
20:34:07.202,RETURNING,34.790,8.779,2.177,0.00,0.00,-176.02,1.144,3.814,2.972,3.011,3.751,0,0,RETURNING,0.000,0.800,-0.079,-0.376
20:34:07.396,RETURNING,34.790,8.779,2.163,0.00,0.00,-176.02,1.167,4.014,2.896,3.092,4.014,0,0,RETURNING,0.000,0.800,-0.089,-0.358
20:34:07.603,RETURNING,34.790,8.779,2.147,0.00,0.00,-176.02,1.095,3.751,2.972,3.134,3.751,0,0,RETURNING,0.000,0.800,-0.063,-0.404
20:34:08.930,RETURNING,34.750,8.776,2.140,0.00,0.00,-177.17,1.133,3.878,2.972,3.134,3.945,0,0,RETURNING,0.000,0.800,-0.079,-0.382
20:34:09.098,RETURNING,34.590,8.774,2.140,-0.00,0.00,178.20,1.100,3.751,2.972,3.134,3.751,0,0,RETURNING,0.000,0.800,-0.063,-0.401
