timestamp,state,x,y,z,roll_deg,pitch_deg,yaw_deg,dist_left,dist_center,dist_right,dist_top,dist_bottom,dtof_alert,collision_event,best_dir,max_space,cmd_vx,cmd_vz,cmd_yaw
20:28:37.423,SEARCHING,0.048,0.000,1.000,0.00,0.00,0.00,10.000,10.000,10.000,10.000,10.000,0,0,SEARCHING,0.000,0.800,0.000,0.000
20:28:37.627,SEARCHING,0.144,-0.000,1.003,0.00,0.00,-0.89,1.774,2.630,5.321,2.630,2.434,0,0,SEARCHING,0.000,0.800,0.037,-0.263
20:28:37.828,SEARCHING,0.240,-0.003,1.009,0.00,0.00,-2.69,1.802,2.661,5.581,2.692,2.487,0,0,SEARCHING,0.000,0.800,0.037,-0.263
20:28:38.028,SEARCHING,0.336,-0.009,1.017,0.00,0.00,-4.51,1.831,2.692,5.720,2.692,2.487,0,0,SEARCHING,0.000,0.800,0.037,-0.260
20:28:38.229,SEARCHING,0.431,-0.018,1.024,0.00,0.00,-6.30,1.876,2.724,6.184,2.757,2.514,0,0,SEARCHING,0.000,0.800,0.042,-0.260
20:28:38.430,SEARCHING,0.527,-0.029,1.033,0.00,0.00,-8.10,1.907,2.757,6.538,2.790,2.514,0,0,SEARCHING,0.000,0.800,0.047,-0.260
20:28:38.630,SEARCHING,0.621,-0.044,1.042,0.00,0.00,-9.91,1.845,2.860,7.151,2.896,2.542,0,0,SEARCHING,0.000,0.800,0.058,-0.281
20:28:38.831,SEARCHING,0.716,-0.062,1.053,0.00,0.00,-11.85,1.816,2.972,6.934,2.934,2.571,0,0,SEARCHING,0.000,0.800,0.058,-0.285
20:28:39.031,SEARCHING,0.809,-0.083,1.066,0.00,0.00,-13.77,1.845,3.092,6.934,3.134,2.600,0,0,SEARCHING,0.000,0.800,0.079,-0.278
20:28:39.231,SEARCHING,0.902,-0.107,1.082,0.00,0.00,-15.67,1.907,3.467,6.934,3.520,2.630,0,0,SEARCHING,0.000,0.800,0.115,-0.266
20:28:39.432,SEARCHING,0.994,-0.134,1.116,0.00,0.00,-17.50,1.956,4.237,6.538,4.237,2.724,0,0,SEARCHING,0.000,0.800,0.157,-0.251
20:28:39.632,SEARCHING,1.086,-0.164,1.150,0.00,0.00,-19.21,1.990,4.487,6.356,4.487,2.860,0,0,SEARCHING,0.000,0.800,0.152,-0.242
20:28:39.834,SEARCHING,1.176,-0.197,1.180,0.00,0.00,-20.87,2.025,4.576,5.867,4.576,2.934,0,0,SEARCHING,0.000,0.800,0.147,-0.226
20:28:40.034,SEARCHING,1.265,-0.232,1.210,0.00,0.00,-22.41,2.099,4.767,5.581,4.767,3.011,0,0,SEARCHING,0.000,0.800,0.147,-0.208
20:28:40.235,SEARCHING,1.354,-0.270,1.239,0.00,0.00,-23.82,2.138,4.868,5.200,4.974,3.092,0,0,SEARCHING,0.000,0.800,0.147,-0.193
20:28:40.435,SEARCHING,1.441,-0.309,1.268,0.00,0.00,-25.14,2.222,5.085,4.974,5.085,3.178,0,0,SEARCHING,0.000,0.800,0.142,-0.174
20:28:40.636,SEARCHING,1.528,-0.351,1.297,0.00,0.00,-26.33,2.266,5.200,4.487,5.085,3.223,0,0,SEARCHING,0.000,0.800,0.136,-0.153
20:28:40.837,SEARCHING,1.613,-0.394,1.325,0.00,0.00,-27.35,2.335,5.448,4.160,5.085,3.269,0,0,SEARCHING,0.000,0.800,0.131,-0.132
20:28:41.037,SEARCHING,1.698,-0.439,1.350,0.00,0.00,-28.16,2.661,5.581,4.014,4.974,3.365,0,0,SEARCHING,0.000,0.800,0.115,-0.089
20:28:41.238,SEARCHING,1.783,-0.484,1.375,0.00,0.00,-28.68,2.934,6.184,3.945,4.974,3.415,0,0,SEARCHING,0.000,0.800,0.110,-0.061
20:28:41.438,SEARCHING,1.867,-0.531,1.396,0.00,0.00,-29.09,2.972,6.538,3.945,4.868,3.520,0,0,SEARCHING,0.000,0.800,0.094,-0.058
20:28:41.639,SEARCHING,1.951,-0.578,1.415,0.00,0.00,-29.49,2.972,6.730,3.878,4.868,3.520,0,0,SEARCHING,0.000,0.800,0.094,-0.055
20:28:41.839,SEARCHING,2.034,-0.625,1.434,0.00,0.00,-29.88,3.051,6.538,4.014,4.868,3.575,0,0,SEARCHING,0.000,0.800,0.089,-0.055
20:28:42.040,SEARCHING,2.117,-0.673,1.451,0.00,0.00,-30.27,3.011,6.538,4.160,4.767,3.575,0,0,SEARCHING,0.000,0.800,0.084,-0.064
20:28:42.241,SEARCHING,2.200,-0.722,1.468,0.00,0.00,-30.71,3.011,6.184,4.160,4.767,3.467,0,0,SEARCHING,0.000,0.800,0.094,-0.064
20:28:42.441,SEARCHING,2.282,-0.771,1.485,0.00,0.00,-31.15,3.051,6.356,4.086,4.670,3.691,0,0,SEARCHING,0.000,0.800,0.068,-0.058
20:28:42.641,SEARCHING,2.364,-0.821,1.499,0.00,0.00,-31.53,3.092,6.538,4.160,4.670,3.415,0,0,SEARCHING,0.000,0.800,0.094,-0.058
20:28:42.842,SEARCHING,2.446,-0.871,1.514,0.00,0.00,-31.93,3.051,6.730,4.160,4.576,3.467,0,0,SEARCHING,0.000,0.800,0.084,-0.061
20:28:43.043,SEARCHING,2.527,-0.922,1.528,0.00,0.00,-32.34,3.051,6.538,4.086,4.670,3.415,0,0,SEARCHING,0.000,0.800,0.094,-0.058
20:28:43.243,SEARCHING,2.608,-0.974,1.543,0.00,0.00,-32.72,3.051,6.356,4.014,4.576,3.814,0,0,SEARCHING,0.000,0.800,0.052,-0.055
20:28:43.443,SEARCHING,2.689,-1.026,1.554,0.00,0.00,-33.10,3.092,6.730,3.945,4.576,3.878,0,0,SEARCHING,0.000,0.800,0.047,-0.049
20:28:43.644,SEARCHING,2.769,-1.079,1.564,0.00,0.00,-33.43,3.051,6.730,3.878,4.576,3.878,0,0,SEARCHING,0.000,0.800,0.047,-0.049
20:28:43.839,SEARCHING,2.849,-1.132,1.573,0.00,0.00,-33.74,3.178,6.538,3.814,4.576,3.945,0,0,SEARCHING,0.000,0.800,0.042,-0.037
20:28:44.040,SEARCHING,2.929,-1.185,1.581,0.00,0.00,-33.98,3.178,6.356,3.691,4.487,3.945,0,0,SEARCHING,0.000,0.800,0.037,-0.031
20:28:44.240,SEARCHING,3.008,-1.239,1.588,0.00,0.00,-34.20,3.134,6.538,3.691,4.487,3.945,0,0,SEARCHING,0.000,0.800,0.037,-0.034
20:28:44.441,SEARCHING,3.088,-1.293,1.595,0.00,0.00,-34.42,3.092,6.538,3.575,4.487,4.014,0,0,SEARCHING,0.000,0.800,0.031,-0.031
20:28:44.641,SEARCHING,3.167,-1.348,1.601,0.00,0.00,-34.61,3.134,6.356,3.520,4.487,4.014,0,0,SEARCHING,0.000,0.800,0.031,-0.024
20:28:44.842,SEARCHING,3.246,-1.402,1.608,0.00,0.00,-34.79,3.134,6.538,3.520,4.487,4.014,0,0,SEARCHING,0.000,0.800,0.031,-0.024
20:28:45.041,SEARCHING,3.325,-1.457,1.613,0.00,0.00,-34.96,3.092,6.356,3.467,4.487,4.086,0,0,SEARCHING,0.000,0.800,0.026,-0.024
20:28:45.243,SEARCHING,3.403,-1.512,1.619,0.00,0.00,-35.11,3.051,6.184,3.467,4.400,4.014,0,0,SEARCHING,0.000,0.800,0.026,-0.028
20:28:45.443,SEARCHING,3.482,-1.567,1.625,0.00,0.00,-35.27,3.092,6.022,3.365,4.487,3.945,0,0,SEARCHING,0.000,0.800,0.037,-0.018
20:28:45.643,SEARCHING,3.560,-1.623,1.633,0.00,0.00,-35.40,4.317,6.022,3.316,4.400,3.632,0,0,SEARCHING,0.000,0.800,0.058,0.049
20:28:45.844,SEARCHING,3.638,-1.678,1.644,0.00,0.00,-35.06,4.487,6.022,3.316,4.317,3.575,0,0,SEARCHING,0.000,0.800,0.058,0.055
20:28:46.056,SEARCHING,3.717,-1.733,1.656,0.00,0.00,-34.68,4.576,6.022,3.269,4.317,3.575,0,0,SEARCHING,0.000,0.800,0.058,0.061
20:28:46.252,SEARCHING,3.796,-1.788,1.668,0.00,0.00,-34.27,4.576,6.184,3.365,4.317,3.520,0,0,SEARCHING,0.000,0.800,0.063,0.055
20:28:46.453,SEARCHING,3.876,-1.842,1.680,0.00,0.00,-33.89,4.487,6.184,3.269,4.317,3.467,0,0,SEARCHING,0.000,0.800,0.068,0.058
20:28:46.653,SEARCHING,3.955,-1.895,1.696,0.00,0.00,-33.50,4.487,6.184,3.365,4.317,3.316,0,0,SEARCHING,0.000,0.800,0.084,0.052
20:28:46.853,SEARCHING,4.036,-1.948,1.712,0.00,0.00,-33.14,4.487,6.356,3.365,4.317,3.269,0,0,SEARCHING,0.000,0.800,0.089,0.052
20:28:47.054,SEARCHING,4.116,-2.000,1.731,0.00,0.00,-32.77,4.317,6.184,3.269,4.160,3.134,0,0,SEARCHING,0.000,0.800,0.094,0.052
20:28:47.254,SEARCHING,4.197,-2.052,1.749,0.00,0.00,-32.41,4.317,6.184,3.269,4.160,3.092,0,0,SEARCHING,0.000,0.800,0.100,0.052
20:28:47.454,SEARCHING,4.278,-2.103,1.770,0.00,0.00,-32.06,4.317,6.184,3.316,4.086,2.972,0,0,SEARCHING,0.000,0.800,0.110,0.049
20:28:47.655,SEARCHING,4.360,-2.154,1.793,0.00,0.00,-31.73,4.237,6.184,3.269,4.014,2.896,0,0,SEARCHING,0.000,0.800,0.115,0.049
20:28:47.855,SEARCHING,4.441,-2.204,1.817,0.00,0.00,-31.39,4.160,6.184,3.316,4.014,2.790,0,0,SEARCHING,0.000,0.800,0.131,0.043
20:28:48.056,SEARCHING,4.524,-2.254,1.841,0.00,0.00,-31.09,4.160,6.184,3.269,3.878,2.860,0,0,SEARCHING,0.000,0.800,0.110,0.046
20:28:48.256,SEARCHING,4.606,-2.303,1.864,0.00,0.00,-30.79,4.160,6.184,3.269,3.878,2.825,0,0,SEARCHING,0.000,0.800,0.115,0.046
20:28:48.457,SEARCHING,4.688,-2.352,1.886,0.00,0.00,-30.50,4.160,6.184,3.269,3.814,2.790,0,0,SEARCHING,0.000,0.800,0.115,0.046
20:28:48.657,SEARCHING,4.771,-2.401,1.909,0.00,0.00,-30.20,4.014,6.184,3.269,3.691,2.860,0,0,SEARCHING,0.000,0.800,0.094,0.040
20:28:48.858,SEARCHING,4.854,-2.449,1.928,0.00,0.00,-29.94,4.086,6.184,3.316,3.632,2.934,0,0,SEARCHING,0.000,0.800,0.079,0.040
20:28:49.058,SEARCHING,4.938,-2.497,1.942,0.00,0.00,-29.70,3.945,6.022,3.415,3.575,2.972,0,0,SEARCHING,0.000,0.800,0.068,0.028
20:28:49.259,SEARCHING,5.021,-2.544,1.957,0.00,0.00,-29.52,3.945,6.184,3.415,3.575,2.972,0,0,SEARCHING,0.000,0.800,0.068,0.028
20:28:49.459,SEARCHING,5.105,-2.591,1.970,0.00,0.00,-29.33,3.945,6.184,3.415,3.520,3.011,0,0,SEARCHING,0.000,0.800,0.058,0.028
20:28:49.660,SEARCHING,5.188,-2.638,1.981,0.00,0.00,-29.13,4.014,6.022,3.365,3.520,3.051,0,0,SEARCHING,0.000,0.800,0.052,0.034
20:28:49.860,SEARCHING,5.272,-2.685,1.992,0.00,0.00,-28.90,4.237,6.022,3.415,3.520,3.092,0,0,SEARCHING,0.000,0.800,0.047,0.040
20:28:50.061,SEARCHING,5.356,-2.731,2.000,0.00,0.00,-28.63,4.317,6.022,3.415,3.520,3.134,0,0,SEARCHING,0.000,0.800,0.042,0.043
20:28:50.261,SEARCHING,5.441,-2.777,2.008,0.00,0.00,-28.35,4.487,6.022,3.415,3.415,3.134,0,0,SEARCHING,0.000,0.800,0.031,0.049
20:28:50.462,SEARCHING,5.525,-2.822,2.015,0.00,0.00,-28.02,4.576,6.022,3.415,3.467,3.092,0,0,SEARCHING,0.000,0.800,0.042,0.052
20:28:50.662,SEARCHING,5.610,-2.867,2.022,0.00,0.00,-27.68,4.487,6.022,3.415,3.415,3.134,0,0,SEARCHING,0.000,0.800,0.031,0.049
20:28:50.862,SEARCHING,5.695,-2.911,2.028,0.00,0.00,-27.34,4.400,6.022,3.415,3.365,3.178,0,0,SEARCHING,0.000,0.800,0.021,0.046
20:28:51.064,SEARCHING,5.781,-2.955,2.033,0.00,0.00,-27.03,4.487,6.022,3.415,3.415,3.223,0,0,SEARCHING,0.000,0.800,0.021,0.049
20:28:51.264,SEARCHING,5.866,-2.999,2.035,0.00,0.00,-26.69,4.400,6.022,3.365,3.316,3.520,0,0,SEARCHING,0.000,0.800,-0.021,0.049
20:28:51.464,SEARCHING,5.952,-3.042,2.030,0.00,0.00,-26.37,4.317,6.022,3.365,3.415,3.878,0,0,SEARCHING,0.000,0.800,-0.042,0.046
20:28:51.664,SEARCHING,6.038,-3.084,2.022,0.00,0.00,-26.07,4.237,6.184,3.415,3.415,4.014,0,0,SEARCHING,0.000,0.800,-0.052,0.040
20:28:51.866,SEARCHING,6.125,-3.126,2.012,0.00,0.00,-25.80,4.160,6.022,3.415,3.467,4.086,0,0,SEARCHING,0.000,0.800,-0.052,0.037
20:28:52.066,SEARCHING,6.211,-3.168,2.002,0.00,0.00,-25.56,3.878,6.022,3.365,3.520,4.086,0,0,SEARCHING,0.000,0.800,-0.047,0.028
20:28:52.266,SEARCHING,6.298,-3.209,1.992,0.00,0.00,-25.42,3.945,5.867,3.467,3.520,4.086,0,0,SEARCHING,0.000,0.800,-0.047,0.024
20:28:52.467,SEARCHING,6.385,-3.250,1.982,0.00,0.00,-25.28,3.520,5.867,3.415,3.520,4.086,0,0,SEARCHING,0.000,0.800,-0.047,0.006
20:28:52.667,SEARCHING,6.471,-3.291,1.973,0.00,0.00,-25.26,3.520,5.867,3.415,3.575,4.086,0,0,SEARCHING,0.000,0.800,-0.042,0.006
20:28:52.868,SEARCHING,6.558,-3.332,1.962,0.00,0.00,-25.20,3.520,3.878,3.365,3.467,4.160,0,0,SEARCHING,0.000,0.800,-0.058,0.009
20:28:53.068,SEARCHING,6.645,-3.373,1.951,0.00,0.00,-25.14,3.269,3.814,3.365,3.467,4.160,0,0,SEARCHING,0.000,0.800,-0.058,-0.006
20:28:53.269,SEARCHING,6.732,-3.414,1.925,0.00,0.00,-25.12,3.134,5.581,3.316,3.365,4.086,0,0,SEARCHING,0.000,0.800,-0.063,-0.012
20:28:53.469,SEARCHING,6.819,-3.454,1.914,0.00,0.00,-25.22,3.092,3.269,3.269,3.365,4.086,0,0,SEARCHING,0.000,0.800,-0.063,-0.012
20:28:53.670,SEARCHING,6.906,-3.495,1.901,0.00,0.00,-25.36,2.825,5.448,3.223,3.316,4.086,0,0,SEARCHING,0.000,0.800,-0.068,-0.031
20:28:53.870,SEARCHING,6.992,-3.537,1.885,0.00,0.00,-25.57,2.790,2.896,3.223,3.178,4.160,0,0,SEARCHING,0.000,0.800,-0.089,-0.034
20:28:54.071,SEARCHING,7.079,-3.578,1.868,0.00,0.00,-25.79,2.630,2.825,3.092,5.200,4.160,0,0,SEARCHING,0.000,0.800,0.058,-0.040
20:28:54.271,SEARCHING,7.165,-3.620,1.881,0.00,0.00,-26.07,2.571,2.757,2.934,5.200,4.237,0,0,SEARCHING,0.000,0.800,0.052,-0.034
20:28:54.472,SEARCHING,7.252,-3.663,1.891,0.00,0.00,-26.36,2.359,2.630,2.790,5.085,4.237,0,0,SEARCHING,0.000,0.800,0.047,-0.046
20:28:54.671,SEARCHING,7.337,-3.705,1.900,0.00,0.00,-26.70,2.288,2.335,2.692,4.868,4.317,0,0,SEARCHING,0.000,0.800,0.031,-0.046
20:28:54.872,SEARCHING,7.423,-3.749,1.906,0.00,0.00,-26.94,2.266,2.288,2.571,4.767,4.317,0,0,SEARCHING,0.000,0.800,0.026,-0.037
20:28:55.073,SEARCHING,7.509,-3.792,1.912,0.00,0.00,-27.23,2.159,2.243,2.487,4.767,4.400,0,0,SEARCHING,0.000,0.800,0.021,-0.043
20:28:55.273,SEARCHING,7.594,-3.836,1.916,0.00,0.00,-27.56,2.080,2.200,2.359,4.670,4.400,0,0,SEARCHING,0.000,0.800,0.016,-0.040
20:28:55.474,SEARCHING,7.679,-3.881,1.919,0.00,0.00,-27.90,1.956,2.119,2.335,4.576,4.400,0,0,SEARCHING,0.000,0.800,0.010,-0.058
20:28:55.678,SEARCHING,7.764,-3.926,1.926,0.00,0.00,-28.29,1.907,1.956,2.243,4.487,3.691,0,0,SEARCHING,0.000,0.800,0.058,-0.055
20:28:55.879,SEARCHING,7.848,-3.972,1.938,0.00,0.00,-28.71,0.355,1.956,2.179,4.400,3.520,0,0,SEARCHING,0.000,0.800,0.068,-0.800
20:28:56.079,SEARCHING,7.931,-4.021,1.947,0.00,0.00,-31.67,1.760,1.876,2.061,4.014,3.632,0,0,SEARCHING,0.000,0.800,0.031,-0.058
20:28:56.280,SEARCHING,8.012,-4.071,1.951,0.00,0.00,-32.07,1.670,1.760,1.990,3.878,3.691,0,0,SEARCHING,0.000,0.800,0.016,-0.067
20:28:56.480,SEARCHING,8.093,-4.123,1.955,0.00,0.00,-32.64,1.536,1.720,1.939,3.751,3.520,0,0,SEARCHING,0.000,0.800,0.021,-0.095
20:28:56.681,SEARCHING,8.174,-4.175,1.961,0.00,0.00,-33.33,1.496,1.658,1.788,3.575,3.316,0,0,SEARCHING,0.000,0.800,0.026,-0.076
20:28:56.881,SEARCHING,8.254,-4.228,1.966,0.00,0.00,-33.93,1.404,1.546,1.733,3.575,3.134,0,0,SEARCHING,0.000,0.800,0.047,-0.095
20:28:57.082,SEARCHING,8.333,-4.282,1.974,0.00,0.00,-34.65,1.300,1.505,1.634,3.415,3.134,0,0,SEARCHING,0.000,0.800,0.031,-0.110
20:28:57.282,SEARCHING,8.410,-4.336,1.982,0.00,0.00,-35.35,1.250,1.412,1.536,1.430,3.011,0,0,SEARCHING,0.000,0.753,-0.441,-0.104
20:28:57.484,SEARCHING,8.482,-4.387,1.888,0.00,0.00,-36.15,1.204,1.315,1.467,1.315,2.934,0,0,SEARCHING,0.000,0.701,-0.503,-0.104
20:28:57.683,SEARCHING,8.551,-4.438,1.785,0.00,0.00,-36.95,1.611,1.505,1.600,1.257,3.051,0,0,SEARCHING,0.000,0.800,-0.561,0.003
20:28:57.884,SEARCHING,8.628,-4.496,1.669,0.00,0.00,-36.71,2.311,2.860,1.907,1.167,3.011,0,0,SEARCHING,0.000,0.800,-0.629,0.064
20:28:58.084,SEARCHING,8.705,-4.553,1.540,0.00,0.00,-36.29,4.400,2.972,1.891,1.217,2.972,0,0,SEARCHING,0.000,0.800,-0.582,0.211
20:28:58.284,SEARCHING,8.783,-4.609,1.436,0.00,0.00,-34.83,4.576,2.972,1.876,1.505,2.934,0,0,SEARCHING,0.000,0.800,-0.388,0.220
20:28:58.487,SEARCHING,8.862,-4.663,1.363,0.00,0.00,-33.92,2.007,2.896,1.891,1.682,2.896,0,0,SEARCHING,0.000,0.800,-0.299,0.021
20:28:58.686,SEARCHING,8.942,-4.716,1.306,0.00,0.00,-33.77,1.990,2.311,1.831,1.845,2.757,0,0,SEARCHING,0.000,0.800,-0.215,0.031
20:28:58.887,SEARCHING,9.022,-4.770,1.266,0.00,0.00,-33.55,2.007,2.288,1.816,1.891,2.692,0,0,SEARCHING,0.000,0.800,-0.189,0.037
20:28:59.087,SEARCHING,9.102,-4.823,1.232,0.00,0.00,-33.31,1.907,2.222,1.788,1.990,2.600,0,0,SEARCHING,0.000,0.800,-0.142,0.024
20:28:59.288,SEARCHING,9.182,-4.875,1.206,0.00,0.00,-33.16,1.831,2.061,1.720,2.119,2.542,0,0,SEARCHING,0.000,0.800,-0.094,0.024
20:28:59.489,SEARCHING,9.262,-4.928,1.189,0.00,0.00,-33.04,1.774,2.043,1.720,1.973,2.487,0,0,SEARCHING,0.000,0.800,-0.126,0.012
20:28:59.689,SEARCHING,9.343,-4.980,1.163,0.00,0.00,-32.98,1.747,1.973,1.658,1.956,2.409,0,0,SEARCHING,0.000,0.800,-0.115,0.021
20:28:59.891,SEARCHING,9.423,-5.032,1.138,0.00,0.00,-32.91,1.623,1.876,1.634,1.788,2.359,0,0,SEARCHING,0.000,0.800,-0.163,-0.003
20:29:00.091,SEARCHING,9.504,-5.084,1.107,0.00,0.00,-32.93,1.682,1.831,1.611,1.788,2.288,0,0,SEARCHING,0.000,0.800,-0.147,0.018
20:29:00.291,SEARCHING,9.585,-5.136,1.077,0.00,0.00,-32.85,1.623,1.802,1.567,1.670,2.222,0,0,SEARCHING,0.000,0.800,-0.178,0.015
20:29:00.491,SEARCHING,9.665,-5.188,1.042,0.00,0.00,-32.53,1.923,1.939,1.536,1.589,2.159,0,0,SEARCHING,0.000,0.800,-0.199,0.092
20:29:00.692,SEARCHING,9.747,-5.239,1.000,0.00,0.00,-31.29,4.014,2.222,1.536,1.486,2.061,0,0,SEARCHING,0.000,0.800,-0.226,0.281
20:29:00.893,SEARCHING,9.829,-5.288,0.949,0.00,0.00,-29.31,4.317,2.266,1.557,1.378,1.891,0,0,SEARCHING,0.000,0.800,-0.236,0.288
20:29:01.093,SEARCHING,9.914,-5.334,0.904,0.00,0.00,-27.32,4.576,2.335,1.611,1.308,1.682,0,0,SEARCHING,0.000,0.800,-0.205,0.281
20:29:01.294,SEARCHING,10.000,-5.377,0.863,0.00,0.00,-25.38,4.576,2.409,1.546,1.293,1.600,0,0,SEARCHING,0.000,0.800,-0.178,0.300
20:29:01.495,SEARCHING,10.087,-5.417,0.834,0.00,0.00,-23.29,4.576,2.514,1.486,1.323,1.536,0,0,SEARCHING,0.000,0.800,-0.126,0.318
20:29:01.696,SEARCHING,10.176,-5.453,0.802,0.00,0.00,-21.14,4.868,2.630,1.525,1.370,1.695,0,0,SEARCHING,0.000,0.800,-0.168,0.315
20:29:01.897,SEARCHING,10.266,-5.486,0.774,0.00,0.00,-18.97,5.200,2.661,1.557,1.457,1.646,0,0,SEARCHING,0.000,0.800,-0.094,0.315
20:29:02.097,SEARCHING,10.357,-5.516,0.758,0.00,0.00,-16.81,5.321,2.724,1.634,1.496,1.589,0,0,SEARCHING,0.000,0.800,-0.047,0.297
20:29:02.298,SEARCHING,10.449,-5.543,0.750,0.00,0.00,-14.77,5.200,2.896,1.658,1.496,1.557,0,0,SEARCHING,0.000,0.800,-0.031,0.288
20:29:02.499,SEARCHING,10.543,-5.566,0.744,0.00,0.00,-12.85,5.200,3.178,1.747,1.515,1.515,0,0,SEARCHING,0.000,0.800,0.000,0.266
20:29:02.699,SEARCHING,10.636,-5.586,0.745,0.00,0.00,-11.02,5.085,3.467,1.816,1.536,1.496,0,0,SEARCHING,0.000,0.800,0.021,0.248
20:29:02.901,SEARCHING,10.731,-5.603,0.747,0.00,0.00,-9.34,5.200,3.691,1.907,1.496,1.525,0,0,SEARCHING,0.000,0.800,-0.016,0.232
20:29:03.100,SEARCHING,10.826,-5.617,0.746,0.00,0.00,-7.76,5.085,3.691,1.939,1.496,1.505,0,0,SEARCHING,0.000,0.800,-0.005,0.223
20:29:03.301,SEARCHING,10.921,-5.629,0.744,0.00,0.00,-6.20,5.321,3.751,1.860,1.525,1.505,0,0,SEARCHING,0.000,0.800,0.010,0.245
20:29:03.502,SEARCHING,11.017,-5.639,0.746,0.00,0.00,-4.53,5.200,3.751,1.956,1.536,1.525,0,0,SEARCHING,0.000,0.800,0.005,0.223
20:29:03.703,SEARCHING,11.112,-5.645,0.746,0.00,0.00,-3.02,4.868,4.014,2.007,1.505,1.515,0,0,SEARCHING,0.000,0.800,-0.005,0.205
20:29:03.902,SEARCHING,11.208,-5.649,0.747,0.00,0.00,-1.69,4.767,4.237,2.138,1.525,1.515,0,0,SEARCHING,0.000,0.800,0.005,0.180
20:29:04.103,SEARCHING,11.304,-5.651,0.748,0.00,0.00,-0.50,4.576,4.317,2.266,1.525,1.515,0,0,SEARCHING,0.000,0.800,0.005,0.156
20:29:04.304,SEARCHING,11.400,-5.651,0.747,0.00,0.00,0.54,4.487,4.400,2.359,1.515,1.515,0,0,SEARCHING,0.000,0.800,0.000,0.141
20:29:04.504,SEARCHING,11.496,-5.650,0.748,0.00,0.00,1.48,4.400,4.487,2.514,1.515,1.525,0,0,SEARCHING,0.000,0.800,-0.005,0.119
20:29:04.704,SEARCHING,11.592,-5.647,0.744,0.00,0.00,2.28,4.317,4.576,2.600,1.457,1.525,0,0,SEARCHING,0.000,0.800,-0.037,0.107
20:29:04.905,SEARCHING,11.688,-5.642,0.734,0.00,0.00,2.99,4.237,4.767,2.724,1.536,1.515,0,0,SEARCHING,0.000,0.800,0.010,0.092
20:29:05.105,SEARCHING,11.784,-5.637,0.795,0.00,0.00,3.62,4.160,4.974,2.661,1.378,1.802,0,0,SEARCHING,0.000,0.800,-0.205,0.095
20:29:05.306,SEARCHING,11.880,-5.630,0.822,0.00,0.00,4.29,4.086,5.321,2.571,1.330,1.831,0,0,SEARCHING,0.000,0.800,-0.246,0.101
20:29:05.506,SEARCHING,11.975,-5.623,0.847,0.00,0.00,5.00,4.086,6.538,2.487,1.237,1.907,0,0,SEARCHING,0.000,0.800,-0.341,0.110
20:29:05.706,SEARCHING,12.071,-5.614,0.857,0.00,0.00,5.75,3.945,6.538,2.487,6.022,1.923,0,0,SEARCHING,0.000,0.800,0.425,0.104
20:29:05.907,SEARCHING,12.166,-5.604,0.841,0.00,0.00,6.44,3.878,6.538,2.487,5.867,1.923,0,0,SEARCHING,0.000,0.800,0.420,0.101
20:29:06.108,SEARCHING,12.262,-5.592,0.930,0.00,0.00,7.10,3.751,7.381,2.542,5.720,2.138,0,0,SEARCHING,0.000,0.800,0.351,0.089
20:29:06.308,SEARCHING,12.357,-5.580,0.998,0.00,0.00,7.68,3.691,7.890,2.600,6.022,2.288,0,0,SEARCHING,0.000,0.800,0.325,0.080
20:29:06.508,INSPECTING,12.407,-5.573,0.993,0.00,0.00,8.87,3.632,7.627,2.661,5.581,2.288,0,0,CENTER,6.483,0.120,0.000,0.000
20:29:06.709,INSPECTING,12.421,-5.571,0.993,0.00,0.00,8.87,3.632,7.151,2.724,5.448,2.288,0,0,CENTER,6.078,0.120,0.000,0.000
20:29:06.910,INSPECTING,12.435,-5.569,0.993,0.00,0.00,8.87,3.575,7.151,2.724,5.581,2.288,0,0,CENTER,6.078,0.120,0.000,0.000
20:29:07.111,INSPECTING,12.450,-5.567,0.993,0.00,0.00,8.87,3.632,6.934,2.724,5.448,2.311,0,0,CENTER,5.894,0.120,0.000,0.000
20:29:07.311,SEARCHING,12.464,-5.564,0.993,0.00,0.00,8.87,3.632,7.151,2.724,5.321,2.311,0,0,CENTER,6.078,0.120,0.000,0.000
20:29:07.554,INSPECTING,12.559,-5.549,1.038,0.00,0.00,9.29,3.520,0.246,0.246,5.321,2.487,0,0,SEARCHING,0.000,0.000,0.257,0.800
20:29:07.712,INSPECTING,12.568,-5.548,1.078,0.00,0.00,9.29,3.520,7.151,2.790,5.448,2.571,0,0,CENTER,6.078,0.120,0.000,0.000
20:29:07.913,INSPECTING,12.582,-5.545,1.078,0.00,0.00,9.29,3.520,7.381,2.757,5.321,2.571,0,0,CENTER,6.274,0.120,0.000,0.000
20:29:08.113,INSPECTING,12.597,-5.543,1.078,0.00,0.00,9.29,3.520,7.151,2.757,5.321,2.571,0,0,CENTER,6.078,0.120,0.000,0.000
20:29:08.313,INSPECTING,12.611,-5.541,1.078,0.00,0.00,9.29,3.520,7.151,2.757,5.200,2.571,0,0,CENTER,6.078,0.120,0.000,0.000
20:29:08.514,SEARCHING,12.665,-5.532,1.092,0.00,0.00,9.47,3.467,7.151,2.724,5.200,2.571,0,0,SEARCHING,0.000,0.800,0.236,0.055
20:29:08.715,INSPECTING,12.715,-5.523,1.160,0.00,0.00,9.66,3.415,6.730,0.242,0.437,2.825,0,0,CENTER,5.720,0.120,0.000,0.000
20:29:08.916,INSPECTING,12.729,-5.521,1.220,0.00,0.00,9.66,3.415,6.934,0.241,0.293,3.011,0,0,CENTER,5.894,0.120,0.000,0.000
20:29:09.116,INSPECTING,12.743,-5.519,1.280,0.00,0.00,9.66,3.365,7.151,0.241,7.627,3.092,0,0,TOP,7.627,0.120,0.600,0.000
20:29:09.317,INSPECTING,12.757,-5.516,1.335,-0.00,-0.00,9.66,3.365,7.151,0.241,4.576,3.223,0,0,CENTER,6.078,0.120,0.000,0.000
20:29:10.385,SEARCHING,12.767,-5.515,1.335,-0.00,-0.00,9.66,3.365,6.934,2.790,4.576,3.223,0,0,CENTER,5.894,0.120,0.000,0.000
20:29:10.458,SEARCHING,12.814,-5.507,1.339,0.00,-0.00,9.81,3.365,6.356,2.790,4.576,3.269,0,0,SEARCHING,0.000,0.800,0.105,0.043
20:29:10.639,SEARCHING,12.909,-5.490,1.339,0.00,-0.00,10.10,3.178,6.934,2.790,4.576,3.269,0,0,SEARCHING,0.000,0.800,0.105,0.031
20:29:10.836,SEARCHING,13.003,-5.473,1.339,0.00,-0.00,10.31,3.223,6.934,2.790,4.576,3.269,0,0,SEARCHING,0.000,0.800,0.105,0.034
20:29:11.036,SEARCHING,13.097,-5.455,1.339,0.00,-0.00,13.18,3.134,5.448,0.231,4.576,3.316,0,0,SEARCHING,0.000,0.800,0.100,0.800
20:29:11.238,SEARCHING,13.190,-5.430,1.339,0.00,-0.00,18.68,2.860,4.237,7.890,4.237,3.316,0,0,SEARCHING,0.000,0.800,0.079,-0.156
20:29:11.437,SEARCHING,13.281,-5.400,1.339,-0.00,0.00,17.54,2.790,4.014,7.890,4.086,3.316,0,0,SEARCHING,0.000,0.800,0.068,-0.162
20:29:11.638,SEARCHING,13.480,-5.417,1.461,0.09,-0.07,5.30,3.223,7.890,2.359,4.237,3.632,0,0,SEARCHING,0.000,0.800,0.047,0.080
20:29:11.838,SEARCHING,13.576,-5.408,1.470,0.09,-0.07,5.87,3.223,6.184,2.384,4.237,3.632,0,0,SEARCHING,0.000,0.800,0.047,0.076
20:29:12.039,SEARCHING,13.671,-5.398,1.480,0.09,-0.07,6.38,3.134,7.381,2.409,4.237,3.632,0,0,SEARCHING,0.000,0.800,0.047,0.067
20:29:12.240,SEARCHING,13.767,-5.387,1.489,0.09,-0.07,6.83,3.051,7.381,2.434,4.160,3.691,0,0,SEARCHING,0.000,0.800,0.037,0.058
20:29:12.441,SEARCHING,13.862,-5.375,1.497,0.09,-0.07,7.23,2.972,7.381,2.434,4.237,3.691,0,0,SEARCHING,0.000,0.800,0.042,0.052
20:29:12.641,SEARCHING,13.957,-5.363,1.505,0.09,-0.07,7.61,2.972,6.356,2.359,4.237,3.751,0,0,SEARCHING,0.000,0.800,0.037,0.061
20:29:12.841,SEARCHING,14.052,-5.350,1.512,0.09,-0.07,7.94,2.934,6.538,6.538,4.317,3.751,0,0,SEARCHING,0.000,0.800,0.042,-0.132
20:29:13.041,SEARCHING,14.148,-5.337,1.521,0.09,-0.07,7.03,2.896,5.720,6.538,4.400,3.814,0,0,SEARCHING,0.000,0.800,0.042,-0.135
20:29:13.243,SEARCHING,14.243,-5.326,1.529,0.09,-0.07,6.55,2.934,5.720,6.184,4.317,3.814,0,0,SEARCHING,0.000,0.800,0.037,-0.125
20:29:13.442,SEARCHING,14.338,-5.315,1.536,0.09,-0.07,5.69,2.972,5.720,6.356,4.317,3.878,0,0,SEARCHING,0.000,0.800,0.031,-0.125
20:29:13.643,SEARCHING,14.434,-5.307,1.542,0.09,-0.07,4.82,2.972,5.720,3.011,4.317,3.878,0,0,SEARCHING,0.000,0.800,0.031,-0.003
20:29:13.843,SEARCHING,14.530,-5.299,1.548,0.09,-0.07,4.41,3.011,6.184,6.538,4.317,3.878,0,0,SEARCHING,0.000,0.800,0.031,-0.125
20:29:14.044,SEARCHING,14.625,-5.292,1.555,0.09,-0.07,3.56,3.011,6.022,6.184,4.317,3.878,0,0,SEARCHING,0.000,0.800,0.031,-0.119
20:29:14.244,SEARCHING,14.721,-5.286,1.560,0.09,-0.07,2.70,3.051,6.538,6.356,4.317,3.878,0,0,SEARCHING,0.000,0.800,0.031,-0.119
20:29:14.445,SEARCHING,14.817,-5.283,1.566,0.09,-0.07,1.98,4.237,6.022,3.051,4.237,3.945,0,0,SEARCHING,0.000,0.800,0.021,0.064
20:29:14.647,SEARCHING,14.913,-5.279,1.571,0.09,-0.07,2.37,4.767,6.022,6.184,4.317,3.945,0,0,SEARCHING,0.000,0.800,0.026,-0.034
20:29:14.847,SEARCHING,15.009,-5.275,1.576,0.09,-0.07,2.14,4.767,6.022,6.356,4.400,3.945,0,0,SEARCHING,0.000,0.800,0.031,-0.037
20:29:15.049,SEARCHING,15.105,-5.272,1.582,0.09,-0.07,1.91,4.767,6.022,6.022,4.400,4.014,0,0,SEARCHING,0.000,0.800,0.026,-0.031
20:29:15.249,SEARCHING,15.201,-5.269,1.588,0.09,-0.07,1.70,4.767,6.022,5.581,4.317,4.014,0,0,SEARCHING,0.000,0.800,0.021,-0.021
20:29:15.449,SEARCHING,15.297,-5.266,1.592,0.09,-0.07,1.56,4.767,6.184,6.184,4.317,4.014,0,0,SEARCHING,0.000,0.800,0.021,-0.034
20:29:15.649,SEARCHING,15.393,-5.263,1.597,0.09,-0.07,1.32,4.670,6.022,5.581,4.400,4.014,0,0,SEARCHING,0.000,0.800,0.026,-0.024
20:29:15.850,SEARCHING,15.489,-5.261,1.602,0.09,-0.07,1.05,4.767,6.184,5.867,4.317,4.014,0,0,SEARCHING,0.000,0.800,0.021,-0.028
20:29:16.050,SEARCHING,15.585,-5.260,1.606,0.09,-0.07,0.87,4.670,6.022,7.151,4.317,4.014,0,0,SEARCHING,0.000,0.800,0.021,-0.052
20:29:16.251,SEARCHING,15.681,-5.259,1.609,0.09,-0.07,0.56,4.670,5.720,9.153,4.317,4.014,0,0,SEARCHING,0.000,0.800,0.021,-0.073
20:29:16.452,SEARCHING,15.777,-5.258,1.614,0.09,-0.07,0.18,4.576,5.867,5.448,4.317,4.086,0,0,SEARCHING,0.000,0.800,0.016,-0.024
20:29:16.651,SEARCHING,15.873,-5.258,1.616,0.09,-0.07,-0.16,4.670,6.022,8.801,4.237,4.014,0,0,SEARCHING,0.000,0.800,0.016,-0.070
20:29:16.849,SEARCHING,15.969,-5.258,1.620,0.09,-0.07,-0.63,4.767,5.720,8.801,4.237,4.086,0,0,SEARCHING,0.000,0.800,0.010,-0.067
20:29:17.050,SEARCHING,16.065,-5.260,1.623,0.09,-0.07,-1.09,4.576,6.022,8.801,4.237,4.086,0,0,SEARCHING,0.000,0.800,0.010,-0.073
20:29:17.249,SEARCHING,16.161,-5.262,1.625,0.09,-0.07,-1.59,4.670,5.321,8.172,4.317,4.086,0,0,SEARCHING,0.000,0.800,0.016,-0.064
20:29:17.450,SEARCHING,16.257,-5.265,1.628,0.09,-0.07,-2.04,4.670,5.720,8.172,4.317,4.086,0,0,SEARCHING,0.000,0.800,0.016,-0.064
20:29:17.650,SEARCHING,16.353,-5.269,1.630,0.09,-0.07,-2.47,4.670,6.022,7.890,4.317,4.086,0,0,SEARCHING,0.000,0.800,0.016,-0.061
20:29:17.851,SEARCHING,16.449,-5.273,1.633,0.09,-0.07,-2.88,4.576,4.767,7.381,4.317,4.086,0,0,SEARCHING,0.000,0.800,0.016,-0.058
20:29:18.052,SEARCHING,16.544,-5.278,1.635,0.09,-0.07,-3.27,4.576,4.868,7.151,4.237,4.086,0,0,SEARCHING,0.000,0.800,0.010,-0.055
20:29:18.253,SEARCHING,16.640,-5.284,1.637,0.09,-0.07,-3.64,4.576,4.487,6.934,4.317,4.086,0,0,SEARCHING,0.000,0.800,0.016,-0.052
20:29:18.452,SEARCHING,16.736,-5.290,1.639,0.09,-0.07,-4.00,4.400,4.868,6.934,4.317,4.160,0,0,SEARCHING,0.000,0.800,0.010,-0.058
20:29:18.654,SEARCHING,16.832,-5.297,1.641,0.09,-0.07,-4.37,4.576,5.085,6.730,4.317,4.086,0,0,SEARCHING,0.000,0.800,0.016,-0.049
20:29:18.854,SEARCHING,16.927,-5.305,1.645,0.09,-0.07,-4.71,4.487,5.200,6.538,4.317,4.160,0,0,SEARCHING,0.000,0.800,0.010,-0.049
20:29:19.054,SEARCHING,17.023,-5.313,1.646,0.09,-0.07,-5.04,4.576,5.321,6.538,4.237,4.160,0,0,SEARCHING,0.000,0.800,0.005,-0.046
20:29:19.254,SEARCHING,17.119,-5.321,1.647,0.09,-0.07,-5.34,4.487,5.200,6.730,4.317,4.160,0,0,SEARCHING,0.000,0.800,0.010,-0.052
20:29:19.455,SEARCHING,17.214,-5.331,1.649,0.09,-0.07,-5.68,4.487,4.974,6.538,4.237,4.160,0,0,SEARCHING,0.000,0.800,0.005,-0.049
20:29:19.657,SEARCHING,17.310,-5.340,1.650,0.09,-0.07,-6.04,4.487,4.974,6.356,4.160,4.086,0,0,SEARCHING,0.000,0.800,0.005,-0.046
20:29:19.858,SEARCHING,17.405,-5.351,1.652,0.09,-0.07,-6.38,4.400,4.767,6.356,4.317,4.160,0,0,SEARCHING,0.000,0.800,0.010,-0.049
20:29:20.058,SEARCHING,17.501,-5.362,1.655,0.09,-0.07,-6.71,4.317,4.767,6.356,4.317,4.160,0,0,SEARCHING,0.000,0.800,0.010,-0.052
20:29:20.258,SEARCHING,17.596,-5.373,1.658,0.09,-0.07,-7.06,4.086,4.670,6.022,4.400,4.237,0,0,SEARCHING,0.000,0.800,0.010,-0.055
20:29:20.459,SEARCHING,17.691,-5.385,1.660,0.09,-0.07,-7.41,4.086,4.670,6.356,4.400,4.237,0,0,SEARCHING,0.000,0.800,0.010,-0.061
20:29:20.660,SEARCHING,17.786,-5.398,1.662,0.09,-0.07,-7.78,4.317,4.576,6.184,4.400,4.237,0,0,SEARCHING,0.000,0.800,0.010,-0.049
20:29:20.861,SEARCHING,17.881,-5.411,1.664,0.09,-0.07,-8.15,4.160,4.487,5.720,4.400,4.317,0,0,SEARCHING,0.000,0.800,0.005,-0.046
20:29:21.061,SEARCHING,17.976,-5.425,1.666,0.09,-0.07,-8.47,4.160,4.487,5.867,4.400,4.237,0,0,SEARCHING,0.000,0.800,0.010,-0.049
20:29:21.261,SEARCHING,18.071,-5.439,1.667,0.09,-0.07,-8.80,3.751,4.400,5.720,4.317,4.237,0,0,SEARCHING,0.000,0.800,0.005,-0.064
20:29:21.461,SEARCHING,18.166,-5.454,1.668,0.09,-0.07,-9.28,3.691,4.400,5.581,4.317,4.237,0,0,SEARCHING,0.000,0.800,0.005,-0.064
20:29:21.661,SEARCHING,18.261,-5.470,1.669,0.09,-0.07,-9.65,3.691,4.400,5.448,4.317,4.237,0,0,SEARCHING,0.000,0.800,0.005,-0.061
20:29:21.862,SEARCHING,18.355,-5.486,1.670,0.09,-0.07,-10.13,3.520,4.317,5.321,4.317,4.160,0,0,SEARCHING,0.000,0.800,0.010,-0.067
20:29:22.062,SEARCHING,18.450,-5.504,1.672,0.09,-0.07,-10.60,3.751,4.317,5.200,4.237,4.237,0,0,SEARCHING,0.000,0.800,0.000,-0.052
20:29:22.263,SEARCHING,18.544,-5.522,1.673,0.09,-0.07,-11.00,3.415,4.317,5.200,4.317,4.160,0,0,SEARCHING,0.000,0.800,0.010,-0.070
20:29:22.464,SEARCHING,18.638,-5.540,1.674,0.09,-0.07,-11.45,3.316,4.317,5.085,4.237,4.237,0,0,SEARCHING,0.000,0.800,0.000,-0.073
20:29:22.664,SEARCHING,18.732,-5.560,1.674,0.09,-0.07,-11.93,0.706,4.237,4.974,4.317,4.160,0,0,SEARCHING,0.000,0.800,0.010,-0.800
20:29:22.864,SEARCHING,18.826,-5.582,1.676,0.09,-0.07,-14.90,3.269,4.576,4.487,4.317,4.237,0,0,SEARCHING,0.000,0.800,0.005,-0.058
20:29:23.065,SEARCHING,18.918,-5.607,1.677,0.09,-0.07,-15.31,3.178,4.487,4.487,4.317,4.237,0,0,SEARCHING,0.000,0.800,0.005,-0.064
20:29:23.265,SEARCHING,19.011,-5.633,1.678,0.09,-0.07,-15.76,3.051,4.576,4.400,4.317,4.237,0,0,SEARCHING,0.000,0.800,0.005,-0.070
20:29:23.465,SEARCHING,19.103,-5.659,1.680,0.09,-0.07,-16.26,2.934,4.670,4.317,4.317,4.237,0,0,SEARCHING,0.000,0.800,0.005,-0.076
20:29:23.667,SEARCHING,19.195,-5.687,1.682,0.09,-0.07,-16.79,2.860,4.670,4.237,4.317,4.237,0,0,SEARCHING,0.000,0.800,0.005,-0.080
20:29:23.867,SEARCHING,19.287,-5.715,1.683,0.09,-0.07,-17.34,2.825,4.767,4.160,4.317,4.237,0,0,SEARCHING,0.000,0.800,0.005,-0.080
20:29:24.067,SEARCHING,19.379,-5.744,1.684,0.09,-0.07,-17.88,2.724,5.200,4.014,4.237,4.160,0,0,SEARCHING,0.000,0.800,0.005,-0.083
20:29:24.268,SEARCHING,19.470,-5.774,1.684,0.09,-0.07,-18.44,2.724,5.720,3.945,4.237,4.237,0,0,SEARCHING,0.000,0.800,0.000,-0.080
20:29:24.468,SEARCHING,19.561,-5.804,1.685,0.09,-0.07,-18.99,2.724,5.867,3.814,4.237,4.237,0,0,SEARCHING,0.000,0.800,0.000,-0.073
20:29:24.668,SEARCHING,19.651,-5.836,1.686,0.09,-0.07,-19.48,2.724,6.022,3.751,4.237,4.237,0,0,SEARCHING,0.000,0.800,0.000,-0.070
20:29:24.869,SEARCHING,19.742,-5.868,1.686,0.09,-0.07,-19.96,2.692,6.022,3.691,4.237,4.237,0,0,SEARCHING,0.000,0.800,0.000,-0.070
20:29:25.069,SEARCHING,19.832,-5.901,1.687,0.09,-0.07,-20.43,2.692,6.184,3.575,4.237,4.237,0,0,SEARCHING,0.000,0.800,0.000,-0.064
20:29:25.269,SEARCHING,19.922,-5.935,1.687,0.09,-0.07,-20.87,2.661,6.184,3.575,4.317,4.160,0,0,SEARCHING,0.000,0.800,0.010,-0.067
20:29:25.470,SEARCHING,20.011,-5.970,1.688,0.09,-0.07,-21.33,2.692,6.184,3.575,4.237,4.237,0,0,SEARCHING,0.000,0.800,0.000,-0.064
20:29:25.671,SEARCHING,20.101,-6.005,1.688,0.09,-0.07,-21.75,2.630,6.356,3.415,4.317,4.237,0,0,SEARCHING,0.000,0.800,0.005,-0.061
20:29:25.870,SEARCHING,20.190,-6.041,1.688,0.09,-0.07,-22.16,2.630,6.730,3.467,4.317,4.237,0,0,SEARCHING,0.000,0.800,0.005,-0.064
20:29:26.072,SEARCHING,20.278,-6.077,1.689,0.09,-0.07,-22.57,2.571,7.627,3.415,4.317,4.237,0,0,SEARCHING,0.000,0.800,0.005,-0.067
20:29:26.273,SEARCHING,20.367,-6.114,1.690,0.09,-0.07,-22.99,2.661,8.475,3.365,4.237,4.237,0,0,SEARCHING,0.000,0.800,0.000,-0.055
20:29:26.472,SEARCHING,20.455,-6.152,1.690,0.09,-0.07,-23.37,2.630,9.153,3.269,4.317,4.237,0,0,SEARCHING,0.000,0.800,0.005,-0.052
20:29:26.673,SEARCHING,20.543,-6.190,1.690,0.09,-0.07,-23.73,2.630,8.801,3.269,4.237,4.237,0,0,SEARCHING,0.000,0.800,0.000,-0.052
20:29:26.873,SEARCHING,20.631,-6.229,1.691,0.09,-0.07,-24.10,2.630,8.475,3.178,4.237,4.160,0,0,SEARCHING,0.000,0.800,0.005,-0.046
20:29:27.074,SEARCHING,20.719,-6.269,1.693,0.09,-0.07,-24.40,2.630,8.475,3.092,4.237,4.160,0,0,SEARCHING,0.000,0.800,0.005,-0.040
20:29:27.275,SEARCHING,20.806,-6.308,1.694,0.09,-0.07,-24.70,2.630,8.475,3.134,4.237,4.237,0,0,SEARCHING,0.000,0.800,0.000,-0.043
20:29:27.475,SEARCHING,20.893,-6.349,1.695,0.09,-0.07,-25.00,2.571,8.172,3.051,4.237,4.237,0,0,SEARCHING,0.000,0.800,0.000,-0.043
20:29:27.676,SEARCHING,20.980,-6.390,1.695,0.09,-0.07,-25.30,2.542,8.172,2.972,4.237,4.237,0,0,SEARCHING,0.000,0.800,0.000,-0.040
20:29:27.876,SEARCHING,21.067,-6.431,1.694,0.09,-0.07,-25.58,3.092,7.890,2.972,4.237,4.237,0,0,SEARCHING,0.000,0.800,0.000,0.009
20:29:28.077,SEARCHING,21.153,-6.472,1.694,0.09,-0.07,-25.48,3.316,7.890,2.972,4.317,4.237,0,0,SEARCHING,0.000,0.800,0.005,0.024
20:29:28.278,SEARCHING,21.240,-6.513,1.694,0.09,-0.07,-25.30,3.365,7.890,2.896,4.237,4.237,0,0,SEARCHING,0.000,0.800,0.000,0.034
20:29:28.482,SEARCHING,21.327,-6.554,1.694,0.09,-0.07,-25.08,3.415,7.890,2.972,4.237,4.237,0,0,SEARCHING,0.000,0.800,0.000,0.031
20:29:28.683,SEARCHING,21.414,-6.595,1.694,0.09,-0.07,-24.88,3.365,7.890,2.972,4.317,4.237,0,0,SEARCHING,0.000,0.800,0.005,0.028
20:29:28.884,SEARCHING,21.501,-6.635,1.694,0.09,-0.07,-24.70,3.223,7.890,2.896,4.317,4.237,0,0,SEARCHING,0.000,0.800,0.005,0.024
20:29:29.084,SEARCHING,21.588,-6.675,1.695,0.09,-0.07,-24.53,3.178,7.890,2.934,4.317,4.317,0,0,SEARCHING,0.000,0.800,0.000,0.018
20:29:29.285,SEARCHING,21.676,-6.715,1.695,0.09,-0.07,-24.39,3.134,7.890,2.896,4.237,4.317,0,0,SEARCHING,0.000,0.800,-0.005,0.018
20:29:29.484,SEARCHING,21.763,-6.754,1.694,0.09,-0.07,-24.27,3.178,7.890,2.934,4.317,4.237,0,0,SEARCHING,0.000,0.800,0.005,0.018
20:29:29.686,SEARCHING,21.851,-6.794,1.695,0.09,-0.07,-24.16,3.134,7.890,2.934,4.317,4.237,0,0,SEARCHING,0.000,0.800,0.005,0.015
20:29:29.886,SEARCHING,21.938,-6.833,1.696,0.09,-0.07,-24.10,3.051,7.890,2.972,4.237,4.237,0,0,SEARCHING,0.000,0.800,0.000,0.006
20:29:30.087,SEARCHING,22.026,-6.872,1.696,0.09,-0.07,-24.07,3.051,7.890,3.051,4.317,4.237,0,0,SEARCHING,0.000,0.800,0.005,0.000
20:29:30.287,SEARCHING,22.114,-6.911,1.697,0.09,-0.07,-24.09,3.011,7.890,3.134,4.317,4.237,0,0,SEARCHING,0.000,0.800,0.005,-0.009
20:29:30.489,SEARCHING,22.201,-6.951,1.698,0.09,-0.07,-24.22,2.972,7.627,3.415,4.317,4.237,0,0,SEARCHING,0.000,0.800,0.005,-0.031
20:29:30.689,SEARCHING,22.289,-6.990,1.699,0.09,-0.07,-24.46,2.972,7.381,3.520,4.237,4.317,0,0,SEARCHING,0.000,0.800,-0.005,-0.037
20:29:30.890,SEARCHING,22.376,-7.030,1.698,0.09,-0.07,-24.71,2.972,7.381,3.520,4.237,4.317,0,0,SEARCHING,0.000,0.800,-0.005,-0.037
20:29:31.090,SEARCHING,22.463,-7.070,1.697,0.09,-0.07,-24.96,2.972,7.381,3.575,4.237,4.237,0,0,SEARCHING,0.000,0.800,0.000,-0.040
20:29:31.290,SEARCHING,22.550,-7.111,1.698,0.09,-0.07,-25.22,2.972,6.934,3.520,4.160,4.237,0,0,SEARCHING,0.000,0.800,-0.005,-0.037
20:29:31.491,SEARCHING,22.637,-7.152,1.698,0.09,-0.07,-25.47,2.934,7.151,3.415,4.237,4.237,0,0,SEARCHING,0.000,0.800,0.000,-0.034
20:29:31.691,SEARCHING,22.723,-7.193,1.698,0.09,-0.07,-25.72,2.934,6.934,3.415,4.237,4.317,0,0,SEARCHING,0.000,0.800,-0.005,-0.034
20:29:31.892,SEARCHING,22.810,-7.235,1.698,0.09,-0.07,-25.95,2.934,6.730,3.365,4.237,4.317,0,0,SEARCHING,0.000,0.800,-0.005,-0.031
20:29:32.093,SEARCHING,22.896,-7.277,1.697,0.09,-0.07,-26.16,2.896,6.730,3.365,4.237,4.237,0,0,SEARCHING,0.000,0.800,0.000,-0.034
20:29:32.293,SEARCHING,22.982,-7.320,1.698,0.09,-0.07,-26.39,2.896,6.538,3.316,4.237,4.237,0,0,SEARCHING,0.000,0.800,0.000,-0.031
20:29:32.498,SEARCHING,23.068,-7.363,1.698,0.09,-0.07,-26.61,2.896,6.538,3.316,4.317,4.237,0,0,SEARCHING,0.000,0.800,0.005,-0.031
20:29:32.697,SEARCHING,23.154,-7.406,1.698,0.09,-0.07,-26.79,2.860,6.538,3.269,4.317,4.237,0,0,SEARCHING,0.000,0.800,0.005,-0.031
20:29:32.898,SEARCHING,23.240,-7.449,1.700,0.09,-0.07,-26.98,2.860,6.356,3.269,4.237,4.317,0,0,SEARCHING,0.000,0.800,-0.005,-0.031
20:29:33.099,SEARCHING,23.325,-7.493,1.699,0.09,-0.07,-27.16,2.896,6.184,3.223,4.237,4.317,0,0,SEARCHING,0.000,0.800,-0.005,-0.024
20:29:33.299,SEARCHING,23.410,-7.537,1.698,0.09,-0.07,-27.31,3.011,6.184,3.178,4.317,4.237,0,0,SEARCHING,0.000,0.800,0.005,-0.012
20:29:33.499,SEARCHING,23.496,-7.581,1.700,0.09,-0.07,-27.35,3.134,6.022,3.178,4.317,4.317,0,0,SEARCHING,0.000,0.800,0.000,-0.003
20:29:33.701,SEARCHING,23.581,-7.625,1.699,0.09,-0.07,-27.35,3.223,6.022,3.178,4.317,4.317,0,0,SEARCHING,0.000,0.800,0.000,0.003
20:29:33.901,SEARCHING,23.666,-7.669,1.698,0.09,-0.07,-27.35,3.316,6.022,3.134,4.237,4.237,0,0,SEARCHING,0.000,0.800,0.000,0.012
20:29:34.101,SEARCHING,23.752,-7.713,1.699,0.09,-0.07,-27.27,3.269,5.867,3.134,4.317,4.237,0,0,SEARCHING,0.000,0.800,0.005,0.009
20:29:34.301,SEARCHING,23.837,-7.757,1.700,0.09,-0.07,-27.20,3.316,5.867,3.051,4.317,4.237,0,0,SEARCHING,0.000,0.800,0.005,0.018
20:29:34.502,SEARCHING,23.922,-7.801,1.700,0.09,-0.07,-27.06,3.316,6.022,3.134,4.317,4.237,0,0,SEARCHING,0.000,0.800,0.005,0.012
20:29:34.704,SEARCHING,24.008,-7.845,1.700,0.09,-0.07,-26.95,3.520,5.867,3.051,4.237,4.237,0,0,SEARCHING,0.000,0.800,0.000,0.031
20:29:34.903,SEARCHING,24.093,-7.888,1.701,0.09,-0.07,-26.76,3.520,6.022,3.051,4.237,4.237,0,0,SEARCHING,0.000,0.800,0.000,0.031
20:29:35.104,SEARCHING,24.179,-7.931,1.702,0.09,-0.07,-26.53,3.632,5.867,3.051,4.317,4.237,0,0,SEARCHING,0.000,0.800,0.005,0.037
20:29:35.305,SEARCHING,24.265,-7.974,1.703,0.09,-0.07,-26.27,3.751,6.022,3.051,4.237,4.237,0,0,SEARCHING,0.000,0.800,0.000,0.043
20:29:35.505,SEARCHING,24.351,-8.016,1.703,0.09,-0.07,-25.97,3.751,6.022,2.972,4.237,4.237,0,0,SEARCHING,0.000,0.800,0.000,0.049
20:29:35.706,SEARCHING,24.438,-8.058,1.703,0.09,-0.07,-25.66,3.751,6.022,2.972,4.317,4.237,0,0,SEARCHING,0.000,0.800,0.005,0.049
20:29:35.905,SEARCHING,24.524,-8.099,1.704,0.09,-0.07,-25.34,3.751,6.022,2.972,4.237,4.237,0,0,SEARCHING,0.000,0.800,0.000,0.049
20:29:36.107,SEARCHING,24.611,-8.140,1.704,0.09,-0.07,-25.01,3.691,6.022,2.972,4.237,4.317,0,0,SEARCHING,0.000,0.800,-0.005,0.046
20:29:36.307,SEARCHING,24.698,-8.180,1.703,0.09,-0.07,-24.70,3.691,5.867,2.972,4.237,4.237,0,0,SEARCHING,0.000,0.800,0.000,0.046
20:29:36.509,SEARCHING,24.786,-8.220,1.704,0.09,-0.07,-24.38,3.632,5.867,3.011,4.237,4.317,0,0,SEARCHING,0.000,0.800,-0.005,0.040
20:29:36.708,SEARCHING,24.873,-8.260,1.704,0.09,-0.07,-24.09,3.632,5.867,2.972,4.237,4.317,0,0,SEARCHING,0.000,0.800,-0.005,0.043
20:29:36.909,SEARCHING,24.961,-8.299,1.703,0.09,-0.07,-23.79,3.575,5.720,3.011,4.317,4.317,0,0,SEARCHING,0.000,0.800,0.000,0.037
20:29:37.109,SEARCHING,25.049,-8.337,1.703,0.09,-0.07,-23.55,3.575,5.581,2.934,4.317,4.317,0,0,SEARCHING,0.000,0.800,0.000,0.043
20:29:37.309,SEARCHING,25.137,-8.376,1.703,0.09,-0.07,-23.30,3.520,5.448,3.011,4.237,4.237,0,0,SEARCHING,0.000,0.800,0.000,0.034
20:29:37.510,SEARCHING,25.225,-8.413,1.703,0.09,-0.07,-23.07,3.520,5.321,3.011,4.237,4.237,0,0,SEARCHING,0.000,0.800,0.000,0.034
20:29:37.711,SEARCHING,25.314,-8.451,1.703,0.09,-0.07,-22.82,3.520,5.321,2.972,4.237,4.160,0,0,SEARCHING,0.000,0.800,0.005,0.037
20:29:37.912,SEARCHING,25.402,-8.488,1.703,0.09,-0.07,-22.56,3.467,5.200,2.972,4.237,4.237,0,0,SEARCHING,0.000,0.800,0.000,0.034
20:29:38.111,SEARCHING,25.491,-8.525,1.704,0.09,-0.07,-22.34,3.467,5.085,2.972,4.237,4.237,0,0,SEARCHING,0.000,0.800,0.000,0.034
20:29:38.312,SEARCHING,25.580,-8.561,1.703,0.09,-0.07,-22.11,3.467,4.974,2.972,4.237,4.237,0,0,SEARCHING,0.000,0.800,0.000,0.034
20:29:38.512,SEARCHING,25.669,-8.597,1.703,0.09,-0.07,-21.88,3.365,4.974,2.934,4.237,4.317,0,0,SEARCHING,0.000,0.800,-0.005,0.031
20:29:38.713,SEARCHING,25.758,-8.633,1.702,0.09,-0.07,-21.66,3.415,4.868,2.972,4.317,4.317,0,0,SEARCHING,0.000,0.800,0.000,0.031
20:29:38.914,SEARCHING,25.847,-8.668,1.702,0.09,-0.07,-21.46,3.415,4.767,2.972,4.317,4.317,0,0,SEARCHING,0.000,0.800,0.000,0.031
20:29:39.114,SEARCHING,25.937,-8.703,1.702,0.09,-0.07,-21.25,3.415,4.670,3.051,4.317,4.317,0,0,SEARCHING,0.000,0.800,0.000,0.024
20:29:39.316,SEARCHING,26.026,-8.738,1.702,0.09,-0.07,-21.06,3.415,4.487,3.011,4.400,4.317,0,0,SEARCHING,0.000,0.800,0.005,0.028
20:29:39.514,SEARCHING,26.116,-8.772,1.703,0.09,-0.07,-20.90,3.415,4.400,3.051,4.317,4.317,0,0,SEARCHING,0.000,0.800,0.000,0.024
20:29:39.715,SEARCHING,26.205,-8.806,1.703,0.09,-0.07,-20.76,3.365,4.400,3.134,4.317,4.317,0,0,SEARCHING,0.000,0.800,0.000,0.015
20:29:39.915,SEARCHING,26.295,-8.840,1.702,0.09,-0.07,-20.66,3.316,4.317,3.178,4.237,4.317,0,0,SEARCHING,0.000,0.800,-0.005,0.009
20:29:40.116,SEARCHING,26.385,-8.874,1.701,0.09,-0.07,-20.60,3.365,4.160,3.134,4.160,4.237,0,0,SEARCHING,0.000,0.800,-0.005,0.015
20:29:40.317,SEARCHING,26.475,-8.908,1.699,0.09,-0.07,-20.49,3.316,4.160,3.134,4.086,4.237,0,0,SEARCHING,0.000,0.800,-0.010,0.012
20:29:40.517,SEARCHING,26.565,-8.941,1.695,0.09,-0.07,-20.39,3.316,3.878,3.092,4.014,4.237,0,0,SEARCHING,0.000,0.800,-0.016,0.015
20:29:40.718,SEARCHING,26.655,-8.974,1.692,0.09,-0.07,-20.27,3.365,3.878,3.134,3.878,4.237,0,0,SEARCHING,0.000,0.800,-0.026,0.015
20:29:40.919,SEARCHING,26.745,-9.008,1.686,0.09,-0.07,-20.15,3.365,3.691,3.092,3.751,4.237,0,0,SEARCHING,0.000,0.800,-0.037,0.018
20:29:41.118,SEARCHING,26.835,-9.041,1.677,0.09,-0.07,-20.02,3.365,3.575,3.051,3.691,4.160,0,0,SEARCHING,0.000,0.800,-0.037,0.021
20:29:41.318,SEARCHING,26.925,-9.073,1.668,0.09,-0.07,-19.83,3.415,3.520,3.051,3.575,4.160,0,0,SEARCHING,0.000,0.800,-0.047,0.024
20:29:41.521,SEARCHING,27.016,-9.106,1.659,0.09,-0.07,-19.65,3.467,3.365,3.011,3.467,4.160,0,0,SEARCHING,0.000,0.800,-0.058,0.031
20:29:41.720,SEARCHING,27.106,-9.138,1.647,0.09,-0.07,-19.43,3.467,3.316,2.972,3.415,4.160,0,0,SEARCHING,0.000,0.800,-0.063,0.034
20:29:41.921,SEARCHING,27.197,-9.170,1.635,0.09,-0.07,-19.20,3.520,3.223,2.972,3.365,4.160,0,0,SEARCHING,0.000,0.800,-0.068,0.037
20:29:42.120,SEARCHING,27.287,-9.201,1.621,0.09,-0.07,-18.95,3.575,3.092,2.972,3.223,4.086,0,0,SEARCHING,0.000,0.800,-0.079,0.040
20:29:42.320,SEARCHING,27.378,-9.232,1.605,0.09,-0.07,-18.67,3.520,3.011,3.011,3.092,4.086,0,0,SEARCHING,0.000,0.800,-0.094,0.034
20:29:42.522,SEARCHING,27.469,-9.263,1.586,0.09,-0.07,-18.44,3.467,2.934,2.934,3.011,3.945,0,0,SEARCHING,0.000,0.800,-0.094,0.037
20:29:43.595,SEARCHING,27.560,-9.293,1.566,0.09,-0.07,-18.20,3.467,2.825,2.972,2.896,3.945,0,0,SEARCHING,0.000,0.800,-0.110,0.034
20:29:43.633,SEARCHING,27.606,-9.308,1.544,0.09,-0.07,-18.08,3.467,2.825,2.972,2.896,3.945,0,0,SEARCHING,0.000,0.800,-0.110,0.034
20:29:43.808,SEARCHING,27.697,-9.338,1.519,0.09,-0.07,-17.85,3.467,2.692,3.011,2.724,3.691,0,0,SEARCHING,0.000,0.800,-0.115,0.031
20:29:43.999,SEARCHING,27.789,-9.367,1.495,0.09,-0.07,-17.65,3.415,2.661,3.011,2.630,3.751,0,0,SEARCHING,0.000,0.800,-0.136,0.028
20:29:44.198,SEARCHING,27.880,-9.396,1.468,0.09,-0.07,-17.45,3.365,2.600,2.972,2.542,3.691,0,0,SEARCHING,0.000,0.800,-0.147,0.028
20:29:44.398,SEARCHING,27.972,-9.424,1.437,0.09,-0.07,-17.25,3.316,2.514,2.972,2.434,3.575,0,0,SEARCHING,0.000,0.800,-0.157,0.024
20:29:44.599,SEARCHING,28.064,-9.453,1.403,0.09,-0.07,-17.06,3.269,2.434,2.972,2.311,3.467,0,0,SEARCHING,0.000,0.800,-0.173,0.021
20:29:44.799,SEARCHING,28.155,-9.481,1.368,0.09,-0.07,-16.93,3.178,2.335,2.934,2.266,3.316,0,0,SEARCHING,0.000,0.800,-0.168,0.018
20:29:45.000,SEARCHING,28.247,-9.509,1.335,0.09,-0.07,-16.80,3.092,2.266,3.011,2.243,3.269,0,0,SEARCHING,0.000,0.800,-0.168,0.006
20:29:45.200,SEARCHING,28.339,-9.537,1.300,0.09,-0.07,-16.77,2.972,2.159,2.972,2.138,3.223,0,0,SEARCHING,0.000,0.800,-0.189,0.000
20:29:45.401,SEARCHING,28.431,-9.564,1.262,0.09,-0.07,-16.78,2.934,2.061,2.896,2.043,3.178,0,0,SEARCHING,0.000,0.800,-0.210,0.003
20:29:45.601,SEARCHING,28.523,-9.592,1.221,0.09,-0.07,-16.79,2.825,2.080,2.972,1.956,3.051,0,0,SEARCHING,0.000,0.800,-0.220,-0.012
20:29:45.801,SEARCHING,28.615,-9.620,1.177,0.09,-0.07,-16.84,2.860,6.538,2.934,1.860,2.934,0,0,SEARCHING,0.000,0.800,-0.236,-0.006
20:29:46.003,SEARCHING,28.707,-9.648,1.128,0.09,-0.07,-16.91,2.825,6.538,2.934,1.760,2.724,0,0,SEARCHING,0.000,0.800,-0.241,-0.009
20:29:46.203,SEARCHING,28.799,-9.676,1.078,0.09,-0.07,-16.99,2.825,6.730,2.934,1.658,2.311,0,0,SEARCHING,0.000,0.800,-0.205,-0.009
20:29:46.404,SEARCHING,28.890,-9.704,1.030,0.09,-0.07,-17.07,2.790,6.730,3.011,1.578,2.542,0,0,SEARCHING,0.000,0.800,-0.288,-0.018
20:29:46.604,SEARCHING,28.982,-9.732,0.970,0.09,-0.07,-17.21,2.790,6.730,3.011,1.476,2.335,0,0,SEARCHING,0.000,0.800,-0.299,-0.018
20:29:46.805,SEARCHING,29.074,-9.760,0.911,0.09,-0.07,-17.35,2.790,6.730,3.178,1.496,2.200,0,0,SEARCHING,0.000,0.800,-0.257,-0.031
20:29:47.006,SEARCHING,29.165,-9.789,0.865,0.09,-0.07,-17.58,2.692,6.538,3.178,1.578,2.080,0,0,SEARCHING,0.000,0.800,-0.184,-0.040
20:29:47.206,SEARCHING,29.257,-9.818,0.898,0.09,-0.07,-17.82,2.757,6.730,3.134,1.536,2.159,0,0,SEARCHING,0.000,0.800,-0.226,-0.031
20:29:47.407,SEARCHING,29.348,-9.848,0.914,0.09,-0.07,-18.02,2.790,6.730,3.092,1.496,2.222,0,0,SEARCHING,0.000,0.800,-0.262,-0.024
20:29:47.607,SEARCHING,29.440,-9.878,0.924,0.09,-0.07,-18.20,2.757,6.730,3.092,6.184,2.266,0,0,SEARCHING,0.000,0.800,0.336,-0.028
20:29:47.808,SEARCHING,29.531,-9.908,0.991,0.09,-0.07,-18.35,2.724,6.538,3.051,1.293,2.434,0,0,SEARCHING,0.000,0.800,-0.435,-0.028
20:29:48.009,SEARCHING,29.622,-9.938,0.979,0.09,-0.07,-18.51,2.757,6.730,2.972,5.200,2.384,0,0,SEARCHING,0.000,0.800,0.273,-0.018
20:29:48.210,SEARCHING,29.713,-9.969,1.034,0.09,-0.07,-18.63,2.790,6.538,2.934,5.867,2.384,0,0,SEARCHING,0.000,0.800,0.299,-0.012
20:29:48.410,SEARCHING,29.804,-9.999,1.090,0.09,-0.07,-18.74,2.757,6.538,2.934,1.022,2.692,0,0,SEARCHING,0.000,0.800,-0.700,-0.015
20:29:48.610,SEARCHING,29.895,-10.030,1.048,0.09,-0.07,-18.86,2.724,6.356,2.934,5.867,2.571,0,0,SEARCHING,0.000,0.800,0.262,-0.018
20:29:48.810,SEARCHING,29.985,-10.061,1.102,0.09,-0.07,-18.98,2.724,6.356,2.896,5.720,2.600,0,0,SEARCHING,0.000,0.800,0.252,-0.015
20:29:49.010,SEARCHING,30.076,-10.093,1.150,0.09,-0.07,-19.10,2.692,6.184,2.934,5.581,2.860,0,0,SEARCHING,0.000,0.800,0.205,-0.021
20:29:49.211,SEARCHING,30.167,-10.124,1.191,0.09,-0.07,-19.25,2.630,6.022,2.896,5.581,2.972,0,0,SEARCHING,0.000,0.800,0.189,-0.024
20:29:49.413,SEARCHING,30.257,-10.156,1.228,0.09,-0.07,-19.42,2.692,6.022,2.896,5.321,3.051,0,0,SEARCHING,0.000,0.800,0.168,-0.018
20:29:49.612,SEARCHING,30.348,-10.188,1.260,0.09,-0.07,-19.53,2.692,6.022,2.860,5.321,3.092,0,0,SEARCHING,0.000,0.800,0.163,-0.015
20:29:49.813,SEARCHING,30.438,-10.220,1.292,0.09,-0.07,-19.63,2.692,5.867,2.896,5.200,3.178,0,0,SEARCHING,0.000,0.800,0.147,-0.018
20:29:50.013,SEARCHING,30.529,-10.252,1.321,0.09,-0.07,-19.74,2.724,5.720,2.896,5.085,3.269,0,0,SEARCHING,0.000,0.800,0.131,-0.015
20:29:50.214,SEARCHING,30.619,-10.285,1.347,0.09,-0.07,-19.86,2.692,5.720,2.896,5.085,3.316,0,0,SEARCHING,0.000,0.800,0.126,-0.018
20:29:50.415,SEARCHING,30.709,-10.318,1.372,0.09,-0.07,-19.98,2.724,5.581,2.896,5.085,3.415,0,0,SEARCHING,0.000,0.800,0.115,-0.015
20:29:50.614,SEARCHING,30.800,-10.351,1.395,0.09,-0.07,-20.08,2.661,5.448,2.860,4.974,3.415,0,0,SEARCHING,0.000,0.800,0.110,-0.018
20:29:50.816,SEARCHING,30.890,-10.384,1.417,0.09,-0.07,-20.21,2.692,5.321,2.860,4.974,3.520,0,0,SEARCHING,0.000,0.800,0.100,-0.015
20:29:51.016,SEARCHING,30.980,-10.417,1.436,0.09,-0.07,-20.27,2.724,5.321,2.790,4.974,3.575,0,0,SEARCHING,0.000,0.800,0.094,-0.006
20:29:51.216,SEARCHING,31.070,-10.450,1.454,0.09,-0.07,-20.31,2.724,5.200,2.825,4.868,3.691,0,0,SEARCHING,0.000,0.800,0.079,-0.009
20:29:51.417,SEARCHING,31.160,-10.483,1.470,0.09,-0.07,-20.38,2.757,5.085,2.825,4.868,3.691,0,0,SEARCHING,0.000,0.800,0.079,-0.006
20:29:51.617,SEARCHING,31.250,-10.517,1.485,0.09,-0.07,-20.43,2.724,5.085,2.790,4.670,3.691,0,0,SEARCHING,0.000,0.800,0.068,-0.006
20:29:51.817,SEARCHING,31.340,-10.550,1.499,0.09,-0.07,-20.46,2.724,4.974,2.790,4.767,3.751,0,0,SEARCHING,0.000,0.800,0.068,-0.006
20:29:52.019,SEARCHING,31.430,-10.584,1.513,0.09,-0.07,-20.52,2.692,4.868,2.860,4.767,3.691,0,0,SEARCHING,0.000,0.800,0.073,-0.015
20:29:52.219,SEARCHING,31.520,-10.618,1.526,0.09,-0.07,-20.63,2.757,4.767,2.860,4.670,3.814,0,0,SEARCHING,0.000,0.800,0.058,-0.009
20:29:52.420,SEARCHING,31.609,-10.652,1.538,0.09,-0.07,-20.70,2.825,4.767,2.825,4.670,3.878,0,0,SEARCHING,0.000,0.800,0.052,0.000
20:29:52.621,SEARCHING,31.699,-10.686,1.548,0.09,-0.07,-20.74,2.896,4.670,2.757,4.670,3.878,0,0,SEARCHING,0.000,0.800,0.052,0.012
20:29:52.821,SEARCHING,31.789,-10.719,1.558,0.09,-0.07,-20.67,2.896,4.576,2.860,4.576,3.945,0,0,SEARCHING,0.000,0.800,0.042,0.003
20:29:53.022,SEARCHING,31.879,-10.753,1.567,0.09,-0.07,-20.66,2.896,4.487,2.860,4.487,3.878,0,0,SEARCHING,0.000,0.800,0.042,0.003
20:29:53.223,SEARCHING,31.969,-10.787,1.574,0.09,-0.07,-20.61,2.934,4.400,2.896,4.400,4.014,0,0,SEARCHING,0.000,0.800,0.026,0.003
20:29:53.422,SEARCHING,32.059,-10.821,1.580,0.09,-0.07,-20.59,2.934,4.317,2.825,4.317,3.945,0,0,SEARCHING,0.000,0.800,0.026,0.009
20:29:53.624,SEARCHING,32.148,-10.855,1.584,0.09,-0.07,-20.54,2.972,4.160,2.896,4.237,3.945,0,0,SEARCHING,0.000,0.800,0.021,0.006
20:29:53.824,SEARCHING,32.238,-10.888,1.588,0.09,-0.07,-20.51,2.934,4.160,2.896,4.086,3.945,0,0,SEARCHING,0.000,0.800,0.010,0.003
20:29:54.025,SEARCHING,32.328,-10.922,1.589,0.09,-0.07,-20.48,2.972,4.014,2.896,4.014,3.878,0,0,SEARCHING,0.000,0.800,0.010,0.006
20:29:54.225,SEARCHING,32.418,-10.956,1.591,0.09,-0.07,-20.44,2.934,3.945,2.825,3.878,3.878,0,0,SEARCHING,0.000,0.800,0.000,0.009
20:29:54.426,SEARCHING,32.508,-10.989,1.592,0.09,-0.07,-20.39,2.896,3.814,2.860,3.814,3.814,0,0,SEARCHING,0.000,0.800,0.000,0.003
20:29:54.626,SEARCHING,32.598,-11.022,1.592,0.09,-0.07,-20.35,2.934,3.751,2.860,3.751,3.751,0,0,SEARCHING,0.000,0.800,0.000,0.006
20:29:54.827,SEARCHING,32.688,-11.056,1.593,0.09,-0.07,-20.31,2.934,3.632,2.896,3.632,3.632,0,0,SEARCHING,0.000,0.800,0.000,0.003
20:29:55.027,SEARCHING,32.778,-11.089,1.593,0.09,-0.07,-20.28,2.934,3.575,2.860,3.520,3.520,0,0,SEARCHING,0.000,0.800,0.000,0.006
20:29:55.227,SEARCHING,32.868,-11.122,1.593,0.09,-0.07,-20.24,2.896,3.467,2.860,3.467,3.467,0,0,SEARCHING,0.000,0.800,0.000,0.003
20:29:55.427,SEARCHING,32.958,-11.156,1.593,0.09,-0.07,-20.20,2.934,3.415,2.790,3.415,3.415,0,0,SEARCHING,0.000,0.800,0.000,0.012
20:29:55.628,SEARCHING,33.048,-11.189,1.593,0.09,-0.07,-20.12,2.934,3.316,2.757,3.316,3.316,0,0,SEARCHING,0.000,0.800,0.000,0.015
20:29:55.829,SEARCHING,33.139,-11.222,1.593,0.09,-0.07,-20.00,2.896,3.223,2.661,3.223,3.223,0,0,SEARCHING,0.000,0.800,0.000,0.021
20:29:56.030,SEARCHING,33.229,-11.254,1.593,0.09,-0.07,-19.85,2.860,3.134,2.571,3.134,3.092,0,0,SEARCHING,0.000,0.800,0.005,0.028
20:29:56.230,SEARCHING,33.319,-11.287,1.593,0.09,-0.07,-19.66,2.790,3.051,2.571,3.051,3.011,0,0,SEARCHING,0.000,0.800,0.005,0.021
20:29:56.430,SEARCHING,33.410,-11.319,1.594,0.09,-0.07,-19.53,2.724,2.934,2.600,2.934,2.934,0,0,SEARCHING,0.000,0.800,0.000,0.012
20:29:56.631,SEARCHING,33.500,-11.351,1.594,0.09,-0.07,-19.45,2.630,2.860,2.514,2.860,2.860,0,0,SEARCHING,0.000,0.800,0.000,0.012
20:29:56.832,SEARCHING,33.591,-11.383,1.594,0.09,-0.07,-19.37,2.542,2.757,2.487,2.790,2.790,0,0,SEARCHING,0.000,0.800,0.000,0.006
20:29:57.032,SEARCHING,33.681,-11.415,1.594,0.09,-0.07,-19.33,2.460,2.692,2.434,2.692,2.692,0,0,SEARCHING,0.000,0.800,0.000,0.003
20:29:57.233,SEARCHING,33.772,-11.447,1.594,0.09,-0.07,-19.31,2.384,2.600,2.409,2.600,2.600,0,0,SEARCHING,0.000,0.800,0.000,-0.003
20:29:57.434,SEARCHING,33.862,-11.478,1.594,0.09,-0.07,-19.33,2.311,2.487,2.409,2.514,2.487,0,0,SEARCHING,0.000,0.800,0.005,-0.012
20:29:57.634,SEARCHING,33.953,-11.510,1.595,0.09,-0.07,-19.44,2.222,2.409,2.359,2.409,2.409,0,0,SEARCHING,0.000,0.800,0.000,-0.018
20:29:57.840,SEARCHING,34.044,-11.542,1.595,0.09,-0.07,-19.58,2.138,2.335,2.311,2.335,2.335,0,0,SEARCHING,0.000,0.800,0.000,-0.024
20:29:58.042,SEARCHING,34.134,-11.575,1.595,0.09,-0.07,-19.74,2.043,2.222,2.243,2.243,2.243,0,0,SEARCHING,0.000,0.800,0.000,-0.031
20:29:58.243,SEARCHING,34.224,-11.607,1.595,0.09,-0.07,-19.98,1.973,2.138,2.243,2.138,2.138,0,0,SEARCHING,0.000,0.800,0.000,-0.043
20:29:58.445,SEARCHING,34.314,-11.640,1.595,0.09,-0.07,-20.29,1.876,2.061,2.200,2.043,2.061,0,0,SEARCHING,0.000,0.800,-0.005,-0.055
20:29:58.645,SEARCHING,34.404,-11.674,1.595,0.09,-0.07,-20.66,1.802,1.973,2.099,1.973,1.973,0,0,SEARCHING,0.000,0.800,0.000,-0.055
20:29:58.846,SEARCHING,34.494,-11.708,1.595,0.09,-0.07,-21.04,1.720,1.876,2.080,1.876,1.876,0,0,SEARCHING,0.000,0.800,0.000,-0.070
20:29:59.045,SEARCHING,34.584,-11.743,1.595,0.09,-0.07,-21.53,1.634,1.788,1.990,1.788,1.788,0,0,SEARCHING,0.000,0.800,0.000,-0.076
20:29:59.245,SEARCHING,34.673,-11.778,1.595,0.09,-0.07,-22.07,1.546,1.708,1.907,1.708,1.708,0,0,SEARCHING,0.000,0.800,0.000,-0.086
20:29:59.446,SEARCHING,34.762,-11.815,1.595,0.09,-0.07,-22.66,1.457,1.611,1.802,1.611,1.611,0,0,SEARCHING,0.000,0.800,0.000,-0.092
20:29:59.642,SEARCHING,34.850,-11.852,1.595,0.09,-0.07,-23.31,1.378,1.536,1.720,1.536,1.536,0,0,SEARCHING,0.000,0.800,0.000,-0.101
20:29:59.841,SEARCHING,34.938,-11.890,1.595,0.09,-0.07,-24.01,1.300,1.439,1.623,1.439,1.439,0,0,SEARCHING,0.000,0.768,0.000,-0.107
20:30:00.043,SEARCHING,35.021,-11.928,1.595,0.09,-0.07,-24.78,1.217,1.362,1.546,1.362,1.362,0,0,SEARCHING,0.000,0.726,0.000,-0.122
20:30:00.242,SEARCHING,35.098,-11.964,1.595,0.09,-0.07,-25.66,1.144,1.285,1.467,1.285,1.285,0,0,SEARCHING,0.000,0.686,0.000,-0.135
20:30:00.443,SEARCHING,35.171,-12.000,1.595,0.09,-0.07,-26.61,1.074,1.211,1.404,1.217,1.211,0,0,SEARCHING,0.000,0.646,0.005,-0.153
20:30:00.643,SEARCHING,35.239,-12.035,1.595,0.09,-0.07,-27.67,1.012,1.150,1.323,1.150,1.150,0,0,SEARCHING,0.000,0.613,0.000,-0.162
20:30:00.843,SEARCHING,35.303,-12.069,1.595,0.09,-0.07,-28.83,0.949,1.090,1.271,1.084,1.084,0,0,SEARCHING,0.000,0.581,0.000,-0.187
20:30:01.044,SEARCHING,35.363,-12.103,1.596,0.09,-0.07,-30.14,0.894,1.026,1.211,1.026,1.026,0,0,SEARCHING,0.000,0.547,0.000,-0.205
20:30:01.245,SEARCHING,35.419,-12.136,1.596,0.09,-0.07,-31.57,0.844,0.978,1.167,0.978,0.978,0,0,SEARCHING,0.000,0.522,0.000,-0.229
20:30:01.445,SEARCHING,35.471,-12.169,1.596,0.09,-0.07,-33.17,0.795,0.934,1.116,0.934,0.934,0,0,SEARCHING,0.000,0.498,0.000,-0.254
20:30:01.646,SEARCHING,35.520,-12.202,1.596,0.09,-0.07,-34.97,0.753,0.887,1.084,0.887,0.887,0,0,SEARCHING,0.000,0.473,0.000,-0.285
20:30:01.847,SEARCHING,35.566,-12.234,1.596,0.09,-0.07,-36.99,0.708,0.847,1.050,0.847,0.851,0,0,SEARCHING,0.000,0.452,-0.005,-0.321
20:30:02.048,SEARCHING,35.608,-12.268,1.595,0.09,-0.07,-39.25,0.675,0.817,1.031,0.817,0.817,0,0,SEARCHING,0.000,0.436,0.000,-0.358
20:30:02.289,INSPECTING,35.648,-12.301,1.595,0.09,-0.07,-41.79,0.641,0.789,1.017,0.786,0.789,0,0,SEARCHING,0.000,0.000,-0.005,-0.404
20:30:02.448,INSPECTING,35.655,-12.308,1.595,0.09,-0.07,-45.45,0.641,0.806,1.026,0.806,0.803,0,0,RIGHT,1.026,0.120,0.000,-0.800
20:30:02.649,INSPECTING,35.664,-12.318,1.595,0.09,-0.07,-50.96,0.658,0.854,0.978,0.851,0.854,0,0,RIGHT,0.978,0.120,0.000,-0.800
20:30:02.849,INSPECTING,35.673,-12.330,1.595,0.09,-0.07,-56.46,0.679,0.915,0.938,0.919,0.915,0,0,RIGHT,0.938,0.120,0.000,-0.800
20:30:03.050,INSPECTING,35.681,-12.342,1.660,0.09,-0.07,-59.21,0.691,0.961,0.915,0.965,0.961,0,0,TOP,0.965,0.120,0.600,0.000
20:30:03.251,INSPECTING,35.688,-12.354,1.780,0.09,-0.07,-59.21,0.687,0.949,0.904,0.949,0.949,0,0,TOP,0.949,0.120,0.600,0.000
20:30:03.453,INSPECTING,35.695,-12.367,1.900,0.09,-0.07,-59.21,0.677,0.934,0.890,0.934,0.934,0,0,TOP,0.934,0.120,0.600,0.000
20:30:03.652,INSPECTING,35.703,-12.379,1.890,0.09,-0.07,-59.21,0.665,0.923,0.883,0.919,0.923,0,0,BOTTOM,0.923,0.120,-0.600,0.000
20:30:03.853,INSPECTING,35.710,-12.391,1.900,0.09,-0.07,-59.21,0.659,0.915,0.873,0.915,0.915,0,0,TOP,0.915,0.120,0.600,0.000
20:30:04.053,INSPECTING,35.718,-12.404,2.020,0.09,-0.07,-59.21,0.648,0.904,0.860,0.904,0.904,0,0,TOP,0.904,0.120,0.600,0.000
20:30:04.254,INSPECTING,35.725,-12.416,2.140,0.09,-0.07,-59.21,0.639,0.887,0.847,0.894,0.890,0,0,TOP,0.894,0.120,0.600,0.000
20:30:04.456,INSPECTING,35.732,-12.429,2.260,0.09,-0.07,-59.21,0.634,0.873,0.838,0.880,0.877,0,0,TOP,0.880,0.120,0.600,0.000
20:30:04.654,INSPECTING,35.740,-12.441,2.380,0.09,-0.07,-59.21,0.627,0.870,0.829,0.870,0.863,0,0,TOP,0.870,0.120,0.600,0.000
20:30:04.855,INSPECTING,35.747,-12.453,2.500,0.09,-0.07,-59.21,0.618,0.860,0.820,0.860,0.857,0,0,TOP,0.860,0.120,0.600,0.000
20:30:05.055,INSPECTING,35.754,-12.466,2.620,0.09,-0.07,-59.21,0.609,0.851,0.803,0.838,0.847,0,0,BOTTOM,0.847,0.120,-0.600,0.000
20:30:05.256,INSPECTING,35.762,-12.478,2.620,0.09,-0.07,-59.21,0.602,0.835,0.797,0.826,0.829,0,0,BOTTOM,0.829,0.120,-0.600,0.000
20:30:05.456,INSPECTING,35.769,-12.490,2.620,0.09,-0.07,-59.21,0.591,0.820,0.786,0.820,0.820,0,0,TOP,0.820,0.120,0.600,0.000
20:30:05.657,INSPECTING,35.777,-12.503,2.610,0.09,-0.07,-59.21,0.581,0.809,0.778,0.811,0.811,0,0,TOP,0.811,0.120,0.600,0.000
20:30:05.858,INSPECTING,35.784,-12.515,2.610,0.09,-0.07,-59.21,0.578,0.800,0.765,0.803,0.800,0,0,TOP,0.803,0.120,0.600,0.000
20:30:06.059,INSPECTING,35.791,-12.528,2.610,0.09,-0.07,-59.21,0.566,0.784,0.755,0.789,0.784,0,0,TOP,0.789,0.120,0.600,0.000
20:30:06.258,INSPECTING,35.799,-12.540,2.740,0.09,-0.07,-59.21,0.559,0.773,0.745,0.776,0.770,0,0,TOP,0.776,0.120,0.600,0.000
20:30:06.459,INSPECTING,35.806,-12.552,2.860,0.09,-0.07,-59.21,0.550,0.765,0.736,0.890,0.768,0,0,TOP,0.890,0.120,0.600,0.000
20:30:06.659,INSPECTING,35.813,-12.565,2.980,0.09,-0.07,-59.21,0.538,0.755,0.722,0.877,0.753,0,0,TOP,0.877,0.120,0.600,0.000
20:30:06.859,INSPECTING,35.821,-12.577,3.100,0.09,-0.07,-59.21,1.090,0.863,0.708,0.673,0.738,0,0,LEFT,1.090,0.120,0.000,0.800
20:30:07.060,INSPECTING,35.829,-12.589,3.095,0.09,-0.07,-53.71,1.186,0.897,0.720,0.687,0.665,0,0,LEFT,1.186,0.120,0.000,0.800
20:30:07.261,INSPECTING,35.838,-12.600,3.095,0.09,-0.07,-48.21,0.763,0.938,0.738,0.693,0.602,0,0,CENTER,0.797,0.120,0.000,0.000
20:30:07.462,INSPECTING,35.847,-12.611,3.095,0.09,-0.07,-45.45,1.421,0.978,0.745,0.687,0.566,0,0,LEFT,1.421,0.120,0.000,0.800
20:30:07.663,INSPECTING,35.858,-12.621,3.095,0.09,-0.07,-42.70,1.496,1.022,0.760,0.685,0.533,0,0,LEFT,1.496,0.120,0.000,0.800
20:30:07.866,INSPECTING,35.869,-12.630,3.095,0.09,-0.07,-37.20,1.476,1.069,0.784,0.681,0.507,0,0,LEFT,1.476,0.120,0.000,0.800
20:30:08.065,SEARCHING,35.880,-12.638,3.095,0.09,-0.07,-31.70,10.000,1.237,0.844,0.693,0.463,0,0,LEFT,10.000,0.120,0.000,0.800
20:30:08.266,SEARCHING,35.951,-12.679,3.205,0.09,-0.07,-28.20,0.986,1.217,0.863,0.422,0.588,0,0,SEARCHING,0.000,0.649,-0.700,0.101
20:30:08.465,SEARCHING,36.021,-12.716,3.205,0.09,-0.07,-25.25,1.064,1.211,0.860,0.412,0.564,0,0,SEARCHING,0.000,0.646,-0.700,0.156
20:30:08.666,SEARCHING,36.094,-12.749,3.205,0.09,-0.07,-22.15,1.004,0.999,0.873,0.392,1.907,0,0,SEARCHING,0.000,0.533,-0.700,0.104
20:30:08.867,SEARCHING,36.168,-12.778,3.205,0.09,-0.07,-19.28,0.942,1.012,0.901,0.390,10.000,0,0,SEARCHING,0.000,0.540,-0.700,0.034
20:30:09.068,SEARCHING,36.245,-12.803,3.054,0.09,-0.07,-16.70,10.000,10.000,0.926,0.803,0.269,0,0,SEARCHING,0.000,0.800,0.700,0.686
20:30:09.267,SEARCHING,36.337,-12.828,3.054,0.09,-0.07,-12.09,10.000,10.000,0.974,0.806,10.000,0,0,SEARCHING,0.000,0.800,-0.700,0.649
20:30:09.533,INSPECTING,36.312,-12.841,3.028,0.25,0.00,-4.09,0.637,0.648,0.307,0.887,10.000,0,0,BOTTOM,10.000,0.120,-0.600,0.000
20:30:09.669,INSPECTING,36.312,-12.841,3.030,0.25,0.52,-4.09,10.000,10.000,10.000,0.841,9.949,0,0,LEFT,10.000,0.120,0.000,0.800
20:30:09.869,INSPECTING,36.313,-12.841,3.025,-0.60,2.23,-3.87,10.000,10.000,10.000,0.854,10.000,0,0,BOTTOM,10.000,0.120,-0.600,0.000
20:30:10.070,INSPECTING,36.313,-12.840,3.030,-0.62,0.85,-4.09,0.400,0.400,0.400,0.854,0.400,0,0,TOP,0.854,0.120,0.600,0.000
20:30:10.272,SEARCHING,36.313,-12.841,3.022,-0.55,1.67,-3.84,10.000,10.000,10.000,0.857,10.000,0,0,BOTTOM,10.000,0.120,-0.600,0.000
20:30:10.559,INSPECTING,36.312,-12.841,2.993,-0.55,-0.10,-3.96,0.400,0.400,0.400,0.400,0.400,1,0,TOP,0.400,0.120,0.600,0.000
20:30:10.674,INSPECTING,36.315,-12.841,3.055,-0.54,0.08,-3.98,10.000,10.000,10.000,0.826,10.000,0,0,BOTTOM,10.000,0.120,-0.600,0.000
20:30:10.875,INSPECTING,36.317,-12.841,3.057,-0.56,-0.06,-3.85,10.000,10.000,10.000,0.823,10.000,0,0,BOTTOM,10.000,0.120,-0.600,0.000
20:30:11.130,INSPECTING,36.313,-12.841,3.020,-0.57,0.24,-3.99,10.000,0.245,0.245,0.883,10.000,0,0,BOTTOM,10.000,0.120,-0.600,0.000
20:30:11.343,INSPECTING,36.312,-12.841,2.980,-0.33,-0.02,-4.01,0.253,0.254,0.400,0.887,0.400,1,0,TOP,0.887,0.120,0.600,0.000
20:30:11.493,SEARCHING,36.312,-12.841,3.118,-0.33,-0.02,-4.01,10.000,10.000,10.000,0.632,7.381,0,0,LEFT,10.000,0.120,0.000,0.800
20:30:11.694,SEARCHING,36.392,-12.844,3.032,0.02,-10.90,-4.14,10.000,10.000,10.000,0.811,10.000,0,0,SEARCHING,0.000,0.800,-0.700,0.000
