timestamp,state,x,z,roll_deg,pitch_deg,yaw_deg,left,center,right,top,bottom,cmd_vx,cmd_vz,cmd_roll,cmd_yaw
2026-05-11 15:33:50.221356,SEARCHING,0.000,0.000,0.00,0.00,0.00,10.000,10.000,10.000,10.000,10.000,0.700,0.000,0.000,0.000
2026-05-11 15:33:51.502333,SEARCHING,0.042,1.000,0.00,0.00,0.00,10.000,10.000,10.000,10.000,10.000,0.700,0.000,0.000,0.000
2026-05-11 15:33:51.704989,SEARCHING,0.182,1.000,0.00,0.00,0.00,10.000,10.000,10.000,10.000,10.000,0.700,0.000,0.000,0.000
2026-05-11 15:33:51.931057,SEARCHING,0.322,1.000,0.00,0.00,0.00,10.000,10.000,10.000,10.000,10.000,0.700,0.000,0.000,0.000
2026-05-11 15:33:52.157328,SEARCHING,0.462,1.000,0.00,0.00,0.00,10.000,10.000,10.000,10.000,10.000,0.700,0.000,0.000,0.000
2026-05-11 15:33:52.376325,SEARCHING,0.602,1.000,0.00,0.00,0.00,10.000,10.000,10.000,10.000,10.000,0.700,0.000,0.000,0.000
2026-05-11 15:33:52.612649,SEARCHING,0.742,1.000,0.00,0.00,0.00,10.000,10.000,10.000,10.000,10.000,0.700,0.000,0.000,0.000
2026-05-11 15:33:52.843879,SEARCHING,0.882,1.000,0.00,0.00,0.00,10.000,10.000,10.000,10.000,10.000,0.700,0.000,0.000,0.000
2026-05-11 15:33:53.049557,SEARCHING,1.022,1.000,0.00,0.00,0.00,10.000,10.000,10.000,10.000,10.000,0.700,0.000,0.000,0.000
2026-05-11 15:33:53.306515,SEARCHING,1.162,1.000,0.00,0.00,0.00,10.000,10.000,10.000,10.000,10.000,0.700,0.000,0.000,0.000
2026-05-11 15:33:53.551524,SEARCHING,1.302,1.000,0.00,0.00,0.00,10.000,10.000,10.000,10.000,10.000,0.700,0.000,0.000,0.000
2026-05-11 15:33:53.776586,SEARCHING,1.442,1.000,0.00,0.00,0.00,10.000,10.000,10.000,10.000,10.000,0.700,0.000,0.000,0.000
2026-05-11 15:33:54.007801,SEARCHING,1.582,1.000,0.00,0.00,0.00,10.000,10.000,10.000,10.000,10.000,0.700,0.000,0.000,0.000
2026-05-11 15:33:54.207232,SEARCHING,1.722,1.000,0.00,0.00,0.00,10.000,10.000,10.000,10.000,10.000,0.700,0.000,0.000,0.000
2026-05-11 15:33:54.427362,SEARCHING,1.862,1.000,0.00,0.00,0.00,10.000,10.000,10.000,10.000,10.000,0.700,0.000,0.000,0.000
2026-05-11 15:33:54.659762,SEARCHING,2.002,1.000,0.00,0.00,0.00,10.000,10.000,10.000,10.000,10.000,0.700,0.000,0.000,0.000
2026-05-11 15:33:54.887220,SEARCHING,2.142,1.000,0.00,0.00,0.00,10.000,10.000,10.000,10.000,10.000,0.700,0.000,0.000,0.000
2026-05-11 15:33:55.109619,SEARCHING,2.282,1.000,0.00,0.00,0.00,10.000,10.000,10.000,10.000,10.000,0.700,0.000,0.000,0.000
2026-05-11 15:33:55.308644,SEARCHING,2.422,1.000,0.00,0.00,0.00,10.000,10.000,10.000,10.000,10.000,0.700,0.000,0.000,0.000
2026-05-11 15:33:55.516297,SEARCHING,2.562,1.000,0.00,0.00,0.00,10.000,10.000,10.000,10.000,10.000,0.700,0.000,0.000,0.000
2026-05-11 15:33:55.747873,SEARCHING,2.702,1.000,0.00,0.00,0.00,10.000,10.000,10.000,10.000,10.000,0.700,0.000,0.000,0.000
2026-05-11 15:33:55.974745,SEARCHING,2.842,1.000,0.00,0.00,0.00,10.000,10.000,10.000,10.000,10.000,0.700,0.000,0.000,0.000
2026-05-11 15:33:56.200125,SEARCHING,2.982,1.000,0.00,0.00,0.00,10.000,10.000,10.000,10.000,10.000,0.700,0.000,0.000,0.000
2026-05-11 15:33:56.414675,SEARCHING,3.122,1.000,0.00,0.00,0.00,10.000,10.000,10.000,10.000,10.000,0.700,0.000,0.000,0.000
2026-05-11 15:33:56.632219,SEARCHING,3.262,1.000,0.00,0.00,0.00,10.000,10.000,10.000,10.000,10.000,0.700,0.000,0.000,0.000
2026-05-11 15:33:56.863335,SEARCHING,3.402,1.000,0.00,0.00,0.00,10.000,10.000,10.000,10.000,10.000,0.700,0.000,0.000,0.000
2026-05-11 15:33:57.076274,SEARCHING,3.542,1.000,0.00,0.00,0.00,10.000,10.000,10.000,10.000,10.000,0.700,0.000,0.000,0.000
2026-05-11 15:33:57.275850,SEARCHING,3.682,1.000,0.00,0.00,0.00,10.000,10.000,10.000,10.000,10.000,0.700,0.000,0.000,0.000
2026-05-11 15:33:57.491045,SEARCHING,3.822,1.000,0.00,0.00,0.00,10.000,10.000,10.000,10.000,10.000,0.700,0.000,0.000,0.000
2026-05-11 15:33:57.715443,SEARCHING,3.962,1.000,0.00,0.00,0.00,10.000,10.000,10.000,10.000,10.000,0.700,0.000,0.000,0.000
2026-05-11 15:33:57.941327,SEARCHING,4.102,1.000,0.00,0.00,0.00,10.000,10.000,10.000,10.000,10.000,0.700,0.000,0.000,0.000
2026-05-11 15:33:58.171624,SEARCHING,4.242,1.000,0.00,0.00,0.00,10.000,10.000,10.000,10.000,10.000,0.700,0.000,0.000,0.000
2026-05-11 15:33:58.361693,SEARCHING,4.382,1.000,0.00,0.00,0.00,10.000,10.000,10.000,10.000,10.000,0.700,0.000,0.000,0.000
2026-05-11 15:33:58.583670,SEARCHING,4.522,1.000,0.00,0.00,0.00,10.000,10.000,10.000,10.000,10.000,0.700,0.000,0.000,0.000
2026-05-11 15:33:58.805314,SEARCHING,4.662,1.000,0.00,0.00,0.00,10.000,10.000,10.000,10.000,10.000,0.700,0.000,0.000,0.000
2026-05-11 15:33:59.012848,SEARCHING,4.802,1.000,0.00,0.00,0.00,10.000,10.000,10.000,10.000,10.000,0.700,0.000,0.000,0.000
2026-05-11 15:33:59.232322,SEARCHING,4.942,1.000,0.00,0.00,0.00,10.000,10.000,10.000,10.000,10.000,0.700,0.000,0.000,0.000
2026-05-11 15:33:59.464338,SEARCHING,5.082,1.000,0.00,0.00,0.00,10.000,10.000,10.000,10.000,10.000,0.700,0.000,0.000,0.000
2026-05-11 15:33:59.688204,SEARCHING,5.222,1.000,0.00,0.00,0.00,10.000,10.000,10.000,10.000,10.000,0.700,0.000,0.000,0.000
2026-05-11 15:33:59.883543,SEARCHING,5.362,1.000,0.00,0.00,0.00,10.000,10.000,10.000,10.000,10.000,0.700,0.000,0.000,0.000
2026-05-11 15:34:00.105903,SEARCHING,5.502,1.000,0.00,0.00,0.00,10.000,10.000,10.000,10.000,10.000,0.700,0.000,0.000,0.000
2026-05-11 15:34:00.325381,SEARCHING,5.642,1.000,0.00,0.00,0.00,10.000,10.000,10.000,10.000,10.000,0.700,0.000,0.000,0.000
2026-05-11 15:34:00.555488,SEARCHING,5.782,1.000,0.00,0.00,0.00,10.000,10.000,10.000,10.000,10.000,0.700,0.000,0.000,0.000
2026-05-11 15:34:00.775243,SEARCHING,5.922,1.000,0.00,0.00,0.00,10.000,10.000,10.000,10.000,10.000,0.700,0.000,0.000,0.000
2026-05-11 15:34:00.978740,SEARCHING,6.062,1.000,0.00,0.00,0.00,10.000,10.000,10.000,10.000,10.000,0.700,0.000,0.000,0.000
2026-05-11 15:34:01.188643,SEARCHING,6.202,1.000,0.00,0.00,0.00,10.000,10.000,10.000,10.000,10.000,0.700,0.000,0.000,0.000
2026-05-11 15:34:01.409089,SEARCHING,6.342,1.000,0.00,0.00,0.00,10.000,10.000,10.000,10.000,10.000,0.700,0.000,0.000,0.000
2026-05-11 15:34:01.634264,SEARCHING,6.482,1.000,0.00,0.00,0.00,10.000,10.000,10.000,10.000,10.000,0.700,0.000,0.000,0.000
2026-05-11 15:34:01.870983,SEARCHING,6.622,1.000,0.00,0.00,0.00,10.000,10.000,10.000,10.000,10.000,0.700,0.000,0.000,0.000
2026-05-11 15:34:02.071402,SEARCHING,6.762,1.000,0.00,0.00,0.00,10.000,10.000,10.000,10.000,10.000,0.700,0.000,0.000,0.000
2026-05-11 15:34:02.302486,SEARCHING,6.902,1.000,0.00,0.00,0.00,10.000,10.000,10.000,10.000,10.000,0.700,0.000,0.000,0.000
2026-05-11 15:34:02.501635,SEARCHING,7.042,1.000,0.00,0.00,0.00,10.000,10.000,10.000,10.000,10.000,0.700,0.000,0.000,0.000
2026-05-11 15:34:02.728910,SEARCHING,7.182,1.000,0.00,0.00,0.00,10.000,10.000,10.000,10.000,10.000,0.700,0.000,0.000,0.000
2026-05-11 15:34:02.946518,SEARCHING,7.322,1.000,0.00,0.00,0.00,10.000,10.000,10.000,10.000,10.000,0.700,0.000,0.000,0.000
2026-05-11 15:34:03.191925,SEARCHING,7.462,1.000,0.00,0.00,0.00,10.000,10.000,10.000,10.000,10.000,0.700,0.000,0.000,0.000
2026-05-11 15:34:03.402788,SEARCHING,7.602,1.000,0.00,0.00,0.00,10.000,10.000,10.000,10.000,10.000,0.700,0.000,0.000,0.000
2026-05-11 15:34:03.631770,SEARCHING,7.742,1.000,0.00,0.00,0.00,10.000,10.000,10.000,10.000,10.000,0.700,0.000,0.000,0.000
2026-05-11 15:34:03.827246,SEARCHING,7.882,1.000,0.00,0.00,0.00,10.000,10.000,10.000,10.000,10.000,0.700,0.000,0.000,0.000
2026-05-11 15:34:04.040414,SEARCHING,8.022,1.000,0.00,0.00,0.00,10.000,10.000,10.000,10.000,10.000,0.700,0.000,0.000,0.000
2026-05-11 15:34:04.281420,SEARCHING,8.162,1.000,0.00,0.00,0.00,10.000,10.000,10.000,10.000,10.000,0.700,0.000,0.000,0.000
2026-05-11 15:34:04.461600,SEARCHING,8.302,1.000,0.00,0.00,0.00,10.000,10.000,10.000,10.000,10.000,0.700,0.000,0.000,0.000
2026-05-11 15:34:04.678487,SEARCHING,8.442,1.000,0.00,0.00,0.00,10.000,10.000,10.000,10.000,10.000,0.700,0.000,0.000,0.000
2026-05-11 15:34:04.879411,SEARCHING,8.582,1.000,0.00,0.00,0.00,10.000,10.000,10.000,10.000,10.000,0.700,0.000,0.000,0.000
2026-05-11 15:34:05.103875,SEARCHING,8.722,1.000,0.00,0.00,0.00,10.000,10.000,10.000,10.000,10.000,0.700,0.000,0.000,0.000
2026-05-11 15:34:05.319714,SEARCHING,8.862,1.000,0.00,0.00,0.00,10.000,10.000,10.000,10.000,10.000,0.700,0.000,0.000,0.000
2026-05-11 15:34:05.525866,SEARCHING,9.002,1.000,0.00,0.00,0.00,10.000,10.000,10.000,10.000,10.000,0.700,0.000,0.000,0.000
2026-05-11 15:34:05.758122,SEARCHING,9.142,1.000,0.00,0.00,0.00,10.000,10.000,10.000,10.000,10.000,0.700,0.000,0.000,0.000
2026-05-11 15:34:05.975052,SEARCHING,9.282,1.000,0.00,0.00,0.00,10.000,10.000,10.000,10.000,10.000,0.700,0.000,0.000,0.000
2026-05-11 15:34:06.207010,SEARCHING,9.422,1.000,0.00,0.00,0.00,10.000,10.000,10.000,10.000,10.000,0.700,0.000,0.000,0.000
2026-05-11 15:34:06.392082,SEARCHING,9.562,1.000,0.00,0.00,0.00,10.000,10.000,10.000,10.000,10.000,0.700,0.000,0.000,0.000
2026-05-11 15:34:06.615444,SEARCHING,9.702,1.000,0.00,0.00,0.00,10.000,10.000,10.000,10.000,10.000,0.700,0.000,0.000,0.000
2026-05-11 15:34:06.822170,SEARCHING,9.842,1.000,0.00,0.00,0.00,10.000,10.000,10.000,10.000,10.000,0.700,0.000,0.000,0.000
2026-05-11 15:34:07.049020,SEARCHING,9.982,1.000,0.00,0.00,0.00,10.000,10.000,10.000,10.000,10.000,0.700,0.000,0.000,0.000
2026-05-11 15:34:07.263925,SEARCHING,10.122,1.000,0.00,0.00,0.00,10.000,10.000,10.000,10.000,10.000,0.700,0.000,0.000,0.000
2026-05-11 15:34:07.490364,SEARCHING,10.262,1.000,0.00,0.00,0.00,10.000,10.000,10.000,10.000,10.000,0.700,0.000,0.000,0.000
2026-05-11 15:34:07.700120,SEARCHING,10.402,1.000,0.00,0.00,0.00,10.000,10.000,10.000,10.000,10.000,0.700,0.000,0.000,0.000
2026-05-11 15:34:07.982475,SEARCHING,10.478,1.000,0.04,-0.06,-12.89,10.000,10.000,10.000,10.000,10.000,0.350,0.550,0.552,0.850
2026-05-11 15:34:08.141203,INSPECTING,10.501,1.000,0.06,-0.04,-26.74,10.000,10.000,10.000,10.000,10.000,-0.150,-0.450,-0.600,-0.800
2026-05-11 15:34:08.339374,SEARCHING,10.506,1.000,0.08,-0.05,-37.87,10.000,10.000,10.000,10.000,10.000,0.700,0.000,0.000,0.000
2026-05-11 15:34:08.552251,SEARCHING,10.514,1.000,0.11,-0.04,-49.60,10.000,10.000,10.000,10.000,10.000,0.700,0.000,0.000,0.000
2026-05-11 15:34:08.858695,SEARCHING,10.551,1.000,0.19,-0.01,-62.32,10.000,10.000,10.000,10.000,10.000,0.350,0.550,0.552,0.850
2026-05-11 15:34:08.962560,INSPECTING,10.552,1.000,0.22,0.00,-65.03,10.000,10.000,10.000,10.000,10.000,-0.150,-0.450,-0.600,-0.800
2026-05-11 15:34:09.187605,SEARCHING,10.543,1.000,0.26,0.00,-72.40,10.000,10.000,10.000,10.000,10.000,0.700,0.000,0.000,0.000
2026-05-11 15:34:09.485222,SEARCHING,10.536,1.000,0.36,-0.00,-69.21,10.000,10.000,10.000,10.000,10.000,0.350,0.550,0.552,0.850
2026-05-11 15:34:09.603409,INSPECTING,10.525,1.000,0.42,-0.00,-67.37,10.000,10.000,10.000,10.000,10.000,-0.150,-0.450,-0.600,-0.800
2026-05-11 15:34:09.820689,SEARCHING,10.517,1.000,0.46,0.00,-73.94,10.000,10.000,10.000,10.000,10.000,0.700,0.000,0.000,0.000
2026-05-11 15:34:10.104185,SEARCHING,10.506,1.000,0.58,-0.00,-67.81,10.000,10.000,10.000,10.000,10.000,0.350,0.550,0.552,0.850
2026-05-11 15:34:10.246178,INSPECTING,10.499,1.000,0.66,0.00,-66.63,10.000,10.000,10.000,10.000,10.000,-0.150,-0.450,-0.600,-0.800
2026-05-11 15:34:10.449670,SEARCHING,10.490,1.000,0.69,0.00,-73.83,10.000,10.000,10.000,10.000,10.000,0.700,0.000,0.000,0.000
2026-05-11 15:34:10.739030,SEARCHING,10.480,1.000,0.82,-0.01,-67.80,10.000,10.000,10.000,10.000,10.000,0.350,0.550,0.552,0.850
2026-05-11 15:34:10.877793,INSPECTING,10.472,0.999,0.92,0.01,-66.63,10.000,10.000,10.000,10.000,10.000,-0.150,-0.450,-0.600,-0.800
2026-05-11 15:34:11.077097,SEARCHING,10.464,0.999,0.95,0.01,-73.83,10.000,10.000,10.000,10.000,10.000,0.700,0.000,0.000,0.000
2026-05-11 15:34:11.371869,SEARCHING,10.453,0.999,1.08,-0.01,-67.80,10.000,10.000,10.000,10.000,10.000,0.350,0.550,0.552,0.850
2026-05-11 15:34:11.523406,INSPECTING,10.446,0.999,1.18,0.01,-66.63,10.000,10.000,10.000,10.000,10.000,-0.150,-0.450,-0.600,-0.800
2026-05-11 15:34:11.714548,SEARCHING,10.438,0.999,1.21,0.01,-73.83,10.000,10.000,10.000,10.000,10.000,0.700,0.000,0.000,0.000
2026-05-11 15:34:12.032735,SEARCHING,10.428,0.999,1.24,0.01,-69.36,10.000,10.000,10.000,10.000,10.000,0.350,0.550,0.552,0.850
2026-05-11 15:34:12.565262,SEARCHING,10.414,0.999,1.36,-0.00,-65.50,10.000,10.000,10.000,10.000,10.000,0.700,0.000,0.000,0.000
2026-05-11 15:34:13.322442,INSPECTING,10.412,0.999,1.54,-0.01,-65.07,10.000,10.000,10.000,10.000,10.000,-0.150,-0.450,-0.600,-0.800
2026-05-11 15:34:13.442033,SEARCHING,10.400,0.999,1.55,0.01,-83.89,10.000,10.000,10.000,10.000,10.000,0.700,0.000,0.000,0.000
2026-05-11 15:34:13.757296,SEARCHING,10.384,0.999,1.82,0.21,-75.38,10.000,10.000,10.000,10.000,10.000,0.350,0.550,0.552,0.850
2026-05-11 15:34:13.846952,INSPECTING,10.376,0.999,1.87,0.28,-77.59,10.000,10.000,10.000,10.000,10.000,-0.150,-0.450,-0.600,-0.800
2026-05-11 15:34:14.058195,SEARCHING,10.366,0.999,1.94,0.23,-77.79,10.000,10.000,10.000,10.000,10.000,0.700,0.000,0.000,0.000
2026-05-11 15:34:14.378875,SEARCHING,10.350,0.998,2.06,0.25,-75.62,10.000,10.000,10.000,10.000,10.000,0.350,0.550,0.552,0.850
2026-05-11 15:34:14.474744,INSPECTING,10.342,0.998,1.98,-0.19,-77.84,10.000,10.000,10.000,10.000,10.000,-0.150,-0.450,-0.600,-0.800
2026-05-11 15:34:14.696186,SEARCHING,10.330,0.997,1.97,-0.34,-80.36,10.000,10.000,10.000,10.000,10.000,0.700,0.000,0.000,0.000
2026-05-11 15:34:14.952896,SEARCHING,10.311,0.997,2.36,-0.01,-68.55,10.000,10.000,10.000,10.000,10.000,0.350,0.550,0.552,0.850
2026-05-11 15:34:15.102611,INSPECTING,10.302,0.998,2.21,0.23,-66.83,10.000,10.000,10.000,10.000,10.000,-0.150,-0.450,-0.600,-0.800
2026-05-11 15:34:15.289474,SEARCHING,10.293,0.998,2.22,0.02,-73.86,10.000,10.000,10.000,10.000,10.000,0.700,0.000,0.000,0.000
2026-05-11 15:34:15.554751,SEARCHING,10.283,0.997,2.39,-0.03,-67.80,10.000,10.000,10.000,10.000,10.000,0.350,0.550,0.552,0.850
2026-05-11 15:34:15.801967,SEARCHING,10.276,0.997,2.50,0.03,-67.38,10.000,10.000,10.000,10.000,10.000,0.350,0.550,0.552,0.850
2026-05-11 15:34:15.906908,INSPECTING,10.264,0.997,2.61,-0.01,-65.41,10.000,10.000,10.000,10.000,10.000,-0.150,-0.450,-0.600,-0.800
2026-05-11 15:34:16.119478,SEARCHING,10.255,0.997,2.63,-0.03,-72.44,10.000,10.000,10.000,10.000,10.000,0.700,0.000,0.000,0.000
2026-05-11 15:34:16.416168,SEARCHING,10.247,0.998,2.74,0.73,-69.10,10.000,10.000,10.000,10.000,10.000,0.350,0.550,0.552,0.850
2026-05-11 15:34:16.537059,INSPECTING,10.237,0.997,2.79,0.07,-67.34,10.000,10.000,10.000,10.000,10.000,-0.150,-0.450,-0.600,-0.800
2026-05-11 15:34:16.748283,SEARCHING,10.228,0.996,2.81,0.04,-73.93,10.000,10.000,10.000,10.000,10.000,0.700,0.000,0.000,0.000
2026-05-11 15:34:17.042713,SEARCHING,10.218,0.996,2.81,0.04,-69.36,10.000,10.000,10.000,10.000,10.000,0.350,0.550,0.552,0.850
2026-05-11 15:34:17.150838,INSPECTING,10.208,0.996,2.97,-0.03,-65.19,10.000,10.000,10.000,10.000,10.000,-0.150,-0.450,-0.600,-0.800
2026-05-11 15:34:17.373795,SEARCHING,10.199,0.996,2.99,-0.03,-72.42,10.000,10.000,10.000,10.000,10.000,0.700,0.000,0.000,0.000
2026-05-11 15:34:17.667391,SEARCHING,10.193,0.996,2.97,0.03,-69.24,10.000,10.000,10.000,10.000,10.000,0.350,0.550,0.552,0.850
2026-05-11 15:34:17.775984,INSPECTING,10.185,0.995,2.92,-0.31,-71.07,10.000,10.000,10.000,10.000,10.000,-0.150,-0.450,-0.600,-0.800
2026-05-11 15:34:18.004338,SEARCHING,10.174,0.995,2.90,-0.55,-71.25,10.000,10.000,10.000,10.000,10.000,0.700,0.000,0.000,0.000
2026-05-11 15:34:18.273566,SEARCHING,10.162,0.996,3.20,0.21,-72.34,10.000,10.000,10.000,10.000,10.000,0.350,0.550,0.552,0.850
2026-05-11 15:34:18.396440,INSPECTING,10.151,0.995,3.39,0.09,-67.51,10.000,10.000,10.000,10.000,10.000,-0.150,-0.450,-0.600,-0.800
2026-05-11 15:34:18.591865,SEARCHING,10.142,0.995,3.41,0.05,-73.95,10.000,10.000,10.000,10.000,10.000,0.700,0.000,0.000,0.000
2026-05-11 15:34:18.861821,SEARCHING,10.133,0.995,3.60,-0.04,-67.83,10.000,10.000,10.000,10.000,10.000,0.350,0.550,0.552,0.850
2026-05-11 15:34:19.080341,SEARCHING,10.126,0.995,3.73,0.04,-67.38,10.000,10.000,10.000,10.000,10.000,0.350,0.550,0.552,0.850
2026-05-11 15:34:19.208577,INSPECTING,10.118,0.995,4.09,0.20,-66.51,10.000,10.000,10.000,10.000,10.000,-0.150,-0.450,-0.600,-0.800
2026-05-11 15:34:19.419766,SEARCHING,10.109,0.994,4.09,0.05,-73.81,10.000,10.000,10.000,10.000,10.000,0.700,0.000,0.000,0.000
2026-05-11 15:34:19.732588,SEARCHING,10.099,0.994,4.27,-0.05,-67.80,10.000,10.000,10.000,10.000,10.000,0.350,0.550,0.552,0.850
2026-05-11 15:34:19.833032,INSPECTING,10.091,0.994,4.49,0.47,-69.96,10.000,10.000,10.000,10.000,10.000,-0.150,-0.450,-0.600,-0.800
2026-05-11 15:34:20.097590,SEARCHING,10.080,0.993,4.51,-0.02,-70.51,10.000,10.000,10.000,10.000,10.000,0.700,0.000,0.000,0.000
2026-05-11 15:34:20.378777,SEARCHING,10.067,0.993,4.78,0.05,-68.33,10.000,10.000,10.000,10.000,10.000,0.350,0.550,0.552,0.850
2026-05-11 15:34:20.504501,INSPECTING,10.058,0.992,4.78,-0.27,-69.87,10.000,10.000,10.000,10.000,10.000,-0.150,-0.450,-0.600,-0.800
2026-05-11 15:34:20.703758,SEARCHING,10.044,0.992,4.75,-0.32,-72.78,10.000,10.000,10.000,10.000,10.000,0.700,0.000,0.000,0.000
2026-05-11 15:34:21.009799,SEARCHING,10.036,0.992,5.11,0.06,-69.22,10.000,10.000,10.000,10.000,10.000,0.350,0.550,0.552,0.850
2026-05-11 15:34:21.114803,INSPECTING,10.027,0.993,5.38,0.70,-70.98,10.000,10.000,10.000,10.000,10.000,-0.150,-0.450,-0.600,-0.800
2026-05-11 15:34:21.404549,SEARCHING,10.016,0.992,5.39,0.03,-71.21,10.000,10.000,10.000,10.000,10.000,0.700,0.000,0.000,0.000
2026-05-11 15:34:21.528992,INSPECTING,10.004,0.992,5.66,0.27,-69.54,10.000,10.000,10.000,10.000,10.000,-0.150,-0.450,-0.600,-0.800
2026-05-11 15:34:21.721478,SEARCHING,9.990,0.991,5.69,-0.04,-72.64,10.000,10.000,10.000,10.000,10.000,0.700,0.000,0.000,0.000
2026-05-11 15:34:22.011954,SEARCHING,9.982,0.991,5.97,0.07,-69.22,10.000,10.000,10.000,10.000,10.000,0.350,0.550,0.552,0.850
2026-05-11 15:34:22.151522,INSPECTING,9.970,0.989,6.22,-0.98,-65.23,10.000,10.000,10.000,10.000,10.000,-0.150,-0.450,-0.600,-0.800
2026-05-11 15:34:22.341047,SEARCHING,9.962,0.989,6.10,-0.97,-72.66,10.000,10.000,10.000,10.000,10.000,0.700,0.000,0.000,0.000
2026-05-11 15:34:22.681853,SEARCHING,9.957,0.990,6.51,0.00,-68.52,10.000,10.000,10.000,10.000,10.000,0.350,0.550,0.552,0.850
2026-05-11 15:34:22.771633,INSPECTING,9.948,0.990,6.78,0.57,-70.26,10.000,10.000,10.000,10.000,10.000,-0.150,-0.450,-0.600,-0.800
2026-05-11 15:34:22.979125,SEARCHING,9.935,0.989,6.82,-0.02,-72.92,10.000,10.000,10.000,10.000,10.000,0.700,0.000,0.000,0.000
2026-05-11 15:34:23.263325,SEARCHING,9.926,0.988,7.14,0.09,-69.23,10.000,10.000,10.000,10.000,10.000,0.350,0.550,0.552,0.850
2026-05-11 15:34:23.382943,INSPECTING,9.915,0.989,7.44,0.62,-67.33,10.000,10.000,10.000,10.000,10.000,-0.150,-0.450,-0.600,-0.800
2026-05-11 15:34:23.611946,SEARCHING,9.906,0.988,7.49,0.10,-73.91,10.000,10.000,10.000,10.000,10.000,0.700,0.000,0.000,0.000
2026-05-11 15:34:23.888684,SEARCHING,9.896,0.987,7.83,0.11,-69.36,10.000,10.000,10.000,10.000,10.000,0.350,0.550,0.552,0.850
2026-05-11 15:34:24.022584,INSPECTING,9.886,0.987,8.16,0.25,-67.52,10.000,10.000,10.000,10.000,10.000,-0.150,-0.450,-0.600,-0.800
2026-05-11 15:34:24.268869,SEARCHING,9.879,0.987,8.16,0.12,-71.66,10.000,10.000,10.000,10.000,10.000,0.700,0.000,0.000,0.000
2026-05-11 15:34:24.536947,SEARCHING,9.867,0.987,8.31,0.24,-72.77,10.000,10.000,10.000,10.000,10.000,0.350,0.550,0.552,0.850
2026-05-11 15:34:24.684507,INSPECTING,9.854,0.986,8.71,0.26,-67.47,10.000,10.000,10.000,10.000,10.000,-0.150,-0.450,-0.600,-0.800
2026-05-11 15:34:24.888311,SEARCHING,9.847,0.986,8.74,0.12,-71.66,10.000,10.000,10.000,10.000,10.000,0.700,0.000,0.000,0.000
2026-05-11 15:34:25.188687,SEARCHING,9.832,0.985,9.11,0.08,-69.03,10.000,10.000,10.000,10.000,10.000,0.350,0.550,0.552,0.850
2026-05-11 15:34:25.314656,INSPECTING,9.820,0.985,9.31,0.42,-64.54,10.000,10.000,10.000,10.000,10.000,-0.150,-0.450,-0.600,-0.800
2026-05-11 15:34:25.555918,SEARCHING,9.813,0.984,9.44,0.05,-69.62,10.000,10.000,10.000,10.000,10.000,0.700,0.000,0.000,0.000
2026-05-11 15:34:25.806855,SEARCHING,9.803,0.982,9.83,-0.75,-66.82,10.000,10.000,10.000,10.000,10.000,0.350,0.550,0.552,0.850
2026-05-11 15:34:25.941426,INSPECTING,9.791,0.982,10.53,0.26,-64.43,10.000,10.000,10.000,10.000,10.000,-0.150,-0.450,-0.600,-0.800
2026-05-11 15:34:26.166158,SEARCHING,9.786,0.983,10.59,0.76,-73.61,10.000,10.000,10.000,10.000,10.000,0.700,0.000,0.000,0.000
2026-05-11 15:34:26.434149,SEARCHING,9.775,0.984,10.73,1.29,-68.45,10.000,10.000,10.000,10.000,10.000,0.350,0.550,0.552,0.850
2026-05-11 15:34:26.690966,SEARCHING,9.765,0.979,10.80,-1.30,-65.89,10.000,10.000,10.000,10.000,10.000,0.350,0.550,0.552,0.850
2026-05-11 15:34:26.793618,INSPECTING,9.756,0.981,11.39,0.34,-67.23,10.000,10.000,10.000,10.000,10.000,-0.150,-0.450,-0.600,-0.800
2026-05-11 15:34:26.993205,SEARCHING,9.743,0.983,11.36,1.35,-71.90,10.000,10.000,10.000,10.000,10.000,0.700,0.000,0.000,0.000
2026-05-11 15:34:27.305771,SEARCHING,9.733,0.978,11.32,-1.49,-67.17,10.000,10.000,10.000,10.000,10.000,0.350,0.550,0.552,0.850
2026-05-11 15:34:27.443109,INSPECTING,9.726,0.979,11.84,-0.10,-69.09,10.000,10.000,10.000,10.000,10.000,-0.150,-0.450,-0.600,-0.800
2026-05-11 15:34:27.646644,SEARCHING,9.712,0.980,12.19,0.99,-66.66,10.000,10.000,10.000,10.000,10.000,0.700,0.000,0.000,0.000
2026-05-11 15:34:27.935954,SEARCHING,9.699,0.977,12.20,-0.90,-62.24,10.000,10.000,10.000,10.000,10.000,0.350,0.550,0.552,0.850
2026-05-11 15:34:28.053793,INSPECTING,9.690,0.976,12.42,-0.95,-61.24,10.000,10.000,10.000,10.000,10.000,-0.150,-0.450,-0.600,-0.800
2026-05-11 15:34:28.269164,SEARCHING,9.674,0.975,12.47,-1.59,-64.45,10.000,10.000,10.000,10.000,10.000,0.700,0.000,0.000,0.000
2026-05-11 15:34:28.584761,SEARCHING,9.665,0.974,13.19,-1.49,-53.56,10.000,10.000,10.000,10.000,10.000,0.350,0.550,0.552,0.850
2026-05-11 15:34:28.707654,INSPECTING,9.658,0.976,13.75,-0.12,-55.21,10.000,10.000,10.000,10.000,10.000,-0.150,-0.450,-0.600,-0.800
2026-05-11 15:34:28.925043,SEARCHING,9.642,0.976,14.21,0.91,-57.50,10.000,10.000,10.000,10.000,10.000,0.700,0.000,0.000,0.000
2026-05-11 15:34:29.172420,INSPECTING,9.702,0.977,14.22,1.10,-57.89,10.000,10.000,10.000,10.000,10.000,-0.150,-0.450,-0.600,-0.800
2026-05-11 15:34:29.366330,SEARCHING,9.701,0.977,14.26,1.33,-64.16,10.000,10.000,10.000,10.000,10.000,0.700,0.000,0.000,0.000
2026-05-11 15:34:29.556669,INSPECTING,9.720,0.976,14.77,-0.08,-72.33,10.000,10.000,10.000,10.000,10.000,-0.150,-0.450,-0.600,-0.800
2026-05-11 15:34:29.782944,INSPECTING,9.703,0.977,14.60,-0.52,-82.43,10.000,10.000,10.000,10.000,10.000,-0.150,-0.450,-0.600,-0.800
2026-05-11 15:34:29.994693,INSPECTING,9.691,0.978,14.39,-0.97,-92.49,10.000,10.000,10.000,10.000,10.000,-0.150,-0.450,-0.600,-0.800
2026-05-11 15:34:30.216381,INSPECTING,9.683,0.978,14.18,-1.47,-102.67,10.000,10.000,10.000,10.000,10.000,-0.150,-0.450,-0.600,-0.800
2026-05-11 15:34:30.432939,INSPECTING,9.679,0.979,13.96,-2.02,-112.97,10.000,10.000,10.000,10.000,10.000,-0.150,-0.450,-0.600,-0.800
2026-05-11 15:34:30.634211,INSPECTING,9.680,0.981,13.72,-2.64,-123.39,10.000,10.000,10.000,10.000,10.000,-0.150,-0.450,-0.600,-0.800
2026-05-11 15:34:30.832785,INSPECTING,9.686,0.982,13.47,-3.32,-133.92,10.000,10.000,10.000,10.000,10.000,-0.150,-0.450,-0.600,-0.800
2026-05-11 15:34:31.046825,INSPECTING,9.696,0.983,13.22,-4.06,-144.58,10.000,10.000,10.000,10.000,10.000,-0.150,-0.450,-0.600,-0.800
2026-05-11 15:34:31.321686,INSPECTING,9.714,0.984,12.79,-4.97,-157.61,10.000,10.000,10.000,10.000,10.000,-0.150,-0.450,-0.600,-0.800
2026-05-11 15:34:31.470302,INSPECTING,9.723,0.986,12.19,-5.27,-164.04,10.000,10.000,10.000,10.000,10.000,-0.150,-0.450,-0.600,-0.800
2026-05-11 15:34:31.699568,INSPECTING,9.737,0.988,11.36,-5.74,-172.72,10.000,10.000,10.000,10.000,10.000,-0.150,-0.450,-0.600,-0.800
2026-05-11 15:34:31.914328,INSPECTING,9.753,0.991,10.44,-6.32,178.54,10.000,10.000,10.000,10.000,10.000,-0.150,-0.450,-0.600,-0.800
2026-05-11 15:34:32.122835,INSPECTING,9.771,0.994,9.45,-7.00,169.73,10.000,10.000,10.000,10.000,10.000,-0.150,-0.450,-0.600,-0.800
2026-05-11 15:34:32.357707,INSPECTING,9.791,0.997,8.38,-7.79,160.84,10.000,10.000,10.000,10.000,10.000,-0.150,-0.450,-0.600,-0.800
2026-05-11 15:34:32.553864,INSPECTING,9.811,0.995,8.94,-7.27,152.06,10.000,10.000,10.000,10.000,10.000,-0.150,-0.450,-0.600,-0.800
2026-05-11 15:34:32.781037,INSPECTING,9.831,0.991,10.29,-6.03,143.29,10.000,10.000,10.000,10.000,10.000,-0.150,-0.450,-0.600,-0.800
2026-05-11 15:34:32.987340,INSPECTING,9.851,0.986,11.74,-4.61,134.45,10.000,10.000,10.000,10.000,10.000,-0.150,-0.450,-0.600,-0.800
2026-05-11 15:34:33.181419,INSPECTING,9.871,0.981,13.28,-2.99,125.56,10.000,10.000,10.000,10.000,10.000,-0.150,-0.450,-0.600,-0.800
2026-05-11 15:34:33.418300,INSPECTING,9.890,0.975,14.92,-1.17,116.62,10.000,10.000,10.000,10.000,10.000,-0.150,-0.450,-0.600,-0.800
2026-05-11 15:34:33.636995,INSPECTING,9.894,0.972,15.56,0.03,114.10,10.000,10.000,10.000,10.000,10.000,-0.150,-0.450,-0.600,-0.800
2026-05-11 15:34:33.855624,INSPECTING,9.893,0.972,15.59,-0.01,114.23,10.000,10.000,10.000,10.000,10.000,-0.150,-0.450,-0.600,-0.800
2026-05-11 15:34:34.100945,INSPECTING,9.892,0.972,15.61,-0.01,114.23,10.000,10.000,10.000,10.000,10.000,-0.150,-0.450,-0.600,-0.800
2026-05-11 15:34:34.310552,INSPECTING,9.891,0.972,15.64,-0.01,114.23,10.000,10.000,10.000,10.000,10.000,-0.150,-0.450,-0.600,-0.800
2026-05-11 15:34:34.539402,INSPECTING,9.890,0.972,15.67,-0.01,114.23,10.000,10.000,10.000,10.000,10.000,-0.150,-0.450,-0.600,-0.800
2026-05-11 15:34:34.741710,INSPECTING,9.889,0.973,15.70,-0.01,114.23,10.000,10.000,10.000,10.000,10.000,-0.150,-0.450,-0.600,-0.800
2026-05-11 15:34:34.967886,INSPECTING,9.888,0.973,15.73,-0.01,114.23,10.000,10.000,10.000,10.000,10.000,-0.150,-0.450,-0.600,-0.800
2026-05-11 15:34:35.184993,INSPECTING,9.887,0.973,15.76,-0.01,114.23,10.000,10.000,10.000,10.000,10.000,-0.150,-0.450,-0.600,-0.800
2026-05-11 15:34:35.408626,INSPECTING,9.886,0.973,15.79,-0.01,114.23,10.000,10.000,10.000,10.000,10.000,-0.150,-0.450,-0.600,-0.800
2026-05-11 15:34:35.631121,INSPECTING,9.885,0.973,15.82,-0.01,114.23,10.000,10.000,10.000,10.000,10.000,-0.150,-0.450,-0.600,-0.800
2026-05-11 15:34:35.820995,INSPECTING,9.883,0.973,15.86,-0.01,114.23,10.000,10.000,10.000,10.000,10.000,-0.150,-0.450,-0.600,-0.800
2026-05-11 15:34:36.055348,INSPECTING,9.882,0.973,15.89,-0.01,114.23,10.000,10.000,10.000,10.000,10.000,-0.150,-0.450,-0.600,-0.800
2026-05-11 15:34:36.277116,INSPECTING,9.881,0.973,15.92,-0.01,114.23,10.000,10.000,10.000,10.000,10.000,-0.150,-0.450,-0.600,-0.800
2026-05-11 15:34:36.483937,INSPECTING,9.880,0.973,15.96,-0.01,114.23,10.000,10.000,10.000,10.000,10.000,-0.150,-0.450,-0.600,-0.800
2026-05-11 15:34:36.741416,INSPECTING,9.879,0.973,15.99,-0.01,114.23,10.000,10.000,10.000,10.000,10.000,-0.150,-0.450,-0.600,-0.800
2026-05-11 15:34:36.952449,INSPECTING,9.878,0.973,16.03,-0.01,114.23,10.000,10.000,10.000,10.000,10.000,-0.150,-0.450,-0.600,-0.800
2026-05-11 15:34:37.171492,INSPECTING,9.877,0.973,16.06,-0.01,114.23,10.000,10.000,10.000,10.000,10.000,-0.150,-0.450,-0.600,-0.800
2026-05-11 15:34:37.372065,INSPECTING,9.876,0.973,16.10,-0.01,114.23,10.000,10.000,10.000,10.000,10.000,-0.150,-0.450,-0.600,-0.800
2026-05-11 15:34:37.586949,INSPECTING,9.875,0.973,16.13,-0.01,114.23,10.000,10.000,10.000,10.000,10.000,-0.150,-0.450,-0.600,-0.800
2026-05-11 15:34:37.812289,INSPECTING,9.874,0.973,16.17,-0.01,114.23,10.000,10.000,10.000,10.000,10.000,-0.150,-0.450,-0.600,-0.800
2026-05-11 15:34:38.031642,INSPECTING,9.872,0.974,16.21,-0.01,114.23,10.000,10.000,10.000,10.000,10.000,-0.150,-0.450,-0.600,-0.800
2026-05-11 15:34:38.271036,INSPECTING,9.871,0.974,16.25,-0.01,114.23,10.000,10.000,10.000,10.000,10.000,-0.150,-0.450,-0.600,-0.800
2026-05-11 15:34:38.484071,INSPECTING,9.870,0.974,16.28,-0.01,114.23,10.000,10.000,10.000,10.000,10.000,-0.150,-0.450,-0.600,-0.800
2026-05-11 15:34:38.720763,INSPECTING,9.869,0.974,16.32,-0.01,114.23,10.000,10.000,10.000,10.000,10.000,-0.150,-0.450,-0.600,-0.800
2026-05-11 15:34:38.930848,INSPECTING,9.868,0.974,16.36,-0.01,114.23,10.000,10.000,10.000,10.000,10.000,-0.150,-0.450,-0.600,-0.800
2026-05-11 15:34:39.139510,INSPECTING,9.867,0.974,16.40,-0.01,114.23,10.000,10.000,10.000,10.000,10.000,-0.150,-0.450,-0.600,-0.800
2026-05-11 15:34:39.360069,INSPECTING,9.866,0.974,16.45,-0.01,114.23,10.000,10.000,10.000,10.000,10.000,-0.150,-0.450,-0.600,-0.800
2026-05-11 15:34:39.570264,INSPECTING,9.865,0.974,16.49,-0.01,114.23,10.000,10.000,10.000,10.000,10.000,-0.150,-0.450,-0.600,-0.800
2026-05-11 15:34:39.779661,INSPECTING,9.864,0.974,16.53,-0.01,114.23,10.000,10.000,10.000,10.000,10.000,-0.150,-0.450,-0.600,-0.800
2026-05-11 15:34:39.991576,INSPECTING,9.863,0.974,16.57,-0.01,114.23,10.000,10.000,10.000,10.000,10.000,-0.150,-0.450,-0.600,-0.800
2026-05-11 15:34:40.209320,INSPECTING,9.862,0.974,16.62,-0.01,114.23,10.000,10.000,10.000,10.000,10.000,-0.150,-0.450,-0.600,-0.800
2026-05-11 15:34:40.440221,INSPECTING,9.860,0.974,16.66,-0.01,114.23,10.000,10.000,10.000,10.000,10.000,-0.150,-0.450,-0.600,-0.800
2026-05-11 15:34:40.653744,INSPECTING,9.859,0.974,16.71,-0.01,114.23,10.000,10.000,10.000,10.000,10.000,-0.150,-0.450,-0.600,-0.800
2026-05-11 15:34:40.873387,INSPECTING,9.858,0.975,16.75,-0.01,114.23,10.000,10.000,10.000,10.000,10.000,-0.150,-0.450,-0.600,-0.800
2026-05-11 15:34:41.088883,INSPECTING,9.857,0.975,16.80,-0.01,114.23,10.000,10.000,10.000,10.000,10.000,-0.150,-0.450,-0.600,-0.800
2026-05-11 15:34:41.301467,INSPECTING,9.856,0.975,16.84,-0.01,114.23,10.000,10.000,10.000,10.000,10.000,-0.150,-0.450,-0.600,-0.800
2026-05-11 15:34:41.527321,INSPECTING,9.855,0.975,16.89,-0.01,114.23,10.000,10.000,10.000,10.000,10.000,-0.150,-0.450,-0.600,-0.800
2026-05-11 15:34:41.717875,INSPECTING,9.854,0.975,16.93,-0.01,114.23,10.000,10.000,10.000,10.000,10.000,-0.150,-0.450,-0.600,-0.800
2026-05-11 15:34:41.952925,INSPECTING,9.853,0.975,16.98,-0.01,114.23,10.000,10.000,10.000,10.000,10.000,-0.150,-0.450,-0.600,-0.800
2026-05-11 15:34:42.160886,INSPECTING,9.852,0.975,17.03,-0.01,114.23,10.000,10.000,10.000,10.000,10.000,-0.150,-0.450,-0.600,-0.800
2026-05-11 15:34:42.373078,INSPECTING,9.851,0.975,17.08,-0.01,114.23,10.000,10.000,10.000,10.000,10.000,-0.150,-0.450,-0.600,-0.800
2026-05-11 15:34:42.590599,INSPECTING,9.849,0.975,17.14,-0.01,114.23,10.000,10.000,10.000,10.000,10.000,-0.150,-0.450,-0.600,-0.800
2026-05-11 15:34:42.792072,INSPECTING,9.848,0.975,17.20,-0.01,114.23,10.000,10.000,10.000,10.000,10.000,-0.150,-0.450,-0.600,-0.800
2026-05-11 15:34:43.015845,INSPECTING,9.847,0.975,17.26,-0.01,114.23,10.000,10.000,10.000,10.000,10.000,-0.150,-0.450,-0.600,-0.800
2026-05-11 15:34:43.644631,INSPECTING,9.846,0.975,17.33,-0.01,114.23,10.000,10.000,10.000,10.000,10.000,-0.150,-0.450,-0.600,-0.800
2026-05-11 15:34:44.489296,INSPECTING,9.845,0.975,17.39,-0.01,114.23,10.000,10.000,10.000,10.000,10.000,-0.150,-0.450,-0.600,-0.800
2026-05-11 15:34:44.638095,SEARCHING,9.836,0.975,17.50,0.08,111.18,10.000,10.000,10.000,10.000,10.000,0.350,0.550,0.552,0.850
2026-05-11 15:34:44.817489,SEARCHING,9.822,0.975,17.75,0.53,107.83,10.000,10.000,10.000,10.000,10.000,0.700,0.000,0.000,0.000
2026-05-11 15:34:44.986213,SEARCHING,9.800,0.975,17.74,0.53,106.06,10.000,10.000,10.000,10.000,10.000,0.700,0.000,0.000,0.000
2026-05-11 15:34:45.209928,SEARCHING,9.761,0.975,17.74,0.53,106.06,10.000,10.000,10.000,10.000,10.000,0.700,0.000,0.000,0.000
2026-05-11 15:34:45.422433,SEARCHING,9.722,0.975,17.74,0.53,106.06,10.000,10.000,10.000,10.000,10.000,0.700,0.000,0.000,0.000
2026-05-11 15:34:45.638110,SEARCHING,9.683,0.975,17.74,0.53,106.06,10.000,10.000,10.000,10.000,10.000,0.700,0.000,0.000,0.000
2026-05-11 15:34:45.862229,SEARCHING,9.645,0.975,17.74,0.53,106.06,10.000,10.000,10.000,10.000,10.000,0.700,0.000,0.000,0.000
2026-05-11 15:34:46.071044,SEARCHING,9.606,0.975,17.74,0.53,106.06,10.000,10.000,10.000,10.000,10.000,0.700,0.000,0.000,0.000
2026-05-11 15:34:46.278754,SEARCHING,9.567,0.975,17.74,0.53,106.06,10.000,10.000,10.000,10.000,10.000,0.700,0.000,0.000,0.000
2026-05-11 15:34:46.510827,SEARCHING,9.528,0.975,17.74,0.53,106.06,10.000,10.000,10.000,10.000,10.000,0.700,0.000,0.000,0.000
2026-05-11 15:34:46.709971,SEARCHING,9.490,0.975,17.74,0.53,106.06,10.000,10.000,10.000,10.000,10.000,0.700,0.000,0.000,0.000
2026-05-11 15:34:46.915491,SEARCHING,9.451,0.975,17.74,0.53,106.06,10.000,10.000,10.000,10.000,10.000,0.700,0.000,0.000,0.000
2026-05-11 15:34:47.135218,SEARCHING,9.412,0.975,17.74,0.53,106.06,10.000,10.000,10.000,10.000,10.000,0.700,0.000,0.000,0.000
2026-05-11 15:34:47.353166,SEARCHING,9.374,0.975,17.74,0.53,106.06,10.000,10.000,10.000,10.000,10.000,0.700,0.000,0.000,0.000
2026-05-11 15:34:47.566670,SEARCHING,9.335,0.975,17.74,0.53,106.06,10.000,10.000,10.000,10.000,10.000,0.700,0.000,0.000,0.000
2026-05-11 15:34:47.776366,SEARCHING,9.296,0.975,17.74,0.53,106.06,10.000,10.000,10.000,10.000,10.000,0.700,0.000,0.000,0.000
2026-05-11 15:34:47.994927,SEARCHING,9.257,0.975,17.74,0.53,106.06,10.000,10.000,10.000,10.000,10.000,0.700,0.000,0.000,0.000
2026-05-11 15:34:48.201205,SEARCHING,9.219,0.975,17.74,0.53,106.06,10.000,10.000,10.000,10.000,10.000,0.700,0.000,0.000,0.000
2026-05-11 15:34:48.416548,SEARCHING,9.180,0.975,17.74,0.53,106.06,10.000,10.000,10.000,10.000,10.000,0.700,0.000,0.000,0.000
2026-05-11 15:34:48.617813,INSPECTING,9.160,0.973,18.22,-0.34,112.25,10.000,10.000,10.000,10.000,10.000,-0.150,-0.450,-0.600,-0.800
2026-05-11 15:34:48.816535,SEARCHING,9.169,0.973,18.72,-0.33,105.16,10.000,10.000,10.000,10.000,10.000,0.700,0.000,0.000,0.000
2026-05-11 15:34:49.138453,SEARCHING,9.177,0.972,19.87,0.12,108.77,10.000,10.000,10.000,10.000,10.000,0.350,0.550,0.552,0.850
2026-05-11 15:34:49.260222,INSPECTING,9.189,0.973,20.70,1.50,111.05,10.000,10.000,10.000,10.000,10.000,-0.150,-0.450,-0.600,-0.800
2026-05-11 15:34:49.512691,SEARCHING,9.194,0.971,20.73,0.23,105.78,10.000,10.000,10.000,10.000,10.000,0.700,0.000,0.000,0.000
2026-05-11 15:34:49.758005,SEARCHING,9.207,0.971,21.73,1.72,109.36,10.000,10.000,10.000,10.000,10.000,0.350,0.550,0.552,0.850
2026-05-11 15:34:49.883697,INSPECTING,9.213,0.972,21.91,2.04,105.71,10.000,10.000,10.000,10.000,10.000,-0.150,-0.450,-0.600,-0.800
2026-05-11 15:34:50.109834,SEARCHING,9.224,0.969,22.77,0.82,105.38,10.000,10.000,10.000,10.000,10.000,0.700,0.000,0.000,0.000
2026-05-11 15:34:50.408663,SEARCHING,9.238,0.969,23.69,2.08,107.59,10.000,10.000,10.000,10.000,10.000,0.350,0.550,0.552,0.850
2026-05-11 15:34:50.541019,INSPECTING,9.250,0.968,24.41,1.87,108.71,10.000,10.000,10.000,10.000,10.000,-0.150,-0.450,-0.600,-0.800
2026-05-11 15:34:50.715602,SEARCHING,9.253,0.968,24.40,2.11,105.52,10.000,10.000,10.000,10.000,10.000,0.700,0.000,0.000,0.000
2026-05-11 15:34:50.987667,SEARCHING,9.267,0.966,25.42,1.75,107.16,10.000,10.000,10.000,10.000,10.000,0.350,0.550,0.552,0.850
2026-05-11 15:34:51.186104,INSPECTING,9.276,0.964,25.84,0.83,107.56,10.000,10.000,10.000,10.000,10.000,-0.150,-0.450,-0.600,-0.800
2026-05-11 15:34:51.342508,SEARCHING,9.283,0.963,25.71,-0.08,102.89,10.000,10.000,10.000,10.000,10.000,0.700,0.000,0.000,0.000
2026-05-11 15:34:51.623021,SEARCHING,9.291,0.961,25.58,-0.79,105.47,10.000,10.000,10.000,10.000,10.000,0.350,0.550,0.552,0.850
2026-05-11 15:34:51.749776,INSPECTING,9.302,0.960,26.36,-0.37,107.38,10.000,10.000,10.000,10.000,10.000,-0.150,-0.450,-0.600,-0.800
2026-05-11 15:34:51.957883,SEARCHING,9.310,0.960,26.07,-0.63,101.11,10.000,10.000,10.000,10.000,10.000,0.700,0.000,0.000,0.000
2026-05-11 15:34:52.243732,SEARCHING,9.320,0.958,26.50,-1.04,105.60,10.000,10.000,10.000,10.000,10.000,0.350,0.550,0.552,0.850
2026-05-11 15:34:52.398426,INSPECTING,9.331,0.961,27.02,1.32,108.01,10.000,10.000,10.000,10.000,10.000,-0.150,-0.450,-0.600,-0.800
2026-05-11 15:34:52.629730,SEARCHING,9.334,0.958,26.99,-0.00,102.33,10.000,10.000,10.000,10.000,10.000,0.700,0.000,0.000,0.000
2026-05-11 15:34:52.893977,SEARCHING,9.350,0.955,27.98,-0.94,106.89,10.000,10.000,10.000,10.000,10.000,0.350,0.550,0.552,0.850
2026-05-11 15:34:53.025439,INSPECTING,9.360,0.956,28.54,0.49,107.72,10.000,10.000,10.000,10.000,10.000,-0.150,-0.450,-0.600,-0.800
2026-05-11 15:34:53.266732,SEARCHING,9.368,0.956,28.33,0.23,101.26,10.000,10.000,10.000,10.000,10.000,0.700,0.000,0.000,0.000
2026-05-11 15:34:53.565088,SEARCHING,9.384,0.956,28.85,0.84,111.25,10.000,10.000,10.000,10.000,10.000,0.350,0.550,0.552,0.850
2026-05-11 15:34:53.695763,INSPECTING,9.391,0.955,28.94,0.77,110.32,10.000,10.000,10.000,10.000,10.000,-0.150,-0.450,-0.600,-0.800
2026-05-11 15:34:53.924818,SEARCHING,9.401,0.954,28.85,-0.31,107.91,10.000,10.000,10.000,10.000,10.000,0.700,0.000,0.000,0.000
2026-05-11 15:34:54.222048,SEARCHING,9.414,0.951,29.52,-1.38,111.71,10.000,10.000,10.000,10.000,10.000,0.350,0.550,0.552,0.850
2026-05-11 15:34:54.310589,INSPECTING,9.423,0.950,30.08,-1.13,110.15,10.000,10.000,10.000,10.000,10.000,-0.150,-0.450,-0.600,-0.800
2026-05-11 15:34:54.517230,SEARCHING,9.435,0.950,30.63,-0.52,109.70,10.000,10.000,10.000,10.000,10.000,0.700,0.000,0.000,0.000
2026-05-11 15:34:54.829803,SEARCHING,9.449,0.949,31.68,-0.44,112.64,10.000,10.000,10.000,10.000,10.000,0.350,0.550,0.552,0.850
2026-05-11 15:34:54.956411,INSPECTING,9.453,0.946,32.47,-0.81,113.85,10.000,10.000,10.000,10.000,10.000,-0.150,-0.450,-0.600,-0.800
2026-05-11 15:34:55.154725,SEARCHING,9.460,0.947,32.40,-0.27,110.63,10.000,10.000,10.000,10.000,10.000,0.700,0.000,0.000,0.000
2026-05-11 15:34:55.332812,INSPECTING,9.471,0.945,33.11,-0.53,114.73,10.000,10.000,10.000,10.000,10.000,-0.150,-0.450,-0.600,-0.800
2026-05-11 15:34:55.548882,SEARCHING,9.479,0.947,33.06,0.38,105.39,10.000,10.000,10.000,10.000,10.000,0.700,0.000,0.000,0.000
2026-05-11 15:34:55.755449,INSPECTING,9.488,0.944,34.07,-0.39,114.81,10.000,10.000,10.000,10.000,10.000,-0.150,-0.450,-0.600,-0.800
2026-05-11 15:34:55.974267,SEARCHING,9.498,0.944,34.04,-0.39,105.64,10.000,10.000,10.000,10.000,10.000,0.700,0.000,0.000,0.000
2026-05-11 15:34:56.253626,INSPECTING,9.506,0.944,34.82,0.99,113.27,10.000,10.000,10.000,10.000,10.000,-0.150,-0.450,-0.600,-0.800
2026-05-11 15:34:56.452762,SEARCHING,9.512,0.944,34.86,0.92,108.22,10.000,10.000,10.000,10.000,10.000,0.700,0.000,0.000,0.000
2026-05-11 15:34:56.580063,INSPECTING,9.524,0.940,35.88,0.02,114.05,10.000,10.000,10.000,10.000,10.000,-0.150,-0.450,-0.600,-0.800
2026-05-11 15:34:56.800146,SEARCHING,9.532,0.941,35.88,0.37,106.38,10.000,10.000,10.000,10.000,10.000,0.700,0.000,0.000,0.000
2026-05-11 15:34:57.087727,SEARCHING,9.541,0.939,36.88,0.35,110.99,10.000,10.000,10.000,10.000,10.000,0.350,0.550,0.552,0.850
2026-05-11 15:34:57.210462,INSPECTING,9.551,0.936,37.66,-0.67,113.31,10.000,10.000,10.000,10.000,10.000,-0.150,-0.450,-0.600,-0.800
2026-05-11 15:34:57.411192,SEARCHING,9.560,0.936,37.68,-0.50,105.92,10.000,10.000,10.000,10.000,10.000,0.700,0.000,0.000,0.000
2026-05-11 15:34:57.698590,SEARCHING,9.568,0.936,38.40,0.43,110.93,10.000,10.000,10.000,10.000,10.000,0.350,0.550,0.552,0.850
2026-05-11 15:34:57.840812,INSPECTING,9.577,0.934,39.12,0.40,113.47,10.000,10.000,10.000,10.000,10.000,-0.150,-0.450,-0.600,-0.800
2026-05-11 15:34:58.072531,SEARCHING,9.583,0.934,39.13,0.45,108.63,10.000,10.000,10.000,10.000,10.000,0.700,0.000,0.000,0.000
2026-05-11 15:34:58.327842,SEARCHING,9.595,0.931,39.83,-0.76,107.93,10.000,10.000,10.000,10.000,10.000,0.350,0.550,0.552,0.850
2026-05-11 15:34:58.470089,INSPECTING,9.605,0.927,40.61,-2.31,109.96,10.000,10.000,10.000,10.000,10.000,-0.150,-0.450,-0.600,-0.800
2026-05-11 15:34:58.688025,SEARCHING,9.613,0.929,40.79,-0.64,107.53,10.000,10.000,10.000,10.000,10.000,0.700,0.000,0.000,0.000
2026-05-11 15:34:58.936618,SEARCHING,9.626,0.924,41.76,-2.74,110.13,10.000,10.000,10.000,10.000,10.000,0.350,0.550,0.552,0.850
2026-05-11 15:34:59.075515,INSPECTING,9.637,0.923,42.31,-1.97,113.35,10.000,10.000,10.000,10.000,10.000,-0.150,-0.450,-0.600,-0.800
2026-05-11 15:34:59.275373,SEARCHING,9.648,0.926,42.47,-0.27,107.42,10.000,10.000,10.000,10.000,10.000,0.700,0.000,0.000,0.000
2026-05-11 15:34:59.559092,SEARCHING,9.657,0.925,43.05,-0.46,111.97,10.000,10.000,10.000,10.000,10.000,0.350,0.550,0.552,0.850
2026-05-11 15:34:59.680276,INSPECTING,9.665,0.926,43.35,0.79,114.34,10.000,10.000,10.000,10.000,10.000,-0.150,-0.450,-0.600,-0.800
2026-05-11 15:34:59.905921,SEARCHING,9.671,0.926,43.26,0.88,109.18,10.000,10.000,10.000,10.000,10.000,0.700,0.000,0.000,0.000
2026-05-11 15:35:00.224884,SEARCHING,9.684,0.921,44.02,-0.75,111.64,10.000,10.000,10.000,10.000,10.000,0.350,0.550,0.552,0.850
2026-05-11 15:35:00.330577,INSPECTING,9.691,0.918,44.46,-1.94,109.53,10.000,10.000,10.000,10.000,10.000,-0.150,-0.450,-0.600,-0.800
2026-05-11 15:35:00.529574,SEARCHING,9.702,0.920,44.68,-0.60,105.06,10.000,10.000,10.000,10.000,10.000,0.700,0.000,0.000,0.000
2026-05-11 15:35:00.800116,SEARCHING,9.714,0.918,45.55,-0.86,111.50,10.000,10.000,10.000,10.000,10.000,0.350,0.550,0.552,0.850
2026-05-11 15:35:00.954845,INSPECTING,9.722,0.918,46.00,-0.28,113.94,10.000,10.000,10.000,10.000,10.000,-0.150,-0.450,-0.600,-0.800
2026-05-11 15:35:01.141401,SEARCHING,9.731,0.918,45.97,-0.34,106.54,10.000,10.000,10.000,10.000,10.000,0.700,0.000,0.000,0.000
2026-05-11 15:35:01.430519,SEARCHING,9.739,0.916,46.40,-0.51,112.89,10.000,10.000,10.000,10.000,10.000,0.350,0.550,0.552,0.850
2026-05-11 15:35:01.559047,INSPECTING,9.746,0.916,46.94,-0.09,112.77,10.000,10.000,10.000,10.000,10.000,-0.150,-0.450,-0.600,-0.800
2026-05-11 15:35:01.762597,SEARCHING,9.755,0.917,46.88,0.40,106.16,10.000,10.000,10.000,10.000,10.000,0.700,0.000,0.000,0.000
2026-05-11 15:35:02.067547,SEARCHING,9.766,0.914,47.86,-0.33,111.89,10.000,10.000,10.000,10.000,10.000,0.350,0.550,0.552,0.850
2026-05-11 15:35:02.167130,INSPECTING,9.775,0.910,48.33,-1.94,113.08,10.000,10.000,10.000,10.000,10.000,-0.150,-0.450,-0.600,-0.800
2026-05-11 15:35:02.385302,SEARCHING,9.786,0.913,48.48,-0.34,107.39,10.000,10.000,10.000,10.000,10.000,0.700,0.000,0.000,0.000
2026-05-11 15:35:02.710888,SEARCHING,9.793,0.911,48.92,-0.27,112.17,10.000,10.000,10.000,10.000,10.000,0.350,0.550,0.552,0.850
2026-05-11 15:35:02.830337,INSPECTING,9.799,0.908,49.33,-1.73,109.79,10.000,10.000,10.000,10.000,10.000,-0.150,-0.450,-0.600,-0.800
2026-05-11 15:35:03.015963,SEARCHING,9.813,0.910,49.50,-0.36,108.39,10.000,10.000,10.000,10.000,10.000,0.700,0.000,0.000,0.000
2026-05-11 15:35:03.289807,SEARCHING,9.817,0.910,49.93,0.00,114.23,10.000,10.000,10.000,10.000,10.000,0.350,0.550,0.552,0.850
2026-05-11 15:35:03.426007,INSPECTING,9.826,0.910,50.16,0.83,114.41,10.000,10.000,10.000,10.000,10.000,-0.150,-0.450,-0.600,-0.800
2026-05-11 15:35:03.627321,SEARCHING,9.835,0.910,50.05,0.90,107.02,10.000,10.000,10.000,10.000,10.000,0.700,0.000,0.000,0.000
2026-05-11 15:35:03.902455,SEARCHING,9.842,0.909,50.43,0.94,111.74,10.000,10.000,10.000,10.000,10.000,0.350,0.550,0.552,0.850
2026-05-11 15:35:04.040388,INSPECTING,9.851,0.908,50.85,0.95,114.63,10.000,10.000,10.000,10.000,10.000,-0.150,-0.450,-0.600,-0.800
2026-05-11 15:35:04.251310,SEARCHING,9.858,0.905,50.81,-0.95,108.12,10.000,10.000,10.000,10.000,10.000,0.700,0.000,0.000,0.000
2026-05-11 15:35:04.567358,SEARCHING,9.867,0.904,51.20,-0.95,110.29,10.000,10.000,10.000,10.000,10.000,0.350,0.550,0.552,0.850
2026-05-11 15:35:04.687609,INSPECTING,9.873,0.900,51.66,-2.76,108.13,10.000,10.000,10.000,10.000,10.000,-0.150,-0.450,-0.600,-0.800
2026-05-11 15:35:04.890389,SEARCHING,9.884,0.901,51.79,-1.74,109.01,10.000,10.000,10.000,10.000,10.000,0.700,0.000,0.000,0.000
2026-05-11 15:35:05.158716,SEARCHING,9.894,0.900,52.02,-1.54,108.55,10.000,10.000,10.000,10.000,10.000,0.350,0.550,0.552,0.850
2026-05-11 15:35:05.313555,INSPECTING,9.903,0.895,52.59,-4.12,109.72,10.000,10.000,10.000,10.000,10.000,-0.150,-0.450,-0.600,-0.800
2026-05-11 15:35:05.511951,SEARCHING,9.914,0.897,52.49,-2.39,104.98,10.000,10.000,10.000,10.000,10.000,0.700,0.000,0.000,0.000
2026-05-11 15:35:05.806078,SEARCHING,9.924,0.896,52.65,-2.38,109.66,10.000,10.000,10.000,10.000,10.000,0.350,0.550,0.552,0.850
2026-05-11 15:35:05.919521,INSPECTING,9.932,0.892,52.96,-4.28,110.13,10.000,10.000,10.000,10.000,10.000,-0.150,-0.450,-0.600,-0.800
2026-05-11 15:35:06.142917,SEARCHING,9.943,0.895,52.75,-2.34,105.14,10.000,10.000,10.000,10.000,10.000,0.700,0.000,0.000,0.000
2026-05-11 15:35:06.465431,SEARCHING,9.953,0.897,53.07,-0.55,111.96,10.000,10.000,10.000,10.000,10.000,0.350,0.550,0.552,0.850
2026-05-11 15:35:06.575653,INSPECTING,9.959,0.894,53.48,-2.28,109.36,10.000,10.000,10.000,10.000,10.000,-0.150,-0.450,-0.600,-0.800
2026-05-11 15:35:06.766864,SEARCHING,9.970,0.896,53.46,-0.72,104.71,10.000,10.000,10.000,10.000,10.000,0.700,0.000,0.000,0.000
2026-05-11 15:35:07.055374,SEARCHING,9.980,0.897,53.56,0.42,111.10,10.000,10.000,10.000,10.000,10.000,0.350,0.550,0.552,0.850
2026-05-11 15:35:07.176279,INSPECTING,9.988,0.896,53.89,0.42,113.77,10.000,10.000,10.000,10.000,10.000,-0.150,-0.450,-0.600,-0.800
2026-05-11 15:35:07.431291,SEARCHING,9.994,0.896,53.95,0.56,108.78,10.000,10.000,10.000,10.000,10.000,0.700,0.000,0.000,0.000
2026-05-11 15:35:07.725963,SEARCHING,10.006,0.889,54.58,-2.52,110.18,10.000,10.000,10.000,10.000,10.000,0.350,0.550,0.552,0.850
2026-05-11 15:35:07.818475,INSPECTING,10.012,0.885,55.02,-4.55,107.65,10.000,10.000,10.000,10.000,10.000,-0.150,-0.450,-0.600,-0.800
2026-05-11 15:35:08.034967,SEARCHING,10.022,0.888,54.85,-3.01,102.62,10.000,10.000,10.000,10.000,10.000,0.700,0.000,0.000,0.000
2026-05-11 15:35:08.325891,SEARCHING,10.033,0.885,55.02,-3.76,107.52,10.000,10.000,10.000,10.000,10.000,0.350,0.550,0.552,0.850
2026-05-11 15:35:08.482945,INSPECTING,10.039,0.882,55.38,-5.13,106.85,10.000,10.000,10.000,10.000,10.000,-0.150,-0.450,-0.600,-0.800
2026-05-11 15:35:08.672939,SEARCHING,10.050,0.887,55.12,-2.77,103.85,10.000,10.000,10.000,10.000,10.000,0.700,0.000,0.000,0.000
2026-05-11 15:35:08.979355,SEARCHING,10.060,0.888,55.43,-1.64,107.94,10.000,10.000,10.000,10.000,10.000,0.350,0.550,0.552,0.850
2026-05-11 15:35:09.107382,INSPECTING,10.069,0.886,55.66,-2.07,110.23,10.000,10.000,10.000,10.000,10.000,-0.150,-0.450,-0.600,-0.800
2026-05-11 15:35:09.320767,SEARCHING,10.080,0.889,55.51,-0.19,105.49,10.000,10.000,10.000,10.000,10.000,0.700,0.000,0.000,0.000
2026-05-11 15:35:09.638655,SEARCHING,10.089,0.889,55.83,0.56,111.09,10.000,10.000,10.000,10.000,10.000,0.350,0.550,0.552,0.850
2026-05-11 15:35:09.769973,INSPECTING,10.095,0.885,56.25,-1.44,108.73,10.000,10.000,10.000,10.000,10.000,-0.150,-0.450,-0.600,-0.800
2026-05-11 15:35:09.933090,SEARCHING,10.109,0.888,56.42,0.90,109.13,10.000,10.000,10.000,10.000,10.000,0.700,0.000,0.000,0.000
2026-05-11 15:35:10.258746,SEARCHING,10.115,0.887,56.93,0.60,111.08,10.000,10.000,10.000,10.000,10.000,0.350,0.550,0.552,0.850
2026-05-11 15:35:10.370841,INSPECTING,10.121,0.882,57.36,-1.46,108.62,10.000,10.000,10.000,10.000,10.000,-0.150,-0.450,-0.600,-0.800
2026-05-11 15:35:10.613346,SEARCHING,10.132,0.882,57.57,-1.00,109.76,10.000,10.000,10.000,10.000,10.000,0.700,0.000,0.000,0.000
2026-05-11 15:35:10.864058,SEARCHING,10.141,0.880,58.01,-1.80,108.99,10.000,10.000,10.000,10.000,10.000,0.350,0.550,0.552,0.850
2026-05-11 15:35:10.974416,INSPECTING,10.148,0.875,58.51,-4.37,106.93,10.000,10.000,10.000,10.000,10.000,-0.150,-0.450,-0.600,-0.800
2026-05-11 15:35:11.192424,SEARCHING,10.158,0.877,58.34,-3.00,102.04,10.000,10.000,10.000,10.000,10.000,0.700,0.000,0.000,0.000
2026-05-11 15:35:11.567740,SEARCHING,10.170,0.877,58.52,-2.41,109.01,10.000,10.000,10.000,10.000,10.000,0.350,0.550,0.552,0.850
2026-05-11 15:35:11.632443,SEARCHING,10.175,0.877,58.49,-2.41,100.76,10.000,10.000,10.000,10.000,10.000,0.700,0.000,0.000,0.000
2026-05-11 15:35:11.901701,SEARCHING,10.189,0.876,58.92,-2.70,108.48,10.000,10.000,10.000,10.000,10.000,0.350,0.550,0.552,0.850
2026-05-11 15:35:12.079388,INSPECTING,10.197,0.874,59.09,-3.11,110.49,10.000,10.000,10.000,10.000,10.000,-0.150,-0.450,-0.600,-0.800
2026-05-11 15:35:12.251620,SEARCHING,10.206,0.880,58.93,0.58,109.76,10.000,10.000,10.000,10.000,10.000,0.700,0.000,0.000,0.000
2026-05-11 15:35:12.591719,SEARCHING,10.217,0.878,59.30,-0.19,109.83,10.000,10.000,10.000,10.000,10.000,0.350,0.550,0.552,0.850
2026-05-11 15:35:12.691793,INSPECTING,10.222,0.873,59.73,-2.39,107.14,10.000,10.000,10.000,10.000,10.000,-0.150,-0.450,-0.600,-0.800
2026-05-11 15:35:12.904586,SEARCHING,10.233,0.875,59.79,-1.49,102.79,10.000,10.000,10.000,10.000,10.000,0.700,0.000,0.000,0.000
2026-05-11 15:35:13.211952,SEARCHING,10.244,0.871,60.09,-3.01,107.80,10.000,10.000,10.000,10.000,10.000,0.350,0.550,0.552,0.850
2026-05-11 15:35:13.330721,INSPECTING,10.249,0.870,60.41,-3.42,106.57,10.000,10.000,10.000,10.000,10.000,-0.150,-0.450,-0.600,-0.800
2026-05-11 15:35:13.555406,SEARCHING,10.260,0.872,60.28,-2.07,101.98,10.000,10.000,10.000,10.000,10.000,0.700,0.000,0.000,0.000
2026-05-11 15:35:13.868325,SEARCHING,10.270,0.868,60.48,-3.55,106.84,10.000,10.000,10.000,10.000,10.000,0.350,0.550,0.552,0.850
2026-05-11 15:35:14.034507,INSPECTING,10.276,0.865,60.63,-5.39,106.44,10.000,10.000,10.000,10.000,10.000,-0.150,-0.450,-0.600,-0.800
2026-05-11 15:35:14.647745,SEARCHING,10.288,0.873,60.19,-0.30,107.83,10.000,10.000,10.000,10.000,10.000,0.350,0.550,0.552,0.850
2026-05-11 15:35:14.650514,SEARCHING,10.291,0.873,60.19,-0.30,105.53,10.000,10.000,10.000,10.000,10.000,0.700,0.000,0.000,0.000
2026-05-11 15:35:15.378021,INSPECTING,10.296,0.871,60.39,-1.18,96.37,10.000,10.000,10.000,10.000,10.000,-0.150,-0.450,-0.600,-0.800
2026-05-11 15:35:15.455813,SEARCHING,10.308,0.863,61.21,-4.83,105.94,10.000,10.000,10.000,10.000,10.000,0.700,0.000,0.000,0.000
2026-05-11 15:35:15.687823,SEARCHING,10.329,0.869,60.93,-1.16,109.47,10.000,10.000,10.000,10.000,10.000,0.350,0.550,0.552,0.850
2026-05-11 15:35:15.815051,INSPECTING,10.337,0.866,61.30,-2.17,111.66,10.000,10.000,10.000,10.000,10.000,-0.150,-0.450,-0.600,-0.800
2026-05-11 15:35:16.021103,SEARCHING,10.349,0.869,61.24,-0.63,107.24,10.000,10.000,10.000,10.000,10.000,0.700,0.000,0.000,0.000
2026-05-11 15:35:16.308962,SEARCHING,10.357,0.870,61.56,0.57,111.06,10.000,10.000,10.000,10.000,10.000,0.350,0.550,0.552,0.850
2026-05-11 15:35:16.447401,INSPECTING,10.365,0.864,61.96,-2.31,111.60,10.000,10.000,10.000,10.000,10.000,-0.150,-0.450,-0.600,-0.800
2026-05-11 15:35:16.659334,SEARCHING,10.375,0.867,61.86,-0.72,109.41,10.000,10.000,10.000,10.000,10.000,0.700,0.000,0.000,0.000
2026-05-11 15:35:16.940204,SEARCHING,10.383,0.866,61.97,-1.00,108.41,10.000,10.000,10.000,10.000,10.000,0.350,0.550,0.552,0.850
2026-05-11 15:35:17.077390,INSPECTING,10.391,0.860,62.31,-3.90,108.74,10.000,10.000,10.000,10.000,10.000,-0.150,-0.450,-0.600,-0.800
2026-05-11 15:35:17.268639,SEARCHING,10.402,0.862,62.13,-2.35,104.14,10.000,10.000,10.000,10.000,10.000,0.700,0.000,0.000,0.000
2026-05-11 15:35:17.602841,SEARCHING,10.409,0.863,62.31,-1.33,107.53,10.000,10.000,10.000,10.000,10.000,0.350,0.550,0.552,0.850
2026-05-11 15:35:17.700229,INSPECTING,10.414,0.859,62.73,-3.66,104.50,10.000,10.000,10.000,10.000,10.000,-0.150,-0.450,-0.600,-0.800
2026-05-11 15:35:17.914853,SEARCHING,10.424,0.860,62.68,-2.76,100.05,10.000,10.000,10.000,10.000,10.000,0.700,0.000,0.000,0.000
2026-05-11 15:35:18.143481,INSPECTING,10.439,0.863,62.65,-0.67,112.93,10.000,10.000,10.000,10.000,10.000,-0.150,-0.450,-0.600,-0.800
2026-05-11 15:35:18.330707,SEARCHING,10.448,0.865,62.62,-0.00,107.81,10.000,10.000,10.000,10.000,10.000,0.700,0.000,0.000,0.000
2026-05-11 15:35:18.630148,SEARCHING,10.457,0.865,62.68,0.57,111.34,10.000,10.000,10.000,10.000,10.000,0.350,0.550,0.552,0.850
2026-05-11 15:35:18.758351,INSPECTING,10.465,0.859,63.01,-2.25,111.77,10.000,10.000,10.000,10.000,10.000,-0.150,-0.450,-0.600,-0.800
2026-05-11 15:35:18.963706,SEARCHING,10.477,0.862,62.90,-0.65,107.29,10.000,10.000,10.000,10.000,10.000,0.700,0.000,0.000,0.000
2026-05-11 15:35:19.244600,SEARCHING,10.482,0.861,62.97,-0.90,111.10,10.000,10.000,10.000,10.000,10.000,0.350,0.550,0.552,0.850
2026-05-11 15:35:19.376391,INSPECTING,10.488,0.860,63.26,-1.19,110.07,10.000,10.000,10.000,10.000,10.000,-0.150,-0.450,-0.600,-0.800
2026-05-11 15:35:19.594110,SEARCHING,10.498,0.862,63.21,0.17,107.99,10.000,10.000,10.000,10.000,10.000,0.700,0.000,0.000,0.000
2026-05-11 15:35:19.902880,SEARCHING,10.507,0.859,63.62,-1.15,107.54,10.000,10.000,10.000,10.000,10.000,0.350,0.550,0.552,0.850
2026-05-11 15:35:20.019243,INSPECTING,10.515,0.853,63.95,-4.19,107.69,10.000,10.000,10.000,10.000,10.000,-0.150,-0.450,-0.600,-0.800
2026-05-11 15:35:20.215521,SEARCHING,10.525,0.855,63.76,-2.74,103.13,10.000,10.000,10.000,10.000,10.000,0.700,0.000,0.000,0.000
2026-05-11 15:35:20.511476,SEARCHING,10.533,0.856,63.88,-1.79,106.38,10.000,10.000,10.000,10.000,10.000,0.350,0.550,0.552,0.850
2026-05-11 15:35:20.624322,INSPECTING,10.541,0.850,64.17,-4.81,106.45,10.000,10.000,10.000,10.000,10.000,-0.150,-0.450,-0.600,-0.800
2026-05-11 15:35:20.844781,SEARCHING,10.551,0.852,63.94,-3.39,101.83,10.000,10.000,10.000,10.000,10.000,0.700,0.000,0.000,0.000
2026-05-11 15:35:21.155886,SEARCHING,10.559,0.851,63.78,-4.10,105.75,10.000,10.000,10.000,10.000,10.000,0.350,0.550,0.552,0.850
2026-05-11 15:35:21.344675,INSPECTING,10.563,0.847,64.13,-6.13,101.97,10.000,10.000,10.000,10.000,10.000,-0.150,-0.450,-0.600,-0.800
2026-05-11 15:35:21.476152,SEARCHING,10.577,0.853,63.68,-2.99,103.62,10.000,10.000,10.000,10.000,10.000,0.700,0.000,0.000,0.000
2026-05-11 15:35:21.811153,SEARCHING,10.588,0.854,63.78,-1.97,107.50,10.000,10.000,10.000,10.000,10.000,0.350,0.550,0.552,0.850
2026-05-11 15:35:21.944771,INSPECTING,10.591,0.853,63.86,-2.52,100.94,10.000,10.000,10.000,10.000,10.000,-0.150,-0.450,-0.600,-0.800
2026-05-11 15:35:22.085131,SEARCHING,10.606,0.844,64.91,-6.91,103.39,10.000,10.000,10.000,10.000,10.000,0.700,0.000,0.000,0.000
2026-05-11 15:35:22.392738,SEARCHING,10.617,0.848,64.61,-4.79,108.36,10.000,10.000,10.000,10.000,10.000,0.350,0.550,0.552,0.850
2026-05-11 15:35:22.493507,INSPECTING,10.622,0.848,64.75,-5.04,106.85,10.000,10.000,10.000,10.000,10.000,-0.150,-0.450,-0.600,-0.800
2026-05-11 15:35:22.717464,SEARCHING,10.633,0.850,64.57,-3.86,102.24,10.000,10.000,10.000,10.000,10.000,0.700,0.000,0.000,0.000
2026-05-11 15:35:23.014164,SEARCHING,10.637,0.854,64.28,-1.10,103.85,10.000,10.000,10.000,10.000,10.000,0.350,0.550,0.552,0.850
2026-05-11 15:35:23.135116,INSPECTING,10.643,0.849,64.69,-3.50,100.71,10.000,10.000,10.000,10.000,10.000,-0.150,-0.450,-0.600,-0.800
2026-05-11 15:35:23.327336,SEARCHING,10.651,0.851,64.58,-2.49,96.24,10.000,10.000,10.000,10.000,10.000,0.700,0.000,0.000,0.000
2026-05-11 15:35:23.622447,SEARCHING,10.663,0.847,64.64,-4.23,100.68,10.000,10.000,10.000,10.000,10.000,0.350,0.550,0.552,0.850
2026-05-11 15:35:23.754262,INSPECTING,10.672,0.846,64.58,-4.85,102.10,10.000,10.000,10.000,10.000,10.000,-0.150,-0.450,-0.600,-0.800
2026-05-11 15:35:23.981383,SEARCHING,10.680,0.848,64.38,-3.52,99.84,10.000,10.000,10.000,10.000,10.000,0.700,0.000,0.000,0.000
2026-05-11 15:35:24.235238,SEARCHING,10.691,0.847,64.44,-3.92,100.40,10.000,10.000,10.000,10.000,10.000,0.350,0.550,0.552,0.850
2026-05-11 15:35:24.378240,INSPECTING,10.701,0.845,64.34,-4.74,102.46,10.000,10.000,10.000,10.000,10.000,-0.150,-0.450,-0.600,-0.800
2026-05-11 15:35:24.578195,SEARCHING,10.710,0.848,64.13,-3.38,97.90,10.000,10.000,10.000,10.000,10.000,0.700,0.000,0.000,0.000
2026-05-11 15:35:24.924146,SEARCHING,10.723,0.848,63.98,-2.55,104.17,10.000,10.000,10.000,10.000,10.000,0.350,0.550,0.552,0.850
2026-05-11 15:35:25.061245,INSPECTING,10.725,0.848,64.02,-2.82,97.19,10.000,10.000,10.000,10.000,10.000,-0.150,-0.450,-0.600,-0.800
2026-05-11 15:35:25.215233,SEARCHING,10.737,0.845,64.09,-3.90,100.96,10.000,10.000,10.000,10.000,10.000,0.700,0.000,0.000,0.000
2026-05-11 15:35:25.519761,SEARCHING,10.748,0.844,64.07,-4.52,100.18,10.000,10.000,10.000,10.000,10.000,0.350,0.550,0.552,0.850
2026-05-11 15:35:25.621489,INSPECTING,10.754,0.843,64.25,-4.96,98.55,10.000,10.000,10.000,10.000,10.000,-0.150,-0.450,-0.600,-0.800
2026-05-11 15:35:25.853094,SEARCHING,10.761,0.844,64.04,-3.81,93.93,10.000,10.000,10.000,10.000,10.000,0.700,0.000,0.000,0.000
2026-05-11 15:35:26.101231,SEARCHING,10.776,0.843,64.13,-4.34,100.55,10.000,10.000,10.000,10.000,10.000,0.350,0.550,0.552,0.850
2026-05-11 15:35:26.252923,INSPECTING,10.785,0.841,64.09,-4.99,102.00,10.000,10.000,10.000,10.000,10.000,-0.150,-0.450,-0.600,-0.800
2026-05-11 15:35:26.464200,SEARCHING,10.793,0.843,63.88,-3.65,99.71,10.000,10.000,10.000,10.000,10.000,0.700,0.000,0.000,0.000
2026-05-11 15:35:26.733803,SEARCHING,10.804,0.842,63.96,-4.07,100.27,10.000,10.000,10.000,10.000,10.000,0.350,0.550,0.552,0.850
2026-05-11 15:35:26.872769,INSPECTING,10.814,0.841,63.86,-4.89,102.34,10.000,10.000,10.000,10.000,10.000,-0.150,-0.450,-0.600,-0.800
2026-05-11 15:35:27.092196,SEARCHING,10.823,0.843,63.65,-3.52,97.75,10.000,10.000,10.000,10.000,10.000,0.700,0.000,0.000,0.000
2026-05-11 15:35:27.425584,SEARCHING,10.836,0.844,63.50,-2.68,103.99,10.000,10.000,10.000,10.000,10.000,0.350,0.550,0.552,0.850
2026-05-11 15:35:27.530380,INSPECTING,10.839,0.844,63.47,-2.68,95.75,10.000,10.000,10.000,10.000,10.000,-0.150,-0.450,-0.600,-0.800
2026-05-11 15:35:27.791969,SEARCHING,10.847,0.840,64.00,-4.25,99.59,10.000,10.000,10.000,10.000,10.000,0.700,0.000,0.000,0.000
2026-05-11 15:35:27.912209,INSPECTING,10.857,0.840,64.00,-4.47,101.28,10.000,10.000,10.000,10.000,10.000,-0.150,-0.450,-0.600,-0.800
2026-05-11 15:35:28.129035,SEARCHING,10.866,0.842,63.80,-3.22,96.51,10.000,10.000,10.000,10.000,10.000,0.700,0.000,0.000,0.000
2026-05-11 15:35:28.440786,SEARCHING,10.877,0.841,63.87,-3.76,100.01,10.000,10.000,10.000,10.000,10.000,0.350,0.550,0.552,0.850
2026-05-11 15:35:28.553666,INSPECTING,10.882,0.836,64.30,-6.15,96.67,10.000,10.000,10.000,10.000,10.000,-0.150,-0.450,-0.600,-0.800
2026-05-11 15:35:28.732504,SEARCHING,10.893,0.837,63.89,-5.45,94.82,10.000,10.000,10.000,10.000,10.000,0.700,0.000,0.000,0.000
2026-05-11 15:35:29.006348,SEARCHING,10.903,0.839,63.67,-4.36,97.64,10.000,10.000,10.000,10.000,10.000,0.350,0.550,0.552,0.850
2026-05-11 15:35:29.159285,INSPECTING,10.913,0.835,63.94,-6.17,99.64,10.000,10.000,10.000,10.000,10.000,-0.150,-0.450,-0.600,-0.800
2026-05-11 15:35:29.362020,SEARCHING,10.921,0.837,63.69,-4.91,95.00,10.000,10.000,10.000,10.000,10.000,0.700,0.000,0.000,0.000
2026-05-11 15:35:29.645957,SEARCHING,10.934,0.838,63.43,-4.27,100.92,10.000,10.000,10.000,10.000,10.000,0.350,0.550,0.552,0.850
2026-05-11 15:35:29.768971,INSPECTING,10.941,0.836,63.64,-4.70,99.34,10.000,10.000,10.000,10.000,10.000,-0.150,-0.450,-0.600,-0.800
2026-05-11 15:35:29.971453,SEARCHING,10.948,0.838,63.43,-3.51,94.72,10.000,10.000,10.000,10.000,10.000,0.700,0.000,0.000,0.000
2026-05-11 15:35:30.253720,SEARCHING,10.961,0.835,63.45,-5.26,99.06,10.000,10.000,10.000,10.000,10.000,0.350,0.550,0.552,0.850
2026-05-11 15:35:30.418386,INSPECTING,10.967,0.833,63.66,-5.74,97.34,10.000,10.000,10.000,10.000,10.000,-0.150,-0.450,-0.600,-0.800
2026-05-11 15:35:30.579708,SEARCHING,10.978,0.834,63.33,-5.16,95.58,10.000,10.000,10.000,10.000,10.000,0.700,0.000,0.000,0.000
2026-05-11 15:35:30.899641,SEARCHING,10.988,0.836,63.13,-4.02,98.50,10.000,10.000,10.000,10.000,10.000,0.350,0.550,0.552,0.850
2026-05-11 15:35:31.011634,INSPECTING,10.993,0.831,63.54,-6.36,95.16,10.000,10.000,10.000,10.000,10.000,-0.150,-0.450,-0.600,-0.800
2026-05-11 15:35:31.252234,SEARCHING,10.999,0.832,63.41,-5.64,92.85,10.000,10.000,10.000,10.000,10.000,0.700,0.000,0.000,0.000
2026-05-11 15:35:31.496705,SEARCHING,11.009,0.826,63.77,-9.14,92.35,10.000,10.000,10.000,10.000,10.000,0.350,0.550,0.552,0.850
2026-05-11 15:35:31.644931,INSPECTING,11.016,0.825,63.80,-9.66,90.36,10.000,10.000,10.000,10.000,10.000,-0.150,-0.450,-0.600,-0.800
2026-05-11 15:35:31.828518,SEARCHING,11.019,0.826,63.40,-8.64,85.36,10.000,10.000,10.000,10.000,10.000,0.700,0.000,0.000,0.000
2026-05-11 15:35:32.123211,SEARCHING,11.030,0.823,63.70,-10.68,85.94,10.000,10.000,10.000,10.000,10.000,0.350,0.550,0.552,0.850
2026-05-11 15:35:32.244952,INSPECTING,11.040,0.816,64.02,-14.20,85.14,10.000,10.000,10.000,10.000,10.000,-0.150,-0.450,-0.600,-0.800
2026-05-11 15:35:32.453581,SEARCHING,11.037,0.819,63.74,-12.68,77.30,10.000,10.000,10.000,10.000,10.000,0.700,0.000,0.000,0.000
