timestamp,state,x,y,z,roll_deg,pitch_deg,yaw_deg,dist_left,dist_center,dist_right,dist_top,dist_bottom,dtof_alert,collision_event,best_dir,max_space,cmd_vx,cmd_vz,cmd_yaw
21:06:56.781,SEARCHING,0.000,0.000,0.000,0.00,0.00,0.00,10.000,10.000,10.000,10.000,10.000,0,0,SEARCHING,0.000,0.526,0.000,0.000
21:06:56.988,SEARCHING,0.117,0.000,1.000,0.00,0.00,0.00,10.000,10.000,10.000,10.000,10.000,0,0,SEARCHING,0.000,0.734,0.000,0.000
21:06:57.190,SEARCHING,0.269,-0.000,1.000,0.00,0.00,-0.21,3.762,3.288,3.062,3.285,3.287,0,0,SEARCHING,0.000,0.784,0.000,-0.085
21:06:57.390,SEARCHING,0.411,-0.002,1.000,0.00,0.00,-1.28,1.923,1.265,0.995,1.270,1.288,0,0,SEARCHING,0.000,0.487,0.000,0.006
21:06:57.591,SEARCHING,0.490,-0.003,1.000,0.00,0.00,0.25,1.666,0.966,0.667,1.506,0.975,0,0,SEARCHING,0.000,0.307,0.061,0.382
21:06:57.792,SEARCHING,0.541,-0.001,1.020,0.00,0.00,5.07,1.558,2.294,0.630,2.360,1.546,0,0,SEARCHING,0.000,0.386,0.056,0.628
21:06:57.993,SEARCHING,0.609,0.008,1.022,0.00,0.00,11.12,1.481,2.105,0.671,2.108,2.016,0,0,SEARCHING,0.000,0.441,-0.019,0.650
21:06:58.193,SEARCHING,0.683,0.026,1.020,0.00,0.00,17.42,1.350,1.795,2.195,1.778,1.778,0,0,SEARCHING,0.000,0.393,-0.005,0.398
21:06:58.394,SEARCHING,0.754,0.051,1.020,0.00,0.00,20.25,1.234,1.549,2.384,1.553,1.549,0,0,SEARCHING,0.000,0.331,-0.001,0.085
21:06:58.595,SEARCHING,0.812,0.073,1.020,0.00,0.00,20.68,1.173,1.446,2.215,1.449,1.446,0,0,SEARCHING,0.000,0.277,-0.000,-0.025
21:06:58.795,SEARCHING,0.862,0.091,1.020,0.00,0.00,20.14,1.130,1.389,2.122,1.391,1.387,0,0,SEARCHING,0.000,0.256,-0.000,-0.080
21:06:58.995,SEARCHING,0.909,0.108,1.020,0.00,0.00,19.09,1.105,1.357,2.126,1.362,1.357,0,0,SEARCHING,0.000,0.252,-0.000,-0.107
21:06:59.196,SEARCHING,0.957,0.124,1.020,0.00,0.00,17.79,1.087,1.341,2.129,1.343,1.348,0,0,SEARCHING,0.000,0.250,-0.000,-0.122
21:06:59.398,SEARCHING,1.005,0.139,1.020,0.00,0.00,16.35,1.070,1.335,2.160,1.332,1.332,0,0,SEARCHING,0.000,0.250,-0.000,-0.132
21:06:59.600,SEARCHING,1.053,0.153,1.020,0.00,0.00,14.81,1.055,1.341,2.240,1.327,1.326,0,0,SEARCHING,0.000,0.250,-0.000,-0.136
21:06:59.801,SEARCHING,1.101,0.165,1.020,0.00,0.00,13.25,1.039,1.344,2.355,1.339,1.337,0,0,SEARCHING,0.000,0.250,-0.000,-0.134
21:06:59.999,SEARCHING,1.150,0.176,1.020,0.00,0.00,11.73,1.016,1.342,2.427,1.341,1.341,0,0,SEARCHING,0.000,0.250,-0.000,-0.133
21:07:00.201,SEARCHING,1.199,0.185,1.020,0.00,0.00,10.16,0.960,1.353,2.518,1.356,1.357,0,0,SEARCHING,0.000,0.250,-0.000,-0.149
21:07:00.402,SEARCHING,1.249,0.193,1.020,0.00,0.00,8.36,0.920,1.358,2.666,1.378,1.381,0,0,SEARCHING,0.000,0.250,-0.000,-0.169
21:07:00.602,SEARCHING,1.298,0.200,1.020,0.00,0.00,6.43,0.919,1.397,2.749,1.383,1.392,0,0,SEARCHING,0.000,0.250,-0.000,-0.163
21:07:00.803,SEARCHING,1.348,0.205,1.020,0.00,0.00,5.18,0.926,1.441,4.350,1.425,1.429,0,0,SEARCHING,0.000,0.250,-0.000,0.058
21:07:01.003,SEARCHING,1.398,0.210,1.020,0.00,0.00,6.83,0.907,1.414,4.650,1.394,1.397,0,0,SEARCHING,0.000,0.250,-0.000,0.253
21:07:01.203,SEARCHING,1.447,0.217,1.020,0.00,0.00,9.38,0.861,1.316,2.953,1.294,1.299,0,0,SEARCHING,0.000,0.250,-0.000,0.057
21:07:01.403,SEARCHING,1.497,0.225,1.020,0.00,0.00,8.86,0.821,1.236,2.479,1.224,1.228,0,0,SEARCHING,0.000,0.250,-0.000,-0.191
21:07:01.604,SEARCHING,1.546,0.232,1.020,0.00,0.00,6.07,0.802,1.230,2.465,1.212,1.215,0,0,SEARCHING,0.000,0.250,-0.000,-0.304
21:07:01.806,SEARCHING,1.596,0.236,1.020,0.00,0.00,2.79,0.813,1.281,4.048,1.285,1.290,0,0,SEARCHING,0.000,0.250,-0.000,-0.160
21:07:02.006,SEARCHING,1.646,0.238,1.020,0.00,0.00,1.88,0.831,1.344,4.321,1.366,1.369,0,0,SEARCHING,0.000,0.250,-0.000,0.058
21:07:02.206,SEARCHING,1.696,0.240,1.020,0.00,0.00,2.89,0.817,1.326,4.277,1.344,1.350,0,0,SEARCHING,0.000,0.250,-0.000,0.112
21:07:02.407,SEARCHING,1.746,0.243,1.020,0.00,0.00,4.18,0.776,1.229,4.365,1.257,1.263,0,0,SEARCHING,0.000,0.250,-0.000,0.105
21:07:02.607,SEARCHING,1.796,0.247,1.020,0.00,0.00,5.26,0.737,1.154,3.814,1.176,1.175,0,0,SEARCHING,0.000,0.250,-0.000,0.018
21:07:02.809,SEARCHING,1.845,0.251,1.020,0.00,0.00,4.21,0.705,1.112,3.135,1.134,1.134,0,0,SEARCHING,0.000,0.250,-0.000,-0.259
21:07:03.010,SEARCHING,1.895,0.254,1.020,0.00,0.00,1.29,0.714,1.149,4.098,1.158,1.160,0,0,SEARCHING,0.000,0.250,-0.000,-0.182
21:07:03.210,SEARCHING,1.945,0.254,1.020,0.00,0.00,-0.37,0.727,1.236,4.085,1.205,1.203,0,0,SEARCHING,0.000,0.250,-0.000,-0.100
21:07:03.411,SEARCHING,1.995,0.253,1.020,0.00,0.00,-1.41,0.729,1.240,3.982,1.221,1.234,0,0,SEARCHING,0.000,0.250,-0.000,-0.089
21:07:03.612,SEARCHING,2.045,0.252,1.020,0.00,0.00,-2.48,0.724,1.242,3.908,1.238,1.257,0,0,SEARCHING,0.000,0.250,-0.000,-0.106
21:07:03.812,SEARCHING,2.095,0.249,1.020,0.00,0.00,-3.79,0.727,1.279,3.826,1.318,1.332,0,0,SEARCHING,0.000,0.250,-0.000,-0.127
21:07:04.013,SEARCHING,2.145,0.245,1.020,0.00,0.00,-5.34,0.729,1.358,3.710,1.341,1.346,0,0,SEARCHING,0.000,0.250,-0.000,-0.151
21:07:04.215,SEARCHING,2.195,0.240,1.020,0.00,0.00,-7.14,0.749,1.448,3.646,1.405,1.414,0,0,SEARCHING,0.000,0.250,-0.000,-0.158
21:07:04.415,SEARCHING,2.244,0.233,1.020,0.00,0.00,-8.91,0.769,1.497,3.600,1.533,1.532,0,0,SEARCHING,0.000,0.250,-0.000,-0.146
21:07:04.616,SEARCHING,2.294,0.224,1.020,0.00,0.00,-10.51,0.796,1.651,3.538,1.631,1.621,0,0,SEARCHING,0.000,0.265,-0.000,-0.126
21:07:04.819,SEARCHING,2.348,0.214,1.020,0.00,0.00,-11.88,0.813,1.760,3.429,1.678,1.745,0,0,SEARCHING,0.000,0.296,-0.000,-0.115
21:07:05.019,SEARCHING,2.408,0.200,1.020,0.00,0.00,-13.19,0.843,2.566,3.358,2.572,1.855,0,0,SEARCHING,0.000,0.410,-0.049,-0.108
21:07:05.220,SEARCHING,2.495,0.179,0.993,0.00,0.00,-14.12,0.864,4.012,3.303,4.030,1.918,0,0,SEARCHING,0.000,0.689,-0.403,-0.095
21:07:05.421,SEARCHING,2.610,0.150,0.893,0.00,0.00,-14.93,0.878,4.149,3.283,4.160,2.541,0,0,SEARCHING,0.000,0.773,-0.585,-0.082
21:07:05.622,SEARCHING,2.731,0.116,0.783,0.00,0.00,-15.68,0.895,3.978,3.149,4.021,3.016,0,0,SEARCHING,0.000,0.794,-0.429,-0.085
21:07:05.822,SEARCHING,2.854,0.081,0.709,0.00,0.00,-16.50,0.918,3.867,3.036,3.870,2.687,0,0,SEARCHING,0.000,0.798,-0.337,-0.092
21:07:06.023,SEARCHING,2.976,0.044,0.636,0.00,0.00,-17.35,0.930,3.707,2.899,3.729,2.723,0,0,SEARCHING,0.000,0.800,-0.390,-0.100
21:07:06.224,SEARCHING,3.098,0.005,0.554,0.00,0.00,-18.30,0.970,3.590,2.828,3.617,2.323,0,0,SEARCHING,0.000,0.800,-0.448,-0.102
21:07:06.425,SEARCHING,3.219,-0.036,0.463,0.00,0.00,-19.19,1.015,3.435,2.723,3.457,2.104,0,0,SEARCHING,0.000,0.800,-0.449,-0.091
21:07:06.625,SEARCHING,3.340,-0.079,0.374,0.00,0.00,-20.00,2.918,3.272,2.626,3.301,1.419,0,0,SEARCHING,0.000,0.800,-0.447,-0.080
21:07:06.827,SEARCHING,3.460,-0.123,0.287,0.00,0.00,-20.74,2.502,2.919,2.506,3.130,1.102,0,0,SEARCHING,0.000,0.800,-0.369,-0.060
21:07:07.026,SEARCHING,3.579,-0.169,0.217,0.00,0.00,-21.20,2.783,2.485,2.300,2.975,1.804,0,0,SEARCHING,0.000,0.790,-0.326,-0.067
21:07:07.229,SEARCHING,3.686,-0.211,0.155,0.00,0.00,-21.78,2.512,1.888,1.908,2.855,3.142,0,0,SEARCHING,0.000,0.592,-0.176,-0.059
21:07:07.432,SEARCHING,3.764,-0.242,0.154,0.00,0.00,-22.34,2.110,1.918,1.829,2.784,4.323,0,0,SEARCHING,0.000,0.492,0.349,-0.047
21:07:07.633,SEARCHING,3.840,-0.274,0.223,0.00,0.00,-22.62,2.387,2.234,2.060,2.699,2.339,0,0,SEARCHING,0.000,0.565,0.130,-0.029
21:07:07.833,SEARCHING,3.930,-0.311,0.256,0.00,0.00,-23.11,2.436,2.287,2.067,2.596,2.366,0,0,SEARCHING,0.000,0.622,0.198,-0.056
21:07:08.032,SEARCHING,4.025,-0.353,0.276,0.00,0.00,-23.65,2.925,2.456,2.058,2.510,1.967,0,0,SEARCHING,0.000,0.685,-0.053,-0.088
21:07:08.232,SEARCHING,4.126,-0.398,0.260,0.00,0.00,-24.67,2.611,2.350,1.982,2.411,1.333,0,0,SEARCHING,0.000,0.682,-0.104,-0.109
21:07:08.433,SEARCHING,4.223,-0.443,0.238,0.00,0.00,-25.59,2.461,2.280,1.900,2.315,1.479,0,0,SEARCHING,0.000,0.653,-0.107,-0.088
21:07:08.633,SEARCHING,4.314,-0.487,0.218,0.00,0.00,-26.30,2.620,2.171,1.809,2.208,1.866,0,0,SEARCHING,0.000,0.603,-0.088,-0.080
21:07:08.833,SEARCHING,4.397,-0.529,0.202,0.00,0.00,-27.06,2.295,2.023,1.732,2.100,1.286,0,0,SEARCHING,0.000,0.541,-0.050,-0.069
21:07:09.036,SEARCHING,4.469,-0.566,0.194,0.00,0.00,-27.56,2.379,1.858,1.663,2.019,1.373,0,0,SEARCHING,0.000,0.472,-0.029,-0.050
21:07:09.236,SEARCHING,4.533,-0.600,0.190,0.00,0.00,-28.01,1.971,1.789,1.598,1.931,1.116,0,0,SEARCHING,0.000,0.433,0.018,-0.034
21:07:09.436,SEARCHING,4.593,-0.632,0.195,0.00,0.00,-28.22,2.145,1.828,1.559,1.862,1.521,0,0,SEARCHING,0.000,0.413,0.013,-0.019
21:07:09.637,SEARCHING,4.649,-0.662,0.201,0.00,0.00,-28.36,2.186,1.761,1.507,1.801,0.748,0,0,SEARCHING,0.000,0.391,0.195,-0.013
21:07:09.838,SEARCHING,4.703,-0.691,0.246,0.00,0.00,-28.46,2.148,1.745,1.457,1.754,1.261,0,0,SEARCHING,0.000,0.374,0.145,-0.006
21:07:10.038,SEARCHING,4.755,-0.719,0.266,0.00,0.00,-28.47,2.087,1.695,1.418,1.691,1.248,0,0,SEARCHING,0.000,0.358,0.055,0.006
21:07:10.238,SEARCHING,4.804,-0.746,0.278,0.00,0.00,-28.36,2.031,1.642,1.377,1.635,1.293,0,0,SEARCHING,0.000,0.337,0.047,0.019
21:07:10.440,SEARCHING,4.850,-0.771,0.290,0.00,0.00,-28.13,1.989,1.602,1.342,1.602,0.920,0,0,SEARCHING,0.000,0.318,0.156,0.032
21:07:10.640,SEARCHING,4.894,-0.794,0.323,0.00,0.00,-27.77,1.936,1.555,1.298,1.553,1.382,0,0,SEARCHING,0.000,0.301,0.094,0.047
21:07:10.842,SEARCHING,4.936,-0.816,0.335,0.00,0.00,-27.29,1.883,1.517,1.265,1.509,1.400,0,0,SEARCHING,0.000,0.285,0.023,0.060
21:07:11.042,SEARCHING,4.975,-0.836,0.338,0.00,0.00,-26.69,1.847,1.482,1.230,1.477,1.308,0,0,SEARCHING,0.000,0.272,0.005,0.073
21:07:11.244,SEARCHING,5.018,-0.857,0.340,0.00,0.00,-25.87,1.807,1.451,1.197,1.446,1.122,0,0,SEARCHING,0.000,0.259,0.049,0.087
21:07:11.444,SEARCHING,5.055,-0.875,0.352,0.00,0.00,-25.02,1.781,1.424,1.175,1.419,1.214,0,0,SEARCHING,0.000,0.252,0.064,0.099
21:07:11.644,SEARCHING,5.092,-0.892,0.364,0.00,0.00,-24.07,1.776,1.407,1.148,1.404,1.186,0,0,SEARCHING,0.000,0.251,0.058,0.110
21:07:11.845,SEARCHING,5.128,-0.908,0.374,0.00,0.00,-23.00,1.774,1.383,1.116,1.382,1.257,0,0,SEARCHING,0.000,0.250,0.020,0.124
21:07:12.046,SEARCHING,5.170,-0.925,0.375,0.00,0.00,-21.66,1.784,1.360,1.101,1.364,1.261,0,0,SEARCHING,0.000,0.250,0.005,0.137
21:07:12.249,SEARCHING,5.212,-0.941,0.377,0.00,0.00,-20.21,1.773,1.332,1.075,1.338,1.189,0,0,SEARCHING,0.000,0.250,0.032,0.149
21:07:12.448,SEARCHING,5.250,-0.954,0.384,0.00,0.00,-18.79,1.785,1.317,1.054,1.329,1.172,0,0,SEARCHING,0.000,0.250,0.043,0.163
21:07:12.649,SEARCHING,5.288,-0.967,0.393,0.00,0.00,-17.24,1.784,1.316,1.035,1.319,1.181,0,0,SEARCHING,0.000,0.250,0.046,0.175
21:07:12.850,SEARCHING,5.326,-0.978,0.403,0.00,0.00,-15.59,1.760,1.309,1.019,1.308,1.205,0,0,SEARCHING,0.000,0.250,0.031,0.187
21:07:13.053,SEARCHING,5.365,-0.988,0.407,0.00,0.00,-13.83,1.744,1.305,1.008,1.297,1.241,0,0,SEARCHING,0.000,0.250,0.008,0.197
21:07:13.254,SEARCHING,5.413,-0.999,0.407,0.00,0.00,-11.54,1.743,1.309,0.996,1.307,1.197,0,0,SEARCHING,0.000,0.250,0.002,0.206
21:07:13.453,SEARCHING,5.463,-1.009,0.407,0.00,0.00,-9.14,1.753,1.319,0.982,1.321,1.234,0,0,SEARCHING,0.000,0.250,0.000,0.216
21:07:13.653,SEARCHING,5.512,-1.016,0.407,0.00,0.00,-6.63,1.761,1.318,0.974,1.335,1.261,0,0,SEARCHING,0.000,0.250,0.000,0.224
21:07:13.855,SEARCHING,5.562,-1.020,0.407,0.00,0.00,-4.04,1.782,1.362,0.974,1.364,1.263,0,0,SEARCHING,0.000,0.250,0.000,0.228
21:07:15.307,SEARCHING,5.612,-1.023,0.407,0.00,0.00,-1.43,1.814,1.380,0.974,1.380,1.255,0,0,SEARCHING,0.000,0.250,0.000,0.229
21:07:15.509,SEARCHING,5.657,-1.023,0.409,0.00,0.00,0.93,1.866,1.437,0.980,1.428,1.250,0,0,SEARCHING,0.000,0.250,0.034,0.226
21:07:15.710,SEARCHING,5.697,-1.022,0.415,0.00,0.00,2.97,1.914,1.417,0.995,1.415,1.302,0,0,SEARCHING,0.000,0.250,0.012,0.218
21:07:15.912,SEARCHING,5.742,-1.019,0.416,0.00,0.00,5.17,1.931,1.398,0.998,1.392,1.324,0,0,SEARCHING,0.000,0.250,0.003,0.210
21:07:16.112,SEARCHING,5.786,-1.014,0.417,0.00,0.00,7.29,2.004,1.414,1.017,1.411,1.244,0,0,SEARCHING,0.000,0.250,0.028,0.197
21:07:16.316,SEARCHING,5.826,-1.008,0.423,0.00,0.00,9.03,2.091,1.420,1.037,1.417,1.323,0,0,SEARCHING,0.000,0.250,0.011,0.179
21:07:16.517,SEARCHING,5.870,-1.001,0.424,0.00,0.00,10.80,2.163,1.417,1.050,1.420,1.273,0,0,SEARCHING,0.000,0.250,0.003,0.162
21:07:16.719,SEARCHING,5.914,-0.992,0.425,0.00,0.00,12.40,2.250,1.419,1.076,1.431,1.239,0,0,SEARCHING,0.000,0.250,0.034,0.141
21:07:16.920,SEARCHING,5.953,-0.983,0.432,0.00,0.00,13.60,2.283,1.430,1.078,1.438,1.296,0,0,SEARCHING,0.000,0.250,0.013,0.124
21:07:17.120,SEARCHING,5.997,-0.972,0.433,0.00,0.00,14.86,2.336,1.425,1.051,1.430,1.327,0,0,SEARCHING,0.000,0.250,0.003,0.123
21:07:17.318,SEARCHING,6.045,-0.958,0.433,0.00,0.00,16.30,2.447,1.429,1.013,1.425,1.273,0,0,SEARCHING,0.000,0.250,0.001,0.131
21:07:17.519,SEARCHING,6.093,-0.944,0.433,0.00,0.00,17.81,2.519,1.432,1.006,1.431,1.348,0,0,SEARCHING,0.000,0.250,0.000,0.130
21:07:17.720,SEARCHING,6.141,-0.928,0.433,0.00,0.00,19.29,2.511,1.448,1.003,1.446,1.295,0,0,SEARCHING,0.000,0.250,0.000,0.130
21:07:17.921,SEARCHING,6.188,-0.911,0.433,0.00,0.00,20.77,2.620,1.454,0.993,1.461,1.270,0,0,SEARCHING,0.000,0.250,0.000,0.124
21:07:18.121,SEARCHING,6.229,-0.894,0.434,0.00,0.00,22.02,2.648,1.460,0.987,1.477,1.301,0,0,SEARCHING,0.000,0.250,0.017,0.119
21:07:18.322,SEARCHING,6.271,-0.877,0.436,0.00,0.00,23.24,2.672,1.484,0.985,1.491,1.321,0,0,SEARCHING,0.000,0.250,0.004,0.116
21:07:18.522,SEARCHING,6.317,-0.857,0.436,0.00,0.00,24.56,2.694,1.496,0.982,1.491,1.305,0,0,SEARCHING,0.000,0.250,0.001,0.113
21:07:18.723,SEARCHING,6.358,-0.838,0.437,0.00,0.00,25.72,2.724,1.513,0.979,1.511,1.311,0,0,SEARCHING,0.000,0.251,0.017,0.111
21:07:18.924,SEARCHING,6.398,-0.818,0.439,0.00,0.00,26.87,2.711,1.534,0.978,1.534,1.297,0,0,SEARCHING,0.000,0.255,0.004,0.112
21:07:19.125,SEARCHING,6.439,-0.797,0.441,0.00,0.00,28.02,2.685,1.548,0.980,1.551,1.352,0,0,SEARCHING,0.000,0.261,0.019,0.114
21:07:19.325,SEARCHING,6.481,-0.774,0.443,0.00,0.00,29.21,2.664,1.570,0.982,1.570,1.322,0,0,SEARCHING,0.000,0.265,0.004,0.116
21:07:19.527,SEARCHING,6.523,-0.750,0.444,0.00,0.00,30.43,2.610,1.626,0.977,1.626,1.392,0,0,SEARCHING,0.000,0.278,0.020,0.125
21:07:19.726,SEARCHING,6.567,-0.724,0.446,0.00,0.00,31.75,2.581,1.643,0.986,1.652,1.431,0,0,SEARCHING,0.000,0.287,0.005,0.130
21:07:19.926,SEARCHING,6.616,-0.692,0.446,0.00,0.00,33.26,2.538,1.713,0.995,1.721,1.411,0,0,SEARCHING,0.000,0.303,0.001,0.132
21:07:20.127,SEARCHING,6.667,-0.658,0.446,0.00,0.00,34.77,2.503,1.805,1.007,1.790,1.322,0,0,SEARCHING,0.000,0.323,0.000,0.131
21:07:20.328,SEARCHING,6.722,-0.619,0.446,0.00,0.00,36.25,2.467,1.888,1.028,1.877,1.547,0,0,SEARCHING,0.000,0.357,0.000,0.126
21:07:20.529,SEARCHING,6.780,-0.575,0.446,0.00,0.00,37.65,2.427,1.918,1.045,1.913,1.423,0,0,SEARCHING,0.000,0.378,0.000,0.118
21:07:20.730,SEARCHING,6.840,-0.528,0.446,0.00,0.00,39.00,2.380,1.901,1.048,1.904,1.563,0,0,SEARCHING,0.000,0.384,0.000,0.119
21:07:20.931,SEARCHING,6.899,-0.479,0.446,0.00,0.00,40.36,2.343,1.905,1.071,1.913,1.504,0,0,SEARCHING,0.000,0.384,0.000,0.116
21:07:21.132,SEARCHING,6.957,-0.429,0.446,0.00,0.00,41.67,2.284,1.917,1.097,1.925,1.620,0,0,SEARCHING,0.000,0.389,0.000,0.111
21:07:21.332,SEARCHING,7.015,-0.376,0.446,0.00,0.00,42.91,2.235,1.907,1.130,1.926,1.587,0,0,SEARCHING,0.000,0.391,0.000,0.101
21:07:21.533,SEARCHING,7.072,-0.322,0.446,0.00,0.00,44.04,2.168,1.913,1.136,1.934,1.410,0,0,SEARCHING,0.000,0.392,0.000,0.098
21:07:21.734,SEARCHING,7.128,-0.267,0.446,0.00,0.00,45.16,2.127,1.922,1.167,1.927,1.553,0,0,SEARCHING,0.000,0.398,0.000,0.094
21:07:21.935,SEARCHING,7.184,-0.210,0.446,0.00,0.00,46.20,2.045,1.927,1.225,1.931,1.527,0,0,SEARCHING,0.000,0.405,0.000,0.083
21:07:22.135,SEARCHING,7.240,-0.151,0.446,0.00,0.00,47.09,1.999,1.914,1.240,1.916,1.456,0,0,SEARCHING,0.000,0.406,0.000,0.073
21:07:22.336,SEARCHING,7.295,-0.091,0.446,0.00,0.00,47.95,1.916,1.865,1.186,1.875,1.685,0,0,SEARCHING,0.000,0.396,0.000,0.085
21:07:22.538,SEARCHING,7.346,-0.033,0.446,0.00,0.00,49.00,1.844,1.798,1.171,1.765,1.420,0,0,SEARCHING,0.000,0.373,0.000,0.100
21:07:22.739,SEARCHING,7.394,0.023,0.446,0.00,0.00,50.17,1.782,1.746,1.178,1.718,1.494,0,0,SEARCHING,0.000,0.355,0.000,0.104
21:07:22.940,SEARCHING,7.438,0.076,0.446,0.00,0.00,51.38,1.733,1.686,1.170,1.675,1.571,0,0,SEARCHING,0.000,0.334,0.000,0.107
21:07:23.140,SEARCHING,7.478,0.128,0.446,0.00,0.00,52.60,1.667,1.603,1.183,1.589,1.300,0,0,SEARCHING,0.000,0.311,0.000,0.105
21:07:23.341,SEARCHING,7.514,0.176,0.446,0.00,0.00,53.77,1.617,1.559,1.193,1.555,1.436,0,0,SEARCHING,0.000,0.293,0.000,0.098
21:07:23.543,SEARCHING,7.548,0.223,0.446,0.00,0.00,54.87,1.565,1.492,1.205,1.482,1.275,0,0,SEARCHING,0.000,0.275,0.000,0.090
21:07:23.743,SEARCHING,7.578,0.267,0.446,0.00,0.00,55.86,1.515,1.437,1.219,1.434,1.295,0,0,SEARCHING,0.000,0.259,0.000,0.080
21:07:23.943,SEARCHING,7.607,0.310,0.446,0.00,0.00,56.73,1.468,1.390,1.237,1.389,1.323,0,0,SEARCHING,0.000,0.252,0.000,0.068
21:07:24.145,SEARCHING,7.634,0.352,0.446,0.00,0.00,57.47,1.428,1.344,1.228,1.347,1.278,0,0,SEARCHING,0.000,0.251,0.000,0.059
21:07:24.345,SEARCHING,7.661,0.394,0.446,0.00,0.00,58.13,1.383,1.295,1.196,1.296,1.256,0,0,SEARCHING,0.000,0.250,0.000,0.058
21:07:24.546,SEARCHING,7.687,0.437,0.446,0.00,0.00,58.80,1.335,1.246,1.167,1.248,1.219,0,0,SEARCHING,0.000,0.250,0.000,0.059
21:07:24.747,SEARCHING,7.713,0.480,0.446,0.00,0.00,59.49,1.297,1.209,1.129,1.210,1.191,0,0,SEARCHING,0.000,0.250,0.000,0.062
21:07:24.951,SEARCHING,7.738,0.523,0.446,0.00,0.00,60.24,1.248,1.158,1.075,1.155,1.153,0,0,SEARCHING,0.000,0.250,0.000,0.073
21:07:25.153,SEARCHING,7.762,0.567,0.446,0.00,0.00,61.13,1.205,1.111,1.026,1.108,1.111,0,0,SEARCHING,0.000,0.250,0.000,0.087
21:07:25.351,SEARCHING,7.786,0.611,0.446,0.00,0.00,62.19,1.166,1.064,0.978,1.065,1.063,0,0,SEARCHING,0.000,0.250,0.000,0.103
21:07:25.553,SEARCHING,7.809,0.655,0.446,0.00,0.00,63.44,1.127,1.022,0.933,1.023,1.021,0,0,SEARCHING,0.000,0.250,0.000,0.122
21:07:25.753,SEARCHING,7.831,0.700,0.446,0.00,0.00,64.92,1.090,0.977,0.890,0.978,0.980,0,0,SEARCHING,0.000,0.250,0.000,0.143
21:07:25.953,SEARCHING,7.851,0.745,0.446,0.00,0.00,66.66,1.054,0.938,0.844,0.939,0.940,0,0,SEARCHING,0.000,0.250,0.000,0.168
21:07:26.154,SEARCHING,7.871,0.792,0.446,0.00,0.00,68.70,1.024,0.901,0.802,0.901,0.899,0,0,SEARCHING,0.000,0.250,0.000,0.198
21:07:26.356,SEARCHING,7.888,0.839,0.446,0.00,0.00,71.10,1.002,0.868,0.767,0.869,0.867,0,0,SEARCHING,0.000,0.250,0.000,0.232
21:07:26.556,SEARCHING,7.903,0.886,0.446,0.00,0.00,73.95,0.979,0.830,0.721,0.832,0.831,0,0,SEARCHING,0.000,0.250,0.000,0.278
21:07:26.756,SEARCHING,7.916,0.935,0.446,0.00,0.00,77.33,0.967,0.801,0.687,0.801,0.799,0,0,SEARCHING,0.000,0.250,0.000,0.329
21:07:26.957,INSPECTING,7.925,0.981,0.446,0.00,0.00,81.34,0.969,0.782,0.656,0.783,0.783,0,0,INSPECT_LEFT,0.000,0.184,0.000,0.430
21:07:27.158,INSPECTING,7.929,1.018,0.446,0.00,0.00,86.56,1.010,0.784,0.639,0.783,0.782,0,0,INSPECT_LEFT,0.000,0.195,0.000,0.483
21:07:27.358,INSPECTING,7.929,1.058,0.446,0.00,0.00,92.17,1.097,0.805,0.632,0.803,0.804,0,0,INSPECT_LEFT,0.000,0.208,0.000,0.496
21:07:27.559,INSPECTING,7.926,1.101,0.446,0.00,0.00,97.87,1.241,0.834,0.636,0.838,0.835,0,0,INSPECT_LEFT,0.000,0.230,0.000,0.499
21:07:27.761,INSPECTING,7.917,1.148,0.446,0.00,0.00,103.59,1.426,0.886,0.647,0.889,0.889,0,0,INSPECT_LEFT,0.000,0.260,0.000,0.500
21:07:27.962,INSPECTING,7.902,1.201,0.446,0.00,0.00,109.32,1.739,0.965,0.665,0.965,0.962,0,0,INSPECT_LEFT,0.000,0.309,0.000,0.500
21:07:28.161,INSPECTING,7.877,1.263,0.446,0.00,0.00,115.05,2.117,1.083,0.693,1.078,1.069,0,0,INSPECT_LEFT,0.000,0.372,0.000,0.500
21:07:28.363,INSPECTING,7.841,1.331,0.446,0.00,0.00,120.78,2.128,1.232,0.740,1.238,1.197,0,0,INSPECT_LEFT,0.000,0.393,0.000,0.500
21:07:28.564,SEARCHING,7.798,1.397,0.446,0.00,0.00,126.51,2.091,1.488,0.811,1.465,1.293,0,0,INSPECT_LEFT,0.000,0.398,0.000,0.500
21:07:28.765,SEARCHING,7.754,1.451,0.446,0.00,0.00,131.55,1.924,1.984,0.910,1.954,1.341,0,0,SEARCHING,0.000,0.352,0.000,0.360
21:07:28.966,SEARCHING,7.707,1.501,0.444,0.00,0.00,134.83,1.744,2.109,1.026,2.114,1.630,0,0,SEARCHING,0.000,0.425,-0.036,0.254
21:07:29.167,SEARCHING,7.656,1.550,0.435,0.00,0.00,136.79,1.627,2.075,1.118,2.078,1.754,0,0,SEARCHING,0.000,0.449,-0.049,0.174
21:07:29.368,SEARCHING,7.603,1.599,0.426,0.00,0.00,138.15,1.548,2.019,1.182,2.022,1.696,0,0,SEARCHING,0.000,0.446,-0.033,0.122
21:07:29.569,SEARCHING,7.551,1.646,0.421,0.00,0.00,139.09,1.483,1.956,1.245,1.955,1.573,0,0,SEARCHING,0.000,0.433,-0.008,0.082
21:07:29.772,SEARCHING,7.486,1.701,0.421,0.00,0.00,139.89,1.427,1.870,1.324,1.859,1.603,0,0,SEARCHING,0.000,0.413,-0.002,0.048
21:07:29.972,SEARCHING,7.424,1.753,0.421,0.00,0.00,140.30,1.372,1.789,1.377,1.780,1.633,0,0,SEARCHING,0.000,0.389,-0.000,0.016
21:07:30.173,SEARCHING,7.365,1.802,0.421,0.00,0.00,140.40,1.345,1.713,1.387,1.710,1.402,0,0,SEARCHING,0.000,0.363,-0.000,-0.002
21:07:30.374,SEARCHING,7.316,1.842,0.423,0.00,0.00,140.34,1.311,1.630,1.382,1.629,1.292,0,0,SEARCHING,0.000,0.335,0.017,-0.012
21:07:30.576,SEARCHING,7.271,1.879,0.425,0.00,0.00,140.18,1.287,1.575,1.375,1.579,1.304,0,0,SEARCHING,0.000,0.310,0.004,-0.020
21:07:30.776,SEARCHING,7.229,1.914,0.429,0.00,0.00,139.95,1.264,1.530,1.370,1.533,1.262,0,0,SEARCHING,0.000,0.291,0.053,-0.026
21:07:30.989,SEARCHING,7.195,1.944,0.438,0.00,0.00,139.69,1.248,1.479,1.363,1.487,1.326,0,0,SEARCHING,0.000,0.274,0.017,-0.031
21:07:31.200,SEARCHING,7.158,1.975,0.439,0.00,0.00,139.35,1.238,1.435,1.371,1.432,1.255,0,0,SEARCHING,0.000,0.259,0.004,-0.036
21:07:31.405,SEARCHING,7.119,2.008,0.439,0.00,0.00,138.91,1.224,1.385,1.377,1.388,1.309,0,0,SEARCHING,0.000,0.252,0.001,-0.042
21:07:31.607,SEARCHING,7.082,2.041,0.439,0.00,0.00,138.41,1.207,1.332,1.363,1.325,1.290,0,0,SEARCHING,0.000,0.251,0.000,-0.047
21:07:31.809,SEARCHING,7.044,2.075,0.439,0.00,0.00,137.85,1.202,1.284,1.345,1.271,1.253,0,0,SEARCHING,0.000,0.250,0.000,-0.048
21:07:32.010,SEARCHING,7.007,2.109,0.439,0.00,0.00,137.31,1.195,1.237,1.311,1.225,1.231,0,0,SEARCHING,0.000,0.250,0.000,-0.045
21:07:32.212,SEARCHING,6.971,2.143,0.439,0.00,0.00,136.82,1.169,1.174,1.273,1.171,1.184,0,0,SEARCHING,0.000,0.250,0.000,-0.041
21:07:32.413,SEARCHING,6.935,2.177,0.439,0.00,0.00,136.34,1.130,1.136,1.256,1.127,1.144,0,0,SEARCHING,0.000,0.250,0.000,-0.046
21:07:32.614,SEARCHING,6.898,2.212,0.439,0.00,0.00,135.76,1.083,1.085,1.238,1.081,1.095,0,0,SEARCHING,0.000,0.250,0.000,-0.061
21:07:32.815,SEARCHING,6.863,2.247,0.439,0.00,0.00,134.98,1.029,1.037,1.198,1.025,1.042,0,0,SEARCHING,0.000,0.250,0.000,-0.079
21:07:33.016,SEARCHING,6.828,2.282,0.439,0.00,0.00,134.00,0.974,0.991,1.156,0.960,0.993,0,0,SEARCHING,0.000,0.250,0.000,-0.100
21:07:33.216,SEARCHING,6.793,2.319,0.439,0.00,0.00,132.76,0.918,0.940,1.116,0.920,0.942,0,0,SEARCHING,0.000,0.250,0.000,-0.124
21:07:33.416,SEARCHING,6.760,2.356,0.439,0.00,0.00,131.23,0.863,0.893,1.061,0.876,0.892,0,0,SEARCHING,0.000,0.250,0.000,-0.150
21:07:33.617,SEARCHING,6.727,2.394,0.439,0.00,0.00,129.39,0.807,0.842,1.001,0.835,0.841,0,0,SEARCHING,0.000,0.250,0.000,-0.178
21:07:33.861,INSPECTING,6.696,2.433,0.439,0.00,0.00,127.26,0.751,0.794,0.927,0.792,0.793,0,0,SEARCHING,0.000,0.175,0.000,-0.201
21:07:34.020,INSPECTING,6.673,2.465,0.439,0.00,0.00,123.77,0.699,0.750,0.852,0.744,0.749,0,0,INSPECT_RIGHT,0.000,0.177,0.000,-0.428
21:07:34.222,INSPECTING,6.655,2.495,0.439,0.00,0.00,118.56,0.656,0.711,0.758,0.699,0.716,0,0,INSPECT_RIGHT,0.000,0.163,0.000,-0.483
21:07:34.422,INSPECTING,6.641,2.522,0.453,0.00,0.00,114.68,0.623,1.023,0.670,1.024,1.012,0,0,INSPECT_TOP,0.000,0.186,0.263,-0.167
21:07:34.623,INSPECTING,6.628,2.550,0.516,0.00,0.00,113.88,0.595,0.992,0.627,0.994,0.988,0,0,INSPECT_TOP,0.000,0.198,0.367,-0.040
21:07:34.824,INSPECTING,6.616,2.579,0.591,0.00,0.00,113.69,0.569,0.960,0.605,0.958,0.958,0,0,INSPECT_TOP,0.000,0.195,0.392,-0.010
21:07:35.025,INSPECTING,6.603,2.607,0.671,0.00,0.00,113.64,0.543,0.929,0.589,0.927,0.929,0,0,INSPECT_TOP,0.000,0.189,0.398,-0.002
21:07:35.225,INSPECTING,6.591,2.635,0.750,0.00,0.00,113.63,0.520,0.911,0.575,0.910,0.913,0,0,INSPECT_TOP,0.000,0.185,0.400,-0.001
21:07:35.426,INSPECTING,6.580,2.662,0.830,0.00,0.00,113.63,0.496,0.879,0.563,0.892,0.887,0,0,INSPECT_TOP,0.000,0.181,0.400,-0.000
21:07:35.627,INSPECTING,6.568,2.688,0.910,0.00,0.00,113.63,0.472,0.862,0.546,0.884,0.867,0,0,INSPECT_TOP,0.000,0.178,0.400,-0.000
21:07:35.828,INSPECTING,6.556,2.715,0.990,0.00,0.00,113.63,0.448,0.850,0.538,1.168,0.845,0,0,INSPECT_TOP,0.000,0.207,0.400,-0.000
21:07:36.028,INSPECTING,6.542,2.748,1.070,0.00,0.00,113.63,0.421,0.833,0.526,1.191,0.823,0,0,INSPECT_TOP,0.000,0.230,0.400,-0.000
21:07:36.228,INSPECTING,6.527,2.782,1.150,0.00,0.00,113.63,0.389,0.817,0.647,1.165,0.806,0,0,INSPECT_TOP,0.000,0.234,0.400,-0.000
21:07:36.434,INSPECTING,6.512,2.816,1.230,0.00,0.00,113.63,0.843,1.065,1.097,1.127,0.775,0,0,INSPECT_TOP,0.000,0.230,0.400,-0.000
21:07:36.635,INSPECTING,6.498,2.849,1.310,0.00,0.00,113.63,0.900,1.083,1.151,1.090,0.760,0,0,INSPECT_TOP,0.000,0.223,0.400,-0.000
21:07:36.835,INSPECTING,6.484,2.881,1.390,0.00,0.00,113.63,0.883,1.053,1.123,1.055,0.859,0,0,INSPECT_TOP,0.000,0.216,0.400,-0.000
21:07:37.036,INSPECTING,6.470,2.912,1.470,0.00,0.00,113.63,0.858,1.018,1.089,1.018,0.984,0,0,INSPECT_TOP,0.000,0.208,0.400,-0.000
21:07:37.237,INSPECTING,6.457,2.943,1.550,0.00,0.00,113.63,0.835,0.984,1.051,0.986,0.980,0,0,INSPECT_TOP,0.000,0.202,0.400,-0.000
21:07:37.436,INSPECTING,6.444,2.972,1.630,0.00,0.00,113.63,0.813,0.953,1.018,0.952,0.951,0,0,INSPECT_TOP,0.000,0.195,0.400,-0.000
21:07:37.638,INSPECTING,6.432,3.000,1.710,0.00,0.00,113.63,0.792,0.921,0.984,0.921,0.921,0,0,INSPECT_TOP,0.000,0.189,0.400,-0.000
21:07:37.841,INSPECTING,6.420,3.027,1.790,0.00,0.00,113.63,0.772,0.891,0.952,0.891,0.891,0,0,INSPECT_TOP,0.000,0.183,0.400,-0.000
21:07:38.039,INSPECTING,6.408,3.053,1.870,0.00,0.00,113.63,0.752,0.857,0.921,0.862,0.860,0,0,INSPECT_TOP,0.000,0.177,0.400,-0.000
21:07:38.240,INSPECTING,6.397,3.079,1.950,0.00,0.00,113.63,0.732,0.830,0.891,0.833,0.830,0,0,INSPECT_TOP,0.000,0.171,0.400,-0.000
21:07:38.440,INSPECTING,6.386,3.104,2.030,0.00,0.00,113.63,0.713,0.804,0.861,0.805,0.799,0,0,INSPECT_TOP,0.000,0.165,0.400,-0.000
21:07:38.640,INSPECTING,6.376,3.127,2.110,0.00,0.00,113.63,0.696,0.779,0.833,0.777,0.773,0,0,INSPECT_TOP,0.000,0.159,0.400,-0.000
21:07:38.841,INSPECTING,6.366,3.150,2.190,0.00,0.00,113.63,0.678,0.755,0.805,0.752,0.748,0,0,INSPECT_TOP,0.000,0.154,0.400,-0.000
21:07:39.042,INSPECTING,6.356,3.173,2.270,0.00,0.00,113.63,0.661,0.728,0.777,0.715,0.724,0,0,INSPECT_TOP,0.000,0.148,0.400,-0.000
21:07:39.282,TURNING,6.347,3.194,2.350,0.00,0.00,113.63,0.646,0.699,0.753,0.680,0.703,0,0,TURNING,0.000,0.116,0.280,-0.420
21:07:39.445,TURNING,6.343,3.204,2.394,0.00,0.00,108.45,0.640,0.682,0.748,0.671,0.686,0,0,TURNING,0.000,0.073,0.096,-1.064
21:07:39.645,TURNING,6.340,3.214,2.406,0.00,0.00,97.22,0.646,0.671,0.810,0.664,0.673,0,0,TURNING,0.000,0.055,0.023,-1.319
21:07:39.844,TURNING,6.340,3.222,2.409,0.00,0.00,84.77,0.605,0.755,1.054,0.754,0.754,0,0,TURNING,0.000,0.051,0.006,-1.381
21:07:40.046,TURNING,6.342,3.232,2.409,0.00,0.00,68.87,0.656,0.924,1.593,0.923,0.923,0,0,TURNING,0.000,0.050,0.001,-1.395
21:07:40.246,TURNING,6.347,3.241,2.409,0.00,0.00,52.86,0.885,1.612,4.808,1.602,1.610,0,0,TURNING,0.000,0.050,0.000,-1.399
21:07:40.447,TURNING,6.354,3.248,2.409,0.00,0.00,36.83,1.446,4.238,3.941,2.708,4.212,0,0,TURNING,0.000,0.050,0.000,-1.400
21:07:40.650,TURNING,6.363,3.253,2.409,0.00,0.00,20.79,3.753,3.977,2.626,2.828,4.003,0,0,TURNING,0.000,0.050,0.000,-1.400
21:07:40.852,TURNING,6.372,3.255,2.409,0.00,0.00,4.74,4.888,2.838,2.696,2.673,2.907,0,0,TURNING,0.000,0.050,0.000,-1.400
21:07:41.053,TURNING,6.382,3.255,2.409,0.00,0.00,-11.30,2.861,2.916,2.697,2.710,2.961,0,0,TURNING,0.000,0.050,0.000,-1.400
21:07:41.251,TURNING,6.392,3.252,2.409,0.00,0.00,-27.34,2.818,2.909,2.840,2.723,2.889,0,0,TURNING,0.000,0.050,0.000,-1.400
21:07:41.451,TURNING,6.400,3.246,2.409,0.00,0.00,-43.38,2.777,2.899,3.061,2.718,2.881,0,0,TURNING,0.000,0.050,0.000,-1.400
21:07:41.651,RETURNING,6.404,3.242,2.410,0.00,0.00,-52.60,2.665,3.027,3.435,2.752,3.033,0,0,RETURNING,0.000,0.043,0.044,-1.085
21:07:41.853,RETURNING,6.408,3.236,2.422,0.00,0.00,-62.79,2.668,3.188,3.617,2.718,3.174,0,0,RETURNING,0.000,0.048,0.108,-1.088
21:07:42.053,RETURNING,6.411,3.228,2.450,0.00,0.00,-72.38,2.763,3.429,3.993,2.664,3.428,0,0,RETURNING,0.000,0.077,0.201,-0.982
21:07:42.254,RETURNING,6.415,3.210,2.496,0.00,0.00,-80.84,2.930,3.622,4.395,2.565,3.628,0,0,RETURNING,0.000,0.170,0.309,-0.855
21:07:42.454,RETURNING,6.419,3.176,2.566,0.00,0.00,-88.18,3.088,3.867,3.578,2.393,3.864,0,0,RETURNING,0.000,0.268,0.432,-0.769
21:07:42.656,RETURNING,6.417,3.126,2.663,0.00,0.00,-95.35,3.230,4.207,1.327,2.162,4.200,0,0,RETURNING,0.000,0.357,0.594,-0.788
21:07:42.855,RETURNING,6.408,3.064,2.789,0.00,0.00,-102.34,3.359,4.406,0.996,1.899,4.393,0,0,RETURNING,0.000,0.438,0.675,-0.715
21:07:43.055,RETURNING,6.388,2.991,2.926,0.00,0.00,-108.50,3.618,2.122,0.839,1.187,2.252,0,0,RETURNING,0.000,0.435,0.484,-0.621
21:07:43.256,RETURNING,6.369,2.940,2.986,0.00,0.00,-112.42,3.694,1.074,0.755,0.961,1.086,0,0,RETURNING,0.000,0.255,0.038,-0.139
21:07:43.457,RETURNING,6.356,2.907,2.985,0.00,0.00,-112.34,3.524,0.903,0.713,0.888,0.903,0,0,RETURNING,0.000,0.201,-0.016,0.126
21:07:43.658,RETURNING,6.343,2.875,2.983,0.00,0.00,-110.45,3.630,0.872,0.695,0.865,0.868,0,0,RETURNING,0.000,0.184,-0.004,0.222
21:07:43.859,RETURNING,6.331,2.841,2.983,0.00,0.00,-107.74,3.634,0.849,0.679,0.853,0.852,0,0,RETURNING,0.000,0.174,-0.001,0.260
21:07:44.059,RETURNING,6.322,2.808,2.983,0.00,0.00,-104.59,3.478,1.088,0.669,0.845,0.840,0,0,RETURNING,0.000,0.163,-0.000,0.306
21:07:44.261,RETURNING,6.314,2.778,2.993,0.00,0.00,-103.36,3.372,2.375,0.662,1.168,4.045,0,0,RETURNING,0.000,0.227,0.292,-0.244
21:07:44.461,RETURNING,6.304,2.738,3.077,0.00,0.00,-106.78,3.256,1.980,0.632,0.973,4.430,0,0,RETURNING,0.000,0.254,0.592,-0.431
21:07:44.661,RETURNING,6.292,2.703,3.199,0.00,0.00,-108.22,2.248,0.946,0.597,0.763,2.583,0,0,RETURNING,0.000,0.195,0.328,0.321
21:07:44.863,RETURNING,6.284,2.676,3.213,0.00,0.00,-103.11,1.631,1.256,0.580,0.640,3.423,0,0,RETURNING,0.000,0.165,-0.240,0.718
21:07:45.062,RETURNING,6.280,2.652,3.174,0.00,0.00,-98.97,1.820,1.788,0.591,0.706,4.124,0,0,RETURNING,0.000,0.153,0.001,-0.038
21:07:45.264,RETURNING,6.275,2.626,3.188,0.00,0.00,-101.15,1.839,1.815,0.580,0.708,4.162,0,0,RETURNING,0.000,0.169,0.154,-0.347
21:07:45.464,RETURNING,6.270,2.600,3.221,0.00,0.00,-104.61,1.624,1.618,0.549,0.638,4.265,0,0,RETURNING,0.000,0.164,0.138,-0.377
21:07:45.664,RETURNING,6.262,2.575,3.242,0.00,0.00,-107.92,1.440,1.471,0.514,0.571,4.387,0,0,RETURNING,0.000,0.159,0.041,0.071
21:07:45.864,RETURNING,6.255,2.551,3.249,0.00,0.00,-102.88,1.359,1.401,0.500,0.542,4.337,0,0,RETURNING,0.000,0.154,0.033,0.841
21:07:46.066,RETURNING,6.252,2.528,3.253,0.00,0.00,-94.12,1.342,1.351,0.511,0.532,4.026,0,0,RETURNING,0.000,0.130,-0.021,1.009
21:07:46.265,RETURNING,6.251,2.509,3.242,0.00,0.00,-86.89,1.405,1.381,1.276,0.532,3.751,0,0,RETURNING,0.000,0.099,-0.133,0.402
21:07:46.466,RETURNING,6.253,2.495,3.208,0.00,0.00,-84.85,1.619,1.556,1.556,0.605,3.602,0,0,RETURNING,0.000,0.087,-0.234,-0.162
21:07:46.666,RETURNING,6.253,2.480,3.162,0.00,0.00,-89.51,2.024,1.863,1.814,0.717,3.595,0,0,RETURNING,0.000,0.120,-0.136,-0.697
21:07:46.868,RETURNING,6.252,2.456,3.147,0.00,0.00,-96.46,2.135,2.038,1.473,0.771,3.701,0,0,RETURNING,0.000,0.181,0.036,-0.769
21:07:47.068,RETURNING,6.247,2.424,3.163,0.00,0.00,-103.35,2.049,2.035,1.065,0.752,3.939,0,0,RETURNING,0.000,0.227,0.144,-0.706
21:07:47.269,RETURNING,6.237,2.388,3.195,0.00,0.00,-109.04,1.845,1.677,0.486,0.689,4.228,0,0,RETURNING,0.000,0.210,0.179,-0.474
21:07:48.746,RETURNING,6.226,2.360,3.204,0.00,0.00,-112.49,1.684,1.457,0.393,0.633,1.887,0,0,RETURNING,0.000,0.179,-0.364,0.093
21:07:48.770,RETURNING,6.216,2.334,3.113,0.00,0.00,-107.24,1.684,1.457,0.393,0.633,1.887,0,0,RETURNING,0.000,0.166,-0.619,0.855
21:07:48.889,RETURNING,6.210,2.310,2.988,0.00,0.00,-101.84,2.852,2.642,0.931,1.043,3.642,0,0,RETURNING,0.000,0.213,-0.243,-0.012
21:07:49.080,RETURNING,6.199,2.262,2.987,0.00,0.00,-104.89,3.099,3.245,1.043,1.203,3.882,0,0,RETURNING,0.000,0.382,0.361,-0.523
21:07:49.282,RETURNING,6.179,2.197,3.078,0.00,0.00,-110.30,3.151,2.298,0.969,1.051,4.119,0,0,RETURNING,0.000,0.414,0.549,-0.608
21:07:49.482,RETURNING,6.158,2.147,3.169,0.00,0.00,-115.73,2.366,1.358,0.868,0.804,1.729,0,0,RETURNING,0.000,0.254,0.059,-0.321
21:07:49.683,RETURNING,6.143,2.116,3.146,0.00,0.00,-115.87,2.102,1.151,0.801,0.764,1.189,0,0,RETURNING,0.000,0.196,-0.315,0.196
21:07:49.885,RETURNING,6.130,2.089,3.080,0.00,0.00,-113.14,2.357,1.139,0.776,0.895,1.141,0,0,RETURNING,0.000,0.177,-0.278,0.357
21:07:50.084,RETURNING,6.120,2.064,3.033,0.00,0.00,-109.80,2.847,1.159,0.796,1.043,1.163,0,0,RETURNING,0.000,0.164,-0.147,0.335
21:07:50.284,RETURNING,6.112,2.040,3.023,0.00,0.00,-108.99,3.049,2.147,0.815,1.101,3.728,0,0,RETURNING,0.000,0.192,0.195,-0.272
21:07:50.486,RETURNING,6.099,2.004,3.084,0.00,0.00,-112.79,2.861,1.509,0.787,1.016,3.232,0,0,RETURNING,0.000,0.232,0.372,-0.479
21:07:50.684,RETURNING,6.085,1.975,3.134,0.00,0.00,-115.22,2.288,1.106,0.729,0.855,1.311,0,0,RETURNING,0.000,0.185,-0.065,0.116
21:07:50.885,RETURNING,6.074,1.949,3.106,0.00,0.00,-112.45,2.242,1.045,0.709,0.877,1.070,0,0,RETURNING,0.000,0.170,-0.183,0.421
21:07:51.086,RETURNING,6.065,1.924,3.071,0.00,0.00,-108.25,2.732,1.922,0.740,0.956,3.326,0,0,RETURNING,0.000,0.176,-0.061,0.161
21:07:51.288,RETURNING,6.053,1.891,3.083,0.00,0.00,-109.91,2.935,2.389,0.747,0.956,3.862,0,0,RETURNING,0.000,0.272,0.277,-0.381
21:07:51.487,RETURNING,6.037,1.850,3.151,0.00,0.00,-114.01,2.424,1.468,0.702,0.837,3.215,0,0,RETURNING,0.000,0.238,0.287,-0.172
21:07:51.688,RETURNING,6.024,1.820,3.171,0.00,0.00,-112.32,2.008,1.000,0.661,0.735,1.197,0,0,RETURNING,0.000,0.180,-0.246,0.428
21:07:51.889,RETURNING,6.015,1.795,3.121,0.00,0.00,-107.46,2.350,1.683,0.672,0.804,3.744,0,0,RETURNING,0.000,0.160,-0.074,0.244
21:07:52.090,RETURNING,6.006,1.769,3.128,0.00,0.00,-108.59,2.731,2.082,0.690,0.829,3.761,0,0,RETURNING,0.000,0.203,0.170,-0.343
21:07:52.291,RETURNING,5.994,1.736,3.167,0.00,0.00,-112.46,2.278,1.692,0.643,0.748,3.984,0,0,RETURNING,0.000,0.209,0.212,-0.442
21:07:52.492,RETURNING,5.982,1.708,3.207,0.00,0.00,-113.77,1.820,1.045,0.601,0.664,4.118,0,0,RETURNING,0.000,0.174,0.152,0.348
21:07:52.693,RETURNING,5.972,1.683,3.230,0.00,0.00,-108.54,1.576,1.238,0.599,0.592,4.037,0,0,RETURNING,0.000,0.155,0.009,0.699
21:07:52.893,RETURNING,5.966,1.661,3.220,0.00,0.00,-101.86,1.534,1.424,0.654,0.582,3.654,0,0,RETURNING,0.000,0.132,-0.159,0.708
21:07:53.097,RETURNING,5.963,1.642,3.178,0.00,0.00,-98.79,1.765,1.689,1.245,0.666,3.363,0,0,RETURNING,0.000,0.122,-0.250,-0.250
21:07:53.297,RETURNING,5.958,1.620,3.133,0.00,0.00,-103.41,2.454,1.998,1.178,0.782,3.372,0,0,RETURNING,0.000,0.166,-0.123,-0.641
21:07:53.498,RETURNING,5.950,1.591,3.120,0.00,0.00,-109.51,2.664,2.127,0.723,0.832,3.550,0,0,RETURNING,0.000,0.217,0.050,-0.628
21:07:53.698,RETURNING,5.936,1.556,3.142,0.00,0.00,-114.64,2.250,2.068,0.574,0.812,3.879,0,0,RETURNING,0.000,0.246,0.203,-0.470
21:07:53.899,RETURNING,5.919,1.522,3.186,0.00,0.00,-118.34,1.838,1.586,0.507,0.713,3.988,0,0,RETURNING,0.000,0.209,0.198,-0.332
21:07:54.101,RETURNING,5.904,1.495,3.218,0.00,0.00,-117.86,1.565,0.815,0.463,0.627,3.339,0,0,RETURNING,0.000,0.180,-0.020,0.618
21:07:54.301,RETURNING,5.893,1.471,3.198,0.00,0.00,-110.08,1.592,1.398,0.472,0.629,3.838,0,0,RETURNING,0.000,0.158,-0.148,0.984
21:07:54.501,RETURNING,5.886,1.448,3.170,0.00,0.00,-104.08,2.125,1.710,0.903,0.687,3.533,0,0,RETURNING,0.000,0.139,-0.118,-0.000
21:07:54.701,RETURNING,5.880,1.425,3.149,0.00,0.00,-107.25,2.523,1.890,1.821,0.753,3.400,0,0,RETURNING,0.000,0.186,-0.065,-0.565
21:07:54.902,RETURNING,5.869,1.394,3.142,0.00,0.00,-112.95,2.232,1.989,0.637,0.771,3.635,0,0,RETURNING,0.000,0.213,0.032,-0.574
21:07:55.103,RETURNING,5.854,1.362,3.154,0.00,0.00,-117.34,2.035,1.949,0.449,0.742,3.783,0,0,RETURNING,0.000,0.224,0.099,-0.376
21:07:55.304,RETURNING,5.837,1.331,3.174,0.00,0.00,-120.30,1.882,1.827,0.391,0.685,3.896,0,0,RETURNING,0.000,0.218,0.076,-0.284
21:07:55.505,RETURNING,5.820,1.303,3.185,0.00,0.00,-122.70,1.729,1.534,0.352,0.644,3.923,0,0,RETURNING,0.000,0.189,0.008,-0.243
21:07:55.706,RETURNING,5.801,1.275,3.182,0.00,0.00,-122.09,1.717,1.601,0.321,0.617,4.027,0,0,RETURNING,0.000,0.181,-0.047,0.233
21:07:55.906,RETURNING,5.786,1.250,3.173,0.00,0.00,-122.03,1.798,1.796,0.307,0.659,3.912,0,0,RETURNING,0.000,0.188,-0.020,-0.126
21:07:56.108,RETURNING,5.767,1.221,3.171,0.00,0.00,-123.85,1.810,1.834,0.287,0.668,3.909,0,0,RETURNING,0.000,0.204,-0.005,-0.205
21:07:56.312,RETURNING,5.743,1.187,3.171,0.00,0.00,-126.24,1.779,1.858,0.257,0.665,3.946,0,0,RETURNING,0.000,0.217,-0.001,-0.207
21:07:56.512,RETURNING,5.716,1.151,3.171,0.00,0.00,-128.56,1.785,1.879,0.231,0.661,4.005,0,0,RETURNING,0.000,0.228,-0.000,-0.191
21:07:56.712,RETURNING,5.687,1.116,3.171,0.00,0.00,-130.65,1.767,1.835,0.280,0.642,4.048,0,0,RETURNING,0.000,0.235,-0.000,-0.167
21:07:56.914,RETURNING,5.655,1.080,3.171,0.00,0.00,-132.44,1.812,1.932,0.300,0.643,4.108,0,0,RETURNING,0.000,0.252,-0.000,-0.140
21:07:57.122,RETURNING,5.623,1.046,3.173,0.00,0.00,-133.82,1.782,2.129,0.534,0.645,3.562,0,0,RETURNING,0.000,0.290,-0.037,-0.130
21:07:57.325,RETURNING,5.611,1.012,3.159,0.03,-0.02,-142.68,1.676,7.631,1.421,5.434,5.026,0,0,RETURNING,0.000,0.555,-0.120,-0.258
21:07:57.526,RETURNING,5.598,0.966,3.113,0.12,-0.03,-160.89,7.012,9.721,8.991,9.463,7.707,0,0,RETURNING,0.000,0.714,-0.508,-0.033
21:07:57.771,INSPECTING,5.585,0.944,3.020,0.20,-0.01,-171.10,2.142,1.823,4.978,1.813,1.657,1,0,INSPECT_RIGHT,0.000,0.457,-0.135,-0.160
21:07:57.928,INSPECTING,5.577,0.932,3.002,0.25,-0.21,-177.47,1.053,0.931,4.162,0.925,0.907,0,0,INSPECT_RIGHT,0.000,0.399,-0.032,-0.418
21:07:58.130,INSPECTING,5.577,0.932,2.997,0.18,-0.35,-177.70,0.826,0.587,9.235,0.740,0.768,0,0,INSPECT_RIGHT,0.000,0.400,-0.008,-0.480
21:07:58.331,INSPECTING,5.578,0.932,2.997,0.13,-0.42,-178.05,0.803,0.723,9.910,0.736,0.759,0,0,INSPECT_RIGHT,0.000,0.400,-0.002,-0.495
21:07:58.528,INSPECTING,5.578,0.932,2.997,0.12,-0.43,-178.31,0.799,0.738,9.985,0.736,0.759,0,0,INSPECT_RIGHT,0.000,0.400,-0.000,-0.499
21:07:58.729,INSPECTING,5.578,0.933,2.997,0.11,-0.44,-178.44,0.797,0.743,9.998,0.735,0.755,0,0,INSPECT_RIGHT,0.000,0.400,-0.000,-0.500
21:07:58.929,INSPECTING,5.578,0.934,2.997,0.10,-0.45,-178.41,0.797,0.743,10.000,0.739,0.750,0,0,INSPECT_RIGHT,0.000,0.400,-0.000,-0.500
21:07:59.129,INSPECTING,5.578,0.935,2.997,0.10,-0.45,-178.21,0.797,0.742,10.000,0.742,0.751,0,0,INSPECT_RIGHT,0.000,0.400,-0.000,-0.500
21:07:59.330,INSPECTING,5.577,0.936,2.997,0.11,-0.45,-177.84,0.799,0.745,10.000,0.743,0.752,0,0,INSPECT_RIGHT,0.000,0.400,-0.000,-0.500
21:07:59.532,INSPECTING,5.577,0.938,2.997,0.11,-0.45,-177.33,0.802,0.751,1.816,0.743,0.756,0,0,INSPECT_RIGHT,0.000,0.389,-0.000,-0.500
21:07:59.732,INSPECTING,5.577,0.939,2.997,0.13,-0.40,-177.09,0.805,0.758,0.888,0.748,0.753,0,0,INSPECT_RIGHT,0.000,0.275,-0.000,-0.500
21:07:59.934,INSPECTING,5.577,0.939,2.997,0.13,-0.26,-178.01,0.803,0.760,0.790,0.747,0.753,0,0,INSPECT_RIGHT,0.000,0.190,-0.000,-0.500
21:08:00.134,INSPECTING,5.578,0.937,2.998,0.14,-0.21,-179.47,0.794,0.759,0.755,0.745,0.749,0,0,INSPECT_RIGHT,0.000,0.161,-0.000,-0.500
21:08:00.335,INSPECTING,5.578,0.936,2.998,0.14,-0.20,178.93,0.786,0.751,0.739,0.750,0.751,0,0,INSPECT_RIGHT,0.000,0.152,-0.000,-0.500
21:08:00.538,INSPECTING,5.579,0.934,2.998,0.13,-0.19,177.34,0.774,0.725,0.718,0.727,0.729,0,0,INSPECT_RIGHT,0.000,0.147,-0.000,-0.500
21:08:00.739,INSPECTING,5.580,0.933,2.998,0.13,-0.19,175.78,0.762,0.702,0.699,0.702,0.704,0,0,INSPECT_RIGHT,0.000,0.142,-0.000,-0.500
21:08:00.940,INSPECTING,5.580,0.931,2.998,0.14,-0.19,174.24,0.750,0.700,0.697,0.673,0.701,0,0,INSPECT_RIGHT,0.000,0.140,-0.000,-0.500
21:08:01.141,INSPECTING,5.581,0.930,2.998,0.14,-0.19,172.78,0.743,0.645,0.688,0.698,0.647,0,0,INSPECT_RIGHT,0.000,0.139,-0.000,-0.500
21:08:01.340,INSPECTING,5.581,0.928,2.998,0.15,-0.19,171.38,0.724,0.692,0.677,0.703,0.697,0,0,INSPECT_RIGHT,0.000,0.137,-0.000,-0.500
21:08:01.541,INSPECTING,5.582,0.927,2.998,0.15,-0.18,170.04,0.728,0.699,0.668,0.704,0.702,0,0,INSPECT_RIGHT,0.000,0.135,-0.000,-0.500
21:08:01.790,TURNING,5.582,0.926,2.998,0.16,-0.18,168.76,0.723,0.700,0.660,0.704,0.705,0,0,TURNING,0.000,0.109,-0.000,-0.770
21:08:01.943,TURNING,5.583,0.921,2.998,0.08,-0.16,164.92,0.718,0.591,5.436,0.702,0.704,0,0,TURNING,0.000,0.070,-0.000,-1.184
21:08:02.144,TURNING,5.585,0.911,2.998,0.03,-0.15,157.54,6.813,8.419,9.233,8.437,8.438,0,0,TURNING,0.000,0.055,-0.000,-1.348
21:08:02.344,TURNING,5.585,0.899,2.998,0.01,-0.15,149.50,9.738,9.870,5.147,9.871,9.871,0,0,TURNING,0.000,0.051,-0.000,-1.388
21:08:02.546,TURNING,5.585,0.887,2.998,0.02,-0.17,141.58,9.956,9.978,1.143,9.978,9.978,0,0,TURNING,0.000,0.050,-0.000,-1.397
21:08:02.746,TURNING,5.582,0.876,2.998,0.00,-0.15,133.78,9.995,5.023,0.374,5.017,7.953,0,0,TURNING,0.000,0.050,-0.000,-1.399
21:08:02.947,TURNING,5.579,0.864,2.998,-0.01,-0.17,126.29,3.588,0.800,0.353,0.792,1.178,0,0,TURNING,0.000,0.050,-0.000,-1.400
21:08:03.195,TURNING,5.575,0.853,2.998,-0.00,-0.17,118.80,0.535,0.409,0.487,0.414,0.337,1,0,TURNING,0.000,0.050,-0.000,-1.400
21:08:03.397,TURNING,5.569,0.842,2.998,-0.01,-0.18,111.52,0.405,0.413,0.596,0.846,0.315,1,0,TURNING,0.000,0.050,-0.000,-1.400
21:08:03.646,TURNING,5.561,0.830,2.998,0.19,-0.00,102.69,0.274,0.517,0.586,0.345,0.263,1,0,TURNING,0.000,0.050,-0.000,-1.400
21:08:03.751,TURNING,5.556,0.823,2.998,-0.00,-0.19,97.58,0.239,0.560,0.732,0.372,0.263,0,0,TURNING,0.000,0.050,-0.000,-1.400
21:08:03.953,TURNING,5.549,0.815,2.998,-0.01,-0.20,91.62,0.245,0.457,0.809,0.381,0.440,0,0,TURNING,0.000,0.050,-0.000,-1.400
21:08:04.154,TURNING,5.543,0.806,2.998,-0.02,-0.20,86.63,0.230,0.474,0.874,0.380,0.432,0,0,TURNING,0.000,0.050,-0.000,-1.400
21:08:04.354,TURNING,5.537,0.799,2.998,-0.00,-0.19,81.50,0.242,0.732,0.953,0.721,0.725,0,0,TURNING,0.000,0.050,-0.000,-1.400
21:08:04.556,TURNING,5.530,0.792,2.998,-0.01,-0.17,76.23,0.362,0.801,1.052,0.800,0.800,0,0,TURNING,0.000,0.050,-0.000,-1.400
21:08:04.757,TURNING,5.523,0.785,2.998,0.00,-0.17,70.83,0.640,0.859,3.790,0.859,0.859,0,0,TURNING,0.000,0.050,-0.000,-1.400
21:08:04.958,TURNING,5.515,0.780,2.998,0.02,-0.16,65.35,0.700,0.932,4.095,0.928,0.931,0,0,TURNING,0.000,0.050,-0.000,-1.400
21:08:05.160,TURNING,5.508,0.776,2.998,0.35,0.29,58.76,0.744,1.033,4.075,1.033,1.031,0,0,TURNING,0.000,0.050,-0.000,-1.400
21:08:05.366,TURNING,5.512,0.782,2.998,0.34,0.23,44.40,0.846,3.288,3.846,1.165,4.191,0,0,TURNING,0.000,0.050,-0.000,-1.400
21:08:05.566,TURNING,5.520,0.788,2.998,0.34,0.23,28.36,3.206,3.668,3.137,1.207,4.358,0,0,TURNING,0.000,0.050,-0.000,-1.400
21:08:05.817,RETURNING,5.529,0.791,2.998,0.34,0.23,12.32,3.591,3.392,2.728,1.213,3.493,0,0,TURNING,0.000,0.035,-0.000,-0.980
21:08:05.968,RETURNING,5.534,0.793,3.020,0.34,0.23,16.91,3.540,3.114,2.508,1.178,3.141,0,0,RETURNING,0.000,0.046,0.250,1.329
21:08:06.170,RETURNING,5.541,0.796,3.074,0.34,0.23,31.96,2.957,3.175,2.674,1.047,3.464,0,0,RETURNING,0.000,0.049,0.299,1.791
21:08:06.369,RETURNING,5.547,0.801,3.141,0.33,0.23,48.64,2.422,2.493,2.566,0.873,4.262,0,0,RETURNING,0.000,0.050,0.429,1.785
21:08:06.568,RETURNING,5.552,0.807,3.231,0.33,0.23,64.43,1.007,1.668,1.793,0.664,4.750,0,0,RETURNING,0.000,0.050,0.428,1.614
21:08:06.768,RETURNING,5.555,0.815,3.275,0.33,0.23,74.23,0.724,0.997,1.438,0.495,1.360,0,0,RETURNING,0.000,0.050,-0.320,0.249
21:08:06.968,RETURNING,5.557,0.822,3.185,0.33,0.23,72.39,0.627,0.866,1.735,0.610,0.908,0,0,RETURNING,0.000,0.050,-0.544,-0.516
21:08:07.169,RETURNING,5.560,0.830,3.086,0.33,0.23,66.91,0.670,0.887,2.599,0.835,0.893,0,0,RETURNING,0.000,0.050,-0.286,-0.593
21:08:07.370,RETURNING,5.563,0.837,3.047,0.33,0.23,61.89,0.702,0.961,3.205,0.954,0.960,0,0,RETURNING,0.000,0.050,-0.076,-0.466
21:08:07.571,RETURNING,5.567,0.844,3.037,0.33,0.23,58.25,0.733,2.572,3.192,1.020,3.231,0,0,RETURNING,0.000,0.050,0.052,0.198
21:08:07.772,RETURNING,5.571,0.851,3.072,0.33,0.23,65.72,0.727,2.342,3.167,1.010,2.538,0,0,RETURNING,0.000,0.050,0.246,1.151
21:08:07.972,RETURNING,5.574,0.859,3.099,0.33,0.23,73.09,0.668,1.042,3.127,0.885,1.064,0,0,RETURNING,0.000,0.050,-0.067,0.136
21:08:08.173,RETURNING,5.576,0.866,3.081,0.33,0.23,72.05,0.643,0.850,3.707,0.832,0.852,0,0,RETURNING,0.000,0.050,-0.058,-0.236
21:08:08.375,RETURNING,5.579,0.874,3.073,0.33,0.23,69.49,0.642,0.843,3.775,0.843,0.841,0,0,RETURNING,0.000,0.050,-0.014,-0.301
21:08:08.575,RETURNING,5.582,0.882,3.072,0.33,0.23,66.33,0.652,0.870,3.509,0.869,0.869,0,0,RETURNING,0.000,0.050,-0.003,-0.326
21:08:08.777,RETURNING,5.586,0.891,3.072,0.33,0.23,62.28,0.667,0.916,3.038,0.917,0.915,0,0,RETURNING,0.000,0.050,-0.001,-0.404
21:08:08.977,RETURNING,5.591,0.900,3.072,0.33,0.23,57.48,0.696,2.858,2.883,0.968,3.239,0,0,RETURNING,0.000,0.050,0.058,0.144
21:08:09.178,RETURNING,5.595,0.907,3.106,0.33,0.23,64.59,0.697,2.748,2.680,0.946,3.266,0,0,RETURNING,0.000,0.050,0.295,1.120
21:08:09.379,RETURNING,5.598,0.914,3.142,0.33,0.23,75.77,0.636,1.057,2.392,0.826,1.119,0,0,RETURNING,0.000,0.050,-0.100,0.672
21:08:09.633,INSPECTING,5.600,0.922,3.114,0.33,0.23,76.42,0.593,0.780,3.484,0.751,0.787,0,0,RETURNING,0.000,0.035,-0.121,-0.250
21:08:09.781,INSPECTING,5.607,0.949,3.097,0.33,0.23,73.78,0.586,0.745,3.852,0.741,0.746,0,0,INSPECT_RIGHT,0.000,0.312,-0.029,-0.440
21:08:09.981,INSPECTING,5.625,1.003,3.094,0.33,0.23,69.48,0.571,0.740,3.857,0.740,0.741,0,0,INSPECT_RIGHT,0.000,0.379,-0.007,-0.486
21:08:10.183,INSPECTING,5.655,1.074,3.094,0.33,0.23,63.86,0.554,0.743,3.380,0.743,0.743,0,0,INSPECT_RIGHT,0.000,0.395,-0.002,-0.497
21:08:10.384,RETURNING,5.693,1.143,3.094,0.33,0.23,58.15,0.542,2.293,2.680,0.809,2.464,0,0,INSPECT_RIGHT,0.000,0.399,-0.000,-0.499
21:08:10.583,RETURNING,5.712,1.175,3.099,0.33,0.23,61.73,0.525,3.575,2.574,0.952,4.032,0,0,RETURNING,0.000,0.134,0.239,0.895
21:08:10.783,RETURNING,5.718,1.189,3.144,0.33,0.23,71.53,0.475,1.322,2.383,0.684,1.404,0,0,RETURNING,0.000,0.070,-0.119,0.462
21:08:11.039,INSPECTING,5.722,1.198,3.088,0.33,0.23,69.19,0.442,0.695,3.288,0.590,0.711,0,0,RETURNING,0.000,0.040,-0.376,-0.619
21:08:11.186,INSPECTING,5.732,1.224,3.034,0.33,0.23,65.37,0.442,0.599,3.764,0.593,0.601,0,0,INSPECT_RIGHT,0.000,0.314,-0.090,-0.529
21:08:11.386,INSPECTING,5.758,1.274,3.023,0.33,0.23,60.65,0.439,2.117,3.725,0.592,2.163,0,0,INSPECT_RIGHT,0.000,0.379,-0.022,-0.507
21:08:11.588,RETURNING,5.790,1.328,3.020,0.33,0.23,56.03,0.431,3.584,3.642,1.071,3.879,0,0,INSPECT_RIGHT,0.000,0.395,-0.005,-0.502
21:08:11.789,RETURNING,5.811,1.358,3.057,0.33,0.22,59.95,0.416,3.645,3.642,1.083,4.447,0,0,RETURNING,0.000,0.133,0.513,0.961
21:08:11.989,RETURNING,5.817,1.372,3.168,0.33,0.22,70.52,0.367,2.558,2.793,0.712,2.664,0,0,RETURNING,0.000,0.070,0.270,1.214
21:08:12.236,INSPECTING,5.820,1.381,3.168,0.33,0.22,76.36,0.325,0.661,2.707,0.443,0.674,0,0,RETURNING,0.000,0.040,-0.259,-0.245
21:08:12.390,TURNING,5.822,1.391,3.130,0.33,0.22,74.15,0.311,0.423,3.209,0.397,0.425,0,0,TURNING,0.000,0.098,-0.089,-0.871
21:08:12.592,TURNING,5.826,1.403,3.118,0.32,0.22,63.84,0.316,0.418,3.363,0.413,0.417,0,0,TURNING,0.000,0.062,-0.021,-1.273
21:08:12.791,TURNING,5.831,1.410,3.115,0.32,0.22,51.61,0.353,3.131,3.017,0.824,3.666,0,0,TURNING,0.000,0.053,-0.005,-1.370
21:08:12.993,TURNING,5.838,1.418,3.115,0.32,0.22,35.79,2.693,2.547,2.605,0.869,4.128,0,0,TURNING,0.000,0.051,-0.001,-1.393
21:08:13.194,TURNING,5.847,1.422,3.115,0.32,0.22,19.80,2.473,2.532,2.678,0.890,3.747,0,0,TURNING,0.000,0.050,-0.000,-1.398
21:08:13.397,TURNING,5.857,1.425,3.115,0.32,0.22,3.77,2.533,2.731,2.529,0.896,3.123,0,0,TURNING,0.000,0.050,-0.000,-1.400
21:08:13.600,TURNING,5.867,1.424,3.115,0.32,0.22,-12.27,2.736,2.727,2.397,0.895,2.795,0,0,TURNING,0.000,0.050,-0.000,-1.400
21:08:13.800,TURNING,5.876,1.421,3.115,0.32,0.22,-28.31,2.722,2.615,2.332,0.899,2.680,0,0,TURNING,0.000,0.050,-0.000,-1.400
21:08:14.001,TURNING,5.884,1.415,3.115,0.32,0.22,-44.35,2.516,2.474,2.375,0.893,2.552,0,0,TURNING,0.000,0.050,-0.000,-1.400
21:08:14.201,TURNING,5.891,1.407,3.115,0.31,0.22,-60.40,2.371,2.435,2.491,0.871,2.525,0,0,TURNING,0.000,0.050,-0.000,-1.400
21:08:14.403,TURNING,5.894,1.398,3.115,0.31,0.22,-76.44,2.279,2.517,2.658,0.868,2.633,0,0,TURNING,0.000,0.050,-0.000,-1.400
21:08:14.605,TURNING,5.896,1.388,3.115,0.31,0.21,-92.48,2.326,2.600,2.314,0.864,2.833,0,0,TURNING,0.000,0.050,-0.000,-1.400
21:08:14.806,RETURNING,5.893,1.376,3.115,0.31,0.21,-107.45,2.477,2.314,2.218,0.868,3.103,0,0,RETURNING,0.000,0.183,-0.000,-0.873
21:08:15.007,RETURNING,5.877,1.335,3.120,0.31,0.21,-115.82,2.378,2.209,0.932,0.834,3.581,0,0,RETURNING,0.000,0.294,0.101,-0.701
21:08:15.208,RETURNING,5.854,1.293,3.146,0.31,0.21,-121.17,2.148,2.100,0.466,0.778,3.792,0,0,RETURNING,0.000,0.290,0.166,-0.427
21:08:15.408,RETURNING,5.831,1.256,3.179,0.31,0.21,-124.21,1.862,1.863,0.358,0.687,3.946,0,0,RETURNING,0.000,0.255,0.127,-0.268
21:08:15.608,RETURNING,5.809,1.225,3.198,0.31,0.21,-126.38,1.702,1.721,0.322,0.627,3.991,0,0,RETURNING,0.000,0.219,0.018,-0.213
21:08:15.809,RETURNING,5.789,1.198,3.194,0.31,0.21,-128.20,1.668,1.710,0.292,0.615,4.040,0,0,RETURNING,0.000,0.202,-0.067,-0.186
21:08:16.011,RETURNING,5.768,1.173,3.182,0.31,0.21,-129.83,1.700,1.720,0.265,0.633,4.099,0,0,RETURNING,0.000,0.203,-0.024,-0.168
21:08:16.210,RETURNING,5.747,1.148,3.179,0.31,0.21,-131.31,1.701,1.712,0.238,0.632,4.135,0,0,RETURNING,0.000,0.204,-0.006,-0.154
21:08:16.411,RETURNING,5.720,1.118,3.179,0.31,0.21,-133.02,1.704,1.071,0.295,0.624,4.146,0,0,RETURNING,0.000,0.204,-0.001,0.218
21:08:16.612,RETURNING,5.693,1.087,3.179,0.31,0.21,-126.89,1.699,1.373,2.615,0.638,4.087,0,0,RETURNING,0.000,0.199,-0.000,0.576
21:08:16.812,RETURNING,5.672,1.057,3.178,0.31,0.21,-124.33,1.727,1.773,1.304,0.643,3.812,0,0,RETURNING,0.000,0.228,-0.047,-0.207
21:08:17.012,RETURNING,5.649,1.025,3.166,0.31,0.21,-127.60,1.831,1.782,1.071,0.676,3.826,0,0,RETURNING,0.000,0.252,-0.044,-0.426
21:08:17.213,RETURNING,5.624,0.994,3.160,0.31,0.21,-131.62,1.851,1.626,1.000,0.694,3.908,0,0,RETURNING,0.000,0.241,0.009,-0.429
21:08:17.414,RETURNING,5.615,0.972,3.166,0.31,-0.24,-137.83,1.809,1.348,0.911,0.683,2.621,0,0,RETURNING,0.000,0.218,-0.087,-0.190
21:08:17.614,RETURNING,5.614,0.956,3.120,0.35,-0.23,-143.29,1.875,1.178,0.833,0.748,1.328,0,0,RETURNING,0.000,0.219,-0.424,0.218
21:08:17.815,RETURNING,5.612,0.943,3.038,0.37,-0.20,-148.18,2.117,1.067,0.784,0.940,1.083,0,0,RETURNING,0.000,0.226,-0.277,0.358
21:08:18.015,RETURNING,5.609,0.931,2.998,0.43,-0.18,-152.99,2.336,0.981,0.749,0.965,0.983,0,0,RETURNING,0.000,0.233,-0.078,0.413
21:08:18.217,RETURNING,5.605,0.918,2.988,0.48,-0.16,-157.84,1.342,0.916,0.734,0.915,0.917,0,0,RETURNING,0.000,0.240,-0.019,0.463
21:08:18.418,RETURNING,5.599,0.905,2.987,0.54,-0.12,-163.43,1.125,0.859,0.711,0.856,0.859,0,0,RETURNING,0.000,0.245,-0.004,0.450
21:08:18.618,RETURNING,5.590,0.890,2.987,0.61,-0.06,-170.02,0.991,0.806,0.527,0.805,0.806,0,0,RETURNING,0.000,0.248,-0.001,0.526
21:08:18.819,INSPECTING,5.582,0.878,2.987,0.70,-0.01,-175.57,0.881,0.762,0.781,0.757,0.745,0,0,INSPECT_LEFT,0.000,0.177,-0.000,0.542
21:08:19.020,INSPECTING,5.580,0.875,2.988,0.64,0.31,-177.02,0.843,0.750,0.861,0.748,0.737,0,0,INSPECT_LEFT,0.000,0.173,-0.000,0.510
21:08:19.220,INSPECTING,5.580,0.873,2.988,0.71,0.26,-177.38,0.833,0.759,4.701,0.745,0.746,0,0,INSPECT_RIGHT,0.000,0.239,-0.000,0.202
21:08:19.521,INSPECTING,5.573,0.858,2.987,0.89,0.07,173.89,0.802,0.661,0.722,0.742,0.745,1,0,INSPECT_RIGHT,0.000,0.279,-0.000,-0.331
21:08:19.678,INSPECTING,5.567,0.850,2.988,0.91,0.37,168.69,0.757,0.599,0.373,0.703,0.520,1,0,INSPECT_LEFT,0.000,0.184,-0.000,0.300
21:08:19.900,TURNING,5.565,0.846,2.988,0.98,0.28,166.66,0.736,0.374,0.365,0.651,0.351,1,0,TURNING,0.000,0.111,-0.000,-0.537
21:08:20.073,TURNING,5.559,0.840,2.987,0.69,0.02,161.48,0.726,0.323,0.366,0.474,0.309,1,0,TURNING,0.000,0.065,-0.000,-1.193
21:08:20.227,TURNING,5.549,0.839,2.987,0.56,-0.01,148.59,0.659,4.343,7.493,1.023,4.882,0,0,TURNING,0.000,0.053,-0.000,-1.350
21:08:20.429,TURNING,5.542,0.837,2.987,0.75,0.07,135.32,6.691,7.077,4.863,9.245,8.659,0,0,TURNING,0.000,0.051,-0.000,-1.388
21:08:20.629,TURNING,5.534,0.831,2.987,0.70,0.07,123.43,4.191,1.378,3.952,1.767,1.687,0,0,TURNING,0.000,0.050,-0.000,-1.397
21:08:20.829,TURNING,5.525,0.825,2.987,0.67,0.09,112.70,8.123,0.995,2.455,5.589,0.531,0,0,TURNING,0.000,0.050,-0.000,-1.399
21:08:22.309,TURNING,5.515,0.820,2.987,0.65,0.11,102.76,1.717,0.388,0.972,1.152,0.310,0,0,TURNING,0.000,0.050,-0.000,-1.400
21:08:22.411,TURNING,5.509,0.817,2.987,0.17,-0.10,97.99,1.717,0.388,0.972,1.152,0.310,1,0,TURNING,0.000,0.050,-0.000,-1.400
21:08:22.449,TURNING,5.497,0.806,2.987,0.41,-0.11,88.62,1.275,0.496,0.932,1.033,0.442,0,0,TURNING,0.000,0.050,-0.000,-1.400
21:08:22.640,TURNING,5.491,0.798,2.987,0.36,-0.14,83.59,7.748,0.730,0.909,0.778,0.727,0,0,TURNING,0.000,0.050,-0.000,-1.400
21:08:22.841,TURNING,5.484,0.791,2.987,0.34,-0.08,78.55,1.572,0.764,0.980,0.771,0.762,0,0,TURNING,0.000,0.050,-0.000,-1.400
21:08:23.042,TURNING,5.476,0.785,2.987,0.32,-0.06,73.34,0.718,0.822,1.060,0.819,0.818,0,0,TURNING,0.000,0.050,-0.000,-1.400
21:08:23.244,TURNING,5.469,0.779,2.987,0.30,-0.03,67.85,0.758,0.872,3.928,0.873,0.868,0,0,TURNING,0.000,0.050,-0.000,-1.400
21:08:23.445,TURNING,5.461,0.775,2.987,0.32,0.02,61.90,0.718,0.954,4.097,0.952,0.949,0,0,TURNING,0.000,0.050,-0.000,-1.400
21:08:23.651,TURNING,5.456,0.771,2.987,0.61,0.47,54.28,0.760,1.081,4.081,1.079,2.134,0,0,TURNING,0.000,0.050,-0.000,-1.400
21:08:23.851,TURNING,5.456,0.771,2.988,1.04,1.22,42.96,0.881,3.486,3.723,1.204,4.369,0,0,TURNING,0.000,0.050,-0.000,-1.400
21:08:24.049,TURNING,5.464,0.777,2.988,1.07,1.29,27.07,2.747,3.629,3.146,1.225,4.386,0,0,TURNING,0.000,0.050,-0.000,-1.400
21:08:24.308,RETURNING,5.473,0.780,2.988,1.07,1.28,11.03,3.429,3.430,2.754,1.225,3.547,0,0,TURNING,0.000,0.035,-0.000,-0.980
21:08:24.452,RETURNING,5.477,0.781,3.012,1.07,1.28,15.78,3.422,3.143,2.536,1.188,3.192,0,0,RETURNING,0.000,0.046,0.270,1.348
21:08:24.652,RETURNING,5.485,0.784,3.070,1.06,1.28,31.03,2.841,3.052,2.693,1.056,3.441,0,0,RETURNING,0.000,0.049,0.312,1.811
21:08:24.854,RETURNING,5.495,0.788,3.138,0.19,0.39,45.65,2.315,2.483,2.628,0.884,4.322,0,0,RETURNING,0.000,0.050,0.439,1.812
21:08:25.057,RETURNING,5.513,0.790,3.230,0.16,0.36,54.74,1.056,1.793,1.807,0.661,4.686,0,0,RETURNING,0.000,0.050,0.418,1.690
21:08:25.258,RETURNING,5.529,0.795,3.310,0.13,0.35,63.05,0.814,1.227,2.082,0.449,3.762,0,0,RETURNING,0.000,0.050,0.230,0.988
21:08:25.458,RETURNING,5.536,0.798,3.311,0.01,0.14,65.89,0.737,1.025,3.760,0.394,1.325,0,0,RETURNING,0.000,0.050,-0.422,0.081
21:08:25.660,RETURNING,5.539,0.805,3.208,0.00,0.15,64.94,0.716,0.979,1.969,0.534,1.013,0,0,RETURNING,0.000,0.050,-0.599,-0.318
21:08:25.861,RETURNING,5.543,0.813,3.090,0.00,0.15,61.07,0.727,1.004,2.354,0.819,1.009,0,0,RETURNING,0.000,0.050,-0.439,-0.464
21:08:26.063,RETURNING,5.547,0.820,3.024,0.00,0.15,56.95,0.760,3.313,2.985,1.055,3.789,0,0,RETURNING,0.000,0.050,-0.007,0.154
21:08:26.264,RETURNING,5.551,0.826,3.063,0.00,0.15,64.28,0.754,2.990,2.955,1.050,3.374,0,0,RETURNING,0.000,0.050,0.390,1.152
21:08:26.464,RETURNING,5.559,0.835,3.120,-0.13,0.00,73.54,0.689,1.152,2.494,0.903,1.198,0,0,RETURNING,0.000,0.050,-0.009,0.741
21:08:26.667,RETURNING,5.562,0.841,3.108,0.03,-0.08,74.64,0.564,0.863,2.856,0.831,0.868,0,0,RETURNING,0.000,0.050,-0.078,-0.313
21:08:26.868,RETURNING,5.565,0.849,3.095,0.03,-0.08,70.09,0.637,0.839,2.631,0.837,0.841,0,0,RETURNING,0.000,0.050,-0.024,-0.564
21:08:27.068,RETURNING,5.568,0.856,3.093,0.03,-0.08,64.77,0.665,0.890,2.545,0.888,0.889,0,0,RETURNING,0.000,0.050,-0.006,-0.577
21:08:27.270,RETURNING,5.572,0.865,3.093,0.03,-0.08,58.31,0.711,1.757,2.530,0.943,2.696,0,0,RETURNING,0.000,0.050,-0.001,0.049
21:08:27.471,RETURNING,5.577,0.873,3.104,0.03,-0.08,64.25,0.718,1.929,2.517,0.925,3.111,0,0,RETURNING,0.000,0.050,0.150,1.091
21:08:27.673,RETURNING,5.580,0.880,3.113,0.03,-0.08,70.96,0.661,0.998,2.366,0.860,1.138,0,0,RETURNING,0.000,0.050,-0.153,0.020
21:08:27.874,RETURNING,5.583,0.888,3.080,0.03,-0.08,68.36,0.640,0.856,2.585,0.844,0.868,0,0,RETURNING,0.000,0.050,-0.093,-0.465
21:08:28.076,RETURNING,5.586,0.895,3.068,0.03,-0.08,63.46,0.653,0.882,2.634,0.881,0.884,0,0,RETURNING,0.000,0.050,-0.022,-0.563
21:08:28.276,RETURNING,5.590,0.902,3.065,0.03,-0.08,58.31,0.682,1.834,2.674,0.944,1.976,0,0,RETURNING,0.000,0.050,-0.066,0.045
21:08:28.477,RETURNING,5.594,0.909,3.062,0.03,-0.08,64.84,0.690,2.688,2.693,0.959,3.094,0,0,RETURNING,0.000,0.050,0.127,1.084
21:08:28.678,RETURNING,5.596,0.917,3.073,0.03,-0.08,73.30,0.634,1.051,2.660,0.848,1.099,0,0,RETURNING,0.000,0.050,-0.121,0.288
21:08:28.879,RETURNING,5.599,0.924,3.047,0.03,-0.08,72.38,0.604,0.805,3.697,0.781,0.810,0,0,RETURNING,0.000,0.050,-0.096,-0.296
21:08:29.079,INSPECTING,5.602,0.933,3.033,0.03,-0.08,69.90,0.605,0.794,3.850,0.791,0.795,0,0,INSPECT_RIGHT,0.000,0.221,-0.028,-0.432
21:08:29.280,INSPECTING,5.620,0.979,3.029,0.03,-0.08,65.64,0.604,0.806,3.870,0.806,0.806,0,0,INSPECT_RIGHT,0.000,0.357,-0.007,-0.484
21:08:29.481,INSPECTING,5.654,1.045,3.029,0.03,-0.08,60.03,0.598,0.822,3.398,0.820,0.818,0,0,INSPECT_RIGHT,0.000,0.390,-0.002,-0.496
21:08:29.680,RETURNING,5.687,1.099,3.030,0.03,-0.08,57.61,0.596,3.521,3.230,1.043,4.050,0,0,RETURNING,0.000,0.219,0.198,0.502
21:08:29.881,RETURNING,5.698,1.118,3.099,0.03,-0.08,66.23,0.558,2.767,2.731,0.890,3.119,0,0,RETURNING,0.000,0.091,0.378,1.149
21:08:30.081,RETURNING,5.702,1.129,3.137,0.03,-0.08,72.08,0.498,0.897,2.276,0.675,0.937,0,0,RETURNING,0.000,0.060,-0.195,-0.267
21:08:30.282,INSPECTING,5.706,1.141,3.092,0.03,-0.08,67.57,0.485,0.679,2.473,0.643,0.686,0,0,INSPECT_RIGHT,0.000,0.223,-0.118,-0.587
21:08:30.483,INSPECTING,5.727,1.186,3.074,0.03,-0.08,62.57,0.486,0.664,2.840,0.662,0.666,0,0,INSPECT_RIGHT,0.000,0.358,-0.028,-0.521
21:08:30.684,INSPECTING,5.757,1.238,3.070,0.03,-0.08,57.89,0.485,3.146,2.748,0.900,3.357,0,0,INSPECT_RIGHT,0.000,0.390,-0.007,-0.505
21:08:30.885,RETURNING,5.791,1.290,3.056,0.03,-0.08,55.76,0.483,3.546,2.809,1.000,4.688,0,0,RETURNING,0.000,0.219,0.258,0.528
21:08:31.086,RETURNING,5.803,1.309,3.140,0.03,-0.08,64.20,0.447,2.837,2.404,0.892,4.248,0,0,RETURNING,0.000,0.091,0.542,1.117
21:08:31.287,RETURNING,5.807,1.320,3.230,0.03,-0.08,74.86,0.391,1.197,1.740,0.575,1.569,0,0,RETURNING,0.000,0.060,-0.026,0.489
21:08:31.488,INSPECTING,5.810,1.331,3.192,0.03,-0.08,73.65,0.360,0.542,1.678,0.469,0.586,0,0,INSPECT_RIGHT,0.000,0.188,-0.144,-0.409
21:08:31.689,TURNING,5.818,1.356,3.170,0.03,-0.08,69.99,0.350,0.468,1.853,0.456,0.476,0,0,TURNING,0.000,0.139,-0.049,-0.928
21:08:31.893,TURNING,5.824,1.370,3.163,0.03,-0.08,59.41,0.359,2.284,1.923,0.613,2.313,0,0,TURNING,0.000,0.071,-0.012,-1.287
21:08:32.093,TURNING,5.831,1.379,3.162,0.03,-0.08,45.60,1.557,2.006,2.054,0.733,4.501,0,0,TURNING,0.000,0.055,-0.003,-1.373
21:08:32.294,TURNING,5.839,1.385,3.162,0.03,-0.08,29.76,1.972,2.010,2.145,0.752,3.944,0,0,TURNING,0.000,0.051,-0.001,-1.393
21:08:32.495,TURNING,5.848,1.389,3.162,0.03,-0.08,13.76,2.019,2.138,2.404,0.755,3.472,0,0,TURNING,0.000,0.050,-0.000,-1.398
21:08:32.695,TURNING,5.858,1.390,3.162,0.03,-0.08,-2.27,2.074,2.127,2.372,0.754,2.953,0,0,TURNING,0.000,0.050,-0.000,-1.400
21:08:32.896,TURNING,5.868,1.389,3.162,0.03,-0.08,-18.31,2.485,2.454,2.260,0.753,2.740,0,0,TURNING,0.000,0.050,-0.000,-1.400
21:08:33.096,TURNING,5.877,1.385,3.162,0.03,-0.08,-34.35,2.499,2.262,2.222,0.757,2.570,0,0,TURNING,0.000,0.050,-0.000,-1.400
21:08:33.297,TURNING,5.885,1.378,3.162,0.03,-0.08,-50.40,2.270,2.228,2.205,0.757,2.512,0,0,TURNING,0.000,0.050,-0.000,-1.400
21:08:33.497,TURNING,5.890,1.369,3.162,0.03,-0.07,-66.44,2.220,2.202,2.159,0.760,2.516,0,0,TURNING,0.000,0.050,-0.000,-1.400
21:08:33.698,TURNING,5.893,1.360,3.162,0.03,-0.07,-82.48,2.196,2.135,2.017,0.746,2.704,0,0,TURNING,0.000,0.050,-0.000,-1.400
21:08:33.898,TURNING,5.893,1.350,3.162,0.03,-0.07,-98.52,2.175,2.044,1.886,0.733,2.896,0,0,TURNING,0.000,0.050,-0.000,-1.400
21:08:34.100,RETURNING,5.891,1.341,3.161,0.03,-0.07,-108.64,2.294,1.895,1.884,0.731,3.331,0,0,RETURNING,0.000,0.138,-0.063,-0.856
21:08:34.299,RETURNING,5.879,1.313,3.150,0.03,-0.07,-115.81,2.055,1.912,1.807,0.740,3.648,0,0,RETURNING,0.000,0.237,-0.008,-0.713
