timestamp,state,x,y,z,roll_deg,pitch_deg,yaw_deg,dist_left,dist_center,dist_right,dist_top,dist_bottom,dtof_alert,collision_event,best_dir,max_space,cmd_vx,cmd_vz,cmd_yaw
22:59:43.965,SEARCHING,0.024,0.000,1.000,0.00,0.00,0.00,10.000,10.000,10.000,10.000,10.000,0,0,SEARCHING,0.000,0.526,0.000,0.000
22:59:44.168,SEARCHING,0.144,-0.000,1.000,0.00,0.00,-0.01,2.527,5.731,3.623,5.647,3.141,0,0,SEARCHING,0.000,0.734,0.051,-0.031
22:59:44.370,SEARCHING,0.236,-0.000,1.020,0.00,0.00,-0.69,1.135,4.844,2.464,4.807,2.641,0,0,SEARCHING,0.000,0.784,0.176,-0.218
22:59:44.569,SEARCHING,0.331,-0.003,1.057,0.00,0.00,-2.88,0.913,4.339,2.215,4.335,2.896,0,0,SEARCHING,0.000,0.796,0.168,-0.413
22:59:44.770,SEARCHING,0.426,-0.010,1.087,0.00,0.00,-6.11,0.832,3.745,2.050,3.728,3.021,0,0,SEARCHING,0.000,0.799,0.109,-0.519
22:59:44.971,SEARCHING,0.521,-0.023,1.106,0.00,0.00,-9.90,4.541,3.153,1.881,3.150,2.892,0,0,SEARCHING,0.000,0.800,0.053,-0.322
22:59:45.172,SEARCHING,0.616,-0.040,1.113,0.00,0.00,-10.14,6.317,2.873,1.775,2.874,2.842,0,0,SEARCHING,0.000,0.800,0.013,0.154
22:59:45.373,SEARCHING,0.742,-0.060,1.114,0.00,0.00,-8.04,6.410,2.898,1.753,2.891,2.868,0,0,SEARCHING,0.000,0.800,0.003,0.289
22:59:45.573,SEARCHING,0.901,-0.079,1.114,0.00,0.00,-4.61,5.877,3.145,1.804,3.164,2.978,0,0,SEARCHING,0.000,0.800,0.001,0.312
22:59:45.774,SEARCHING,1.061,-0.087,1.114,0.00,0.00,-1.07,5.291,3.509,1.859,3.548,3.082,0,0,SEARCHING,0.000,0.800,0.016,0.296
22:59:45.975,SEARCHING,1.157,-0.087,1.120,0.00,0.00,0.86,4.835,3.978,1.974,3.960,3.056,0,0,SEARCHING,0.000,0.800,0.062,0.261
22:59:46.175,SEARCHING,1.253,-0.085,1.133,0.00,0.00,2.56,4.636,4.265,2.024,4.205,3.161,0,0,SEARCHING,0.000,0.800,0.076,0.235
22:59:46.380,SEARCHING,1.349,-0.079,1.151,0.00,0.00,4.13,4.382,5.226,2.123,5.395,3.298,0,0,SEARCHING,0.000,0.800,0.117,0.215
22:59:46.580,SEARCHING,1.444,-0.071,1.177,0.00,0.00,5.51,4.120,5.706,2.203,5.812,3.488,0,0,SEARCHING,0.000,0.800,0.144,0.186
22:59:46.780,SEARCHING,1.540,-0.061,1.205,0.00,0.00,6.72,3.939,5.704,2.252,5.797,3.348,0,0,SEARCHING,0.000,0.800,0.142,0.165
22:59:46.982,SEARCHING,1.635,-0.049,1.234,0.00,0.00,7.79,3.828,5.687,2.333,5.744,3.445,0,0,SEARCHING,0.000,0.800,0.136,0.145
22:59:47.181,SEARCHING,1.730,-0.036,1.259,0.00,0.00,8.72,3.694,5.561,2.469,5.631,4.017,0,0,SEARCHING,0.000,0.800,0.098,0.123
22:59:47.383,SEARCHING,1.825,-0.021,1.277,0.00,0.00,9.50,3.602,5.511,2.551,5.587,4.082,0,0,SEARCHING,0.000,0.800,0.083,0.103
22:59:47.583,SEARCHING,1.919,-0.004,1.293,0.00,0.00,10.17,3.542,5.616,2.601,5.582,3.833,0,0,SEARCHING,0.000,0.800,0.087,0.090
22:59:47.783,SEARCHING,2.014,0.013,1.311,0.00,0.00,10.74,3.427,5.679,2.693,5.477,3.629,0,0,SEARCHING,0.000,0.800,0.097,0.075
22:59:47.984,SEARCHING,2.108,0.031,1.330,0.00,0.00,11.21,3.369,5.656,2.754,5.451,3.974,0,0,SEARCHING,0.000,0.800,0.090,0.061
22:59:48.184,SEARCHING,2.202,0.050,1.348,0.00,0.00,11.60,3.360,5.680,2.826,5.365,3.734,0,0,SEARCHING,0.000,0.800,0.089,0.050
22:59:48.385,SEARCHING,2.296,0.070,1.366,0.00,0.00,11.92,3.288,5.659,2.861,5.300,3.875,0,0,SEARCHING,0.000,0.800,0.092,0.042
22:59:48.587,SEARCHING,2.390,0.090,1.384,0.00,0.00,12.18,3.253,5.557,2.852,5.293,4.374,0,0,SEARCHING,0.000,0.800,0.055,0.036
22:59:48.787,SEARCHING,2.484,0.110,1.393,0.00,0.00,12.42,3.225,5.415,2.864,5.268,3.864,0,0,SEARCHING,0.000,0.800,0.061,0.033
22:59:48.988,SEARCHING,2.578,0.131,1.406,0.00,0.00,12.62,3.153,5.293,3.468,5.206,4.100,0,0,SEARCHING,0.000,0.800,0.064,0.012
22:59:49.187,SEARCHING,2.671,0.152,1.419,0.00,0.00,12.52,3.096,5.224,4.608,5.117,3.923,0,0,SEARCHING,0.000,0.800,0.063,-0.048
22:59:49.389,SEARCHING,2.765,0.173,1.432,0.00,0.00,12.05,3.112,5.265,4.931,5.123,3.929,0,0,SEARCHING,0.000,0.800,0.072,-0.082
22:59:49.591,SEARCHING,2.859,0.192,1.447,0.00,0.00,11.45,3.081,5.272,4.889,5.089,3.669,0,0,SEARCHING,0.000,0.800,0.080,-0.093
22:59:49.791,SEARCHING,2.953,0.211,1.463,0.00,0.00,10.80,3.123,5.309,4.756,5.091,3.786,0,0,SEARCHING,0.000,0.800,0.081,-0.092
22:59:49.992,SEARCHING,3.048,0.228,1.479,0.00,0.00,10.19,3.139,5.311,4.620,5.086,3.940,0,0,SEARCHING,0.000,0.800,0.074,-0.085
22:59:50.192,SEARCHING,3.142,0.245,1.493,0.00,0.00,9.61,3.129,5.361,4.531,5.025,4.127,0,0,SEARCHING,0.000,0.800,0.062,-0.082
22:59:50.392,SEARCHING,3.237,0.261,1.505,0.00,0.00,9.07,3.143,5.422,4.430,4.980,4.074,0,0,SEARCHING,0.000,0.800,0.057,-0.077
22:59:50.593,SEARCHING,3.332,0.275,1.516,0.00,0.00,8.56,3.188,5.445,4.393,4.981,4.050,0,0,SEARCHING,0.000,0.800,0.055,-0.072
22:59:50.793,SEARCHING,3.427,0.289,1.527,0.00,0.00,8.07,3.167,5.439,4.395,4.975,4.015,0,0,SEARCHING,0.000,0.800,0.057,-0.070
22:59:50.994,SEARCHING,3.522,0.302,1.539,0.00,0.00,7.60,3.214,5.413,4.313,4.932,3.919,0,0,SEARCHING,0.000,0.800,0.060,-0.067
22:59:51.195,SEARCHING,3.617,0.315,1.551,0.00,0.00,7.14,3.215,5.425,4.428,4.891,3.829,0,0,SEARCHING,0.000,0.800,0.064,-0.067
22:59:51.395,SEARCHING,3.712,0.326,1.564,0.00,0.00,6.68,3.197,5.445,4.373,4.871,3.729,0,0,SEARCHING,0.000,0.800,0.071,-0.068
22:59:51.596,SEARCHING,3.808,0.337,1.579,0.00,0.00,6.21,3.188,5.448,4.300,4.869,3.645,0,0,SEARCHING,0.000,0.800,0.078,-0.067
22:59:51.796,SEARCHING,3.903,0.347,1.595,0.00,0.00,5.77,3.193,5.432,4.217,4.802,3.547,0,0,SEARCHING,0.000,0.800,0.085,-0.063
22:59:51.997,SEARCHING,3.999,0.357,1.612,0.00,0.00,5.34,3.176,5.363,4.151,4.771,3.445,0,0,SEARCHING,0.000,0.800,0.091,-0.060
22:59:52.197,SEARCHING,4.094,0.365,1.631,0.00,0.00,4.93,3.193,5.272,4.050,4.675,3.342,0,0,SEARCHING,0.000,0.800,0.097,-0.057
22:59:52.398,SEARCHING,4.190,0.373,1.651,0.00,0.00,4.56,3.213,5.203,4.036,4.606,3.243,0,0,SEARCHING,0.000,0.800,0.104,-0.052
22:59:52.598,SEARCHING,4.286,0.381,1.672,0.00,0.00,4.22,3.229,5.107,3.934,4.598,3.169,0,0,SEARCHING,0.000,0.800,0.112,-0.047
22:59:52.799,SEARCHING,4.381,0.388,1.695,0.00,0.00,3.90,3.213,5.016,3.865,4.540,3.101,0,0,SEARCHING,0.000,0.800,0.119,-0.044
22:59:52.999,SEARCHING,4.477,0.394,1.719,0.00,0.00,3.61,3.203,4.962,3.789,4.465,2.996,0,0,SEARCHING,0.000,0.800,0.127,-0.041
22:59:53.199,SEARCHING,4.573,0.400,1.745,0.00,0.00,3.34,3.206,4.818,3.725,4.412,2.917,0,0,SEARCHING,0.000,0.800,0.134,-0.037
22:59:53.401,SEARCHING,4.669,0.405,1.772,0.00,0.00,3.09,3.221,4.780,3.695,4.366,2.923,0,0,SEARCHING,0.000,0.800,0.136,-0.034
22:59:53.602,SEARCHING,4.765,0.410,1.800,0.00,0.00,2.87,3.190,4.690,3.642,4.270,2.900,0,0,SEARCHING,0.000,0.800,0.135,-0.031
22:59:53.803,SEARCHING,4.861,0.415,1.826,0.00,0.00,2.66,3.177,4.611,3.593,4.225,2.920,0,0,SEARCHING,0.000,0.800,0.131,-0.030
22:59:54.003,SEARCHING,4.957,0.419,1.852,0.00,0.00,2.46,3.188,4.521,3.589,4.191,2.982,0,0,SEARCHING,0.000,0.800,0.123,-0.028
22:59:54.204,SEARCHING,5.053,0.423,1.876,0.00,0.00,2.27,3.173,4.460,3.673,4.092,3.007,0,0,SEARCHING,0.000,0.800,0.113,-0.030
22:59:54.405,SEARCHING,5.148,0.427,1.898,0.00,0.00,2.05,3.149,4.370,3.624,4.004,3.065,0,0,SEARCHING,0.000,0.800,0.102,-0.033
22:59:54.605,SEARCHING,5.244,0.430,1.918,0.00,0.00,1.81,3.104,4.248,3.743,3.941,3.102,0,0,SEARCHING,0.000,0.800,0.090,-0.038
22:59:54.806,SEARCHING,5.340,0.433,1.935,0.00,0.00,1.53,3.111,4.148,3.796,3.872,3.151,0,0,SEARCHING,0.000,0.800,0.079,-0.044
22:59:55.005,SEARCHING,5.436,0.435,1.950,0.00,0.00,1.21,3.093,4.044,3.943,3.824,3.205,0,0,SEARCHING,0.000,0.800,0.067,-0.049
22:59:55.207,SEARCHING,5.532,0.437,1.963,0.00,0.00,0.85,3.101,3.938,4.042,3.815,3.214,0,0,SEARCHING,0.000,0.800,0.061,-0.057
22:59:55.407,SEARCHING,5.628,0.438,1.975,0.00,0.00,0.43,3.077,3.821,4.146,3.794,3.249,0,0,SEARCHING,0.000,0.800,0.056,-0.064
22:59:55.608,SEARCHING,5.724,0.439,1.984,0.00,0.00,-0.02,3.077,3.752,4.136,3.733,3.266,0,0,SEARCHING,0.000,0.800,0.019,-0.066
22:59:55.808,SEARCHING,5.852,0.438,1.986,0.00,0.00,-0.63,3.068,3.698,4.158,3.711,3.283,0,0,SEARCHING,0.000,0.800,0.005,-0.067
22:59:56.010,SEARCHING,6.012,0.435,1.986,0.00,0.00,-1.41,3.055,3.631,4.127,3.645,3.311,0,0,SEARCHING,0.000,0.800,0.001,-0.068
22:59:56.209,SEARCHING,6.172,0.430,1.986,0.00,0.00,-2.18,3.051,3.608,4.035,3.604,3.286,0,0,SEARCHING,0.000,0.800,0.000,-0.066
22:59:56.410,SEARCHING,6.332,0.423,1.986,0.00,0.00,-2.93,3.043,3.614,3.877,3.579,3.297,0,0,SEARCHING,0.000,0.800,0.000,-0.061
22:59:56.612,SEARCHING,6.492,0.414,1.986,0.00,0.00,-3.61,2.927,3.599,3.746,3.588,3.361,0,0,SEARCHING,0.000,0.800,0.000,-0.059
22:59:56.812,SEARCHING,6.651,0.403,1.986,0.00,0.00,-4.29,2.827,3.579,3.682,3.558,3.401,0,0,SEARCHING,0.000,0.800,0.000,-0.062
22:59:57.012,SEARCHING,6.811,0.390,1.986,0.00,0.00,-5.03,2.631,3.564,3.595,3.543,3.452,0,0,SEARCHING,0.000,0.800,0.000,-0.072
22:59:57.213,SEARCHING,6.970,0.375,1.986,0.00,0.00,-5.90,2.444,3.553,3.489,3.531,3.500,0,0,SEARCHING,0.000,0.800,0.000,-0.087
22:59:57.413,SEARCHING,7.129,0.358,1.986,0.00,0.00,-6.95,2.275,3.570,3.376,3.570,3.601,0,0,SEARCHING,0.000,0.800,0.000,-0.103
22:59:57.613,SEARCHING,7.288,0.337,1.986,0.00,0.00,-8.19,2.111,3.648,3.228,3.625,3.655,0,0,SEARCHING,0.000,0.800,0.000,-0.120
22:59:57.815,SEARCHING,7.446,0.312,1.986,0.00,0.00,-9.60,2.062,3.732,3.078,3.680,3.751,0,0,SEARCHING,0.000,0.800,0.000,-0.128
22:59:58.016,SEARCHING,7.603,0.284,1.986,0.00,0.00,-11.05,2.078,3.780,2.940,3.747,3.897,0,0,SEARCHING,0.000,0.800,0.000,-0.121
22:59:58.217,SEARCHING,7.760,0.251,1.986,0.00,0.00,-12.40,2.096,3.671,2.840,3.666,3.865,0,0,SEARCHING,0.000,0.800,0.000,-0.108
22:59:58.419,SEARCHING,7.916,0.216,1.986,0.00,0.00,-13.60,2.123,3.518,2.718,3.517,3.647,0,0,SEARCHING,0.000,0.800,0.000,-0.093
22:59:58.618,SEARCHING,8.071,0.177,1.986,0.00,0.00,-14.61,2.158,3.357,2.602,3.343,3.429,0,0,SEARCHING,0.000,0.800,0.000,-0.075
22:59:58.819,SEARCHING,8.226,0.135,1.986,0.00,0.00,-15.43,2.164,3.183,2.487,3.185,3.199,0,0,SEARCHING,0.000,0.800,0.000,-0.059
22:59:59.020,SEARCHING,8.380,0.092,1.986,0.00,0.00,-16.05,2.176,2.975,2.374,3.073,2.989,0,0,SEARCHING,0.000,0.800,0.000,-0.041
22:59:59.220,SEARCHING,8.533,0.047,1.986,0.00,0.00,-16.47,2.204,2.742,2.321,2.914,2.761,0,0,SEARCHING,0.000,0.800,0.000,-0.026
22:59:59.421,SEARCHING,8.687,0.001,1.986,0.00,0.00,-16.74,2.172,2.663,2.278,2.777,2.678,0,0,SEARCHING,0.000,0.800,0.000,-0.020
22:59:59.622,SEARCHING,8.840,-0.045,1.986,0.00,0.00,-16.96,2.167,2.526,2.223,2.506,2.778,0,0,SEARCHING,0.000,0.800,0.000,-0.014
22:59:59.823,SEARCHING,8.962,-0.082,1.980,0.00,0.00,-17.08,2.152,2.422,2.192,2.573,4.433,0,0,SEARCHING,0.000,0.800,-0.118,-0.010
23:00:00.023,SEARCHING,9.054,-0.111,1.950,0.00,0.00,-17.13,2.121,2.341,2.147,2.545,4.418,0,0,SEARCHING,0.000,0.800,-0.183,-0.006
23:00:00.223,SEARCHING,9.146,-0.139,1.912,0.00,0.00,-17.16,2.143,2.308,2.129,2.785,4.699,0,0,SEARCHING,0.000,0.800,-0.194,-0.001
23:00:00.424,SEARCHING,9.237,-0.167,1.877,0.00,0.00,-17.16,2.071,4.445,2.117,3.906,4.628,0,0,SEARCHING,0.000,0.800,-0.091,-0.004
23:00:00.625,SEARCHING,9.329,-0.196,1.866,0.00,0.00,-17.21,1.995,4.889,2.088,4.070,4.658,0,0,SEARCHING,0.000,0.800,-0.022,-0.011
23:00:00.825,SEARCHING,9.421,-0.224,1.863,0.00,0.00,-17.31,1.849,4.884,2.033,4.146,4.709,0,0,SEARCHING,0.000,0.800,-0.005,-0.024
23:00:01.025,SEARCHING,9.573,-0.272,1.863,0.00,0.00,-17.66,1.749,4.853,2.019,4.139,4.736,0,0,SEARCHING,0.000,0.800,-0.001,-0.047
23:00:01.226,SEARCHING,9.726,-0.321,1.863,0.00,0.00,-18.27,1.595,4.882,1.954,4.125,4.763,0,0,SEARCHING,0.000,0.800,-0.000,-0.073
23:00:01.427,SEARCHING,9.877,-0.372,1.863,0.00,0.00,-19.19,1.428,4.818,1.895,4.152,4.722,0,0,SEARCHING,0.000,0.800,-0.000,-0.109
23:00:01.627,SEARCHING,10.028,-0.427,1.863,0.00,0.00,-20.58,1.272,4.778,1.814,3.974,4.628,0,0,SEARCHING,0.000,0.800,-0.000,-0.156
23:00:01.828,SEARCHING,10.147,-0.473,1.861,0.00,0.00,-22.09,1.237,3.584,1.716,3.141,4.305,0,0,SEARCHING,0.000,0.800,-0.054,-0.181
23:00:02.028,SEARCHING,10.236,-0.510,1.847,0.00,0.00,-23.31,1.230,2.889,1.644,2.826,3.282,0,0,SEARCHING,0.000,0.800,-0.076,-0.170
23:00:02.228,SEARCHING,10.324,-0.548,1.835,0.00,0.00,-24.44,2.067,2.650,1.557,2.651,2.677,0,0,SEARCHING,0.000,0.800,-0.024,-0.075
23:00:02.429,SEARCHING,10.411,-0.588,1.832,0.00,0.00,-24.10,2.956,2.514,1.497,2.541,2.521,0,0,SEARCHING,0.000,0.800,-0.006,0.158
23:00:02.632,SEARCHING,10.528,-0.639,1.829,0.00,0.00,-22.40,2.936,3.737,1.498,3.549,3.853,0,0,SEARCHING,0.000,0.800,-0.031,0.239
23:00:02.831,SEARCHING,10.618,-0.675,1.824,0.00,0.00,-20.70,2.833,4.406,1.530,4.145,4.419,0,0,SEARCHING,0.000,0.800,-0.007,0.247
23:00:03.031,SEARCHING,10.769,-0.728,1.824,0.00,0.00,-17.91,2.624,4.107,1.562,4.038,4.098,0,0,SEARCHING,0.000,0.800,-0.002,0.228
23:00:03.232,SEARCHING,10.922,-0.774,1.824,0.00,0.00,-15.41,2.427,3.866,1.661,3.863,3.851,0,0,SEARCHING,0.000,0.800,-0.000,0.187
23:00:03.433,SEARCHING,11.077,-0.814,1.824,0.00,0.00,-13.41,2.260,3.647,1.705,3.637,3.642,0,0,SEARCHING,0.000,0.800,-0.000,0.143
23:00:03.634,SEARCHING,11.233,-0.849,1.824,0.00,0.00,-11.88,2.126,3.438,2.764,3.421,3.465,0,0,SEARCHING,0.000,0.800,-0.000,0.056
23:00:03.834,SEARCHING,11.389,-0.881,1.824,0.00,0.00,-11.74,2.037,3.209,3.183,3.261,3.291,0,0,SEARCHING,0.000,0.800,-0.000,-0.084
23:00:04.034,SEARCHING,11.546,-0.915,1.824,0.00,0.00,-12.88,2.014,3.166,3.108,3.195,3.179,0,0,SEARCHING,0.000,0.800,-0.000,-0.128
23:00:04.237,SEARCHING,11.701,-0.952,1.824,0.00,0.00,-14.37,2.014,3.082,3.003,3.102,3.071,0,0,SEARCHING,0.000,0.800,-0.000,-0.132
23:00:04.437,SEARCHING,11.856,-0.994,1.824,0.00,0.00,-15.88,1.978,2.920,2.868,2.930,2.910,0,0,SEARCHING,0.000,0.800,-0.000,-0.129
23:00:04.637,SEARCHING,12.009,-1.040,1.824,0.00,0.00,-17.33,1.972,2.810,2.721,2.811,2.815,0,0,SEARCHING,0.000,0.800,-0.000,-0.120
23:00:04.839,SEARCHING,12.162,-1.089,1.824,0.00,0.00,-18.67,1.954,2.742,2.580,2.743,2.755,0,0,SEARCHING,0.000,0.800,-0.000,-0.108
23:00:05.039,SEARCHING,12.313,-1.142,1.824,0.00,0.00,-19.87,1.965,2.917,2.468,2.911,2.974,0,0,SEARCHING,0.000,0.800,-0.000,-0.094
23:00:05.239,SEARCHING,12.463,-1.197,1.824,0.00,0.00,-20.90,1.950,3.122,2.338,3.214,3.280,0,0,SEARCHING,0.000,0.800,-0.000,-0.079
23:00:05.440,SEARCHING,12.612,-1.255,1.824,0.00,0.00,-21.75,1.953,3.372,2.223,3.601,3.777,0,0,SEARCHING,0.000,0.800,-0.000,-0.062
23:00:05.640,SEARCHING,12.760,-1.315,1.824,0.00,0.00,-22.42,1.897,3.728,2.137,3.781,4.079,0,0,SEARCHING,0.000,0.800,-0.000,-0.050
23:00:05.841,SEARCHING,12.908,-1.377,1.824,0.00,0.00,-23.01,1.785,4.959,2.119,3.937,4.300,0,0,SEARCHING,0.000,0.800,-0.000,-0.060
23:00:06.041,SEARCHING,13.054,-1.440,1.824,0.00,0.00,-23.76,1.607,6.524,2.026,4.110,4.580,0,0,SEARCHING,0.000,0.800,-0.000,-0.084
23:00:06.242,SEARCHING,13.200,-1.506,1.824,0.00,0.00,-24.80,1.469,6.443,1.946,4.117,4.508,0,0,SEARCHING,0.000,0.800,-0.000,-0.112
23:00:06.442,SEARCHING,13.345,-1.575,1.824,0.00,0.00,-26.14,1.503,5.295,1.864,3.848,4.242,0,0,SEARCHING,0.000,0.800,-0.000,-0.116
23:00:06.642,SEARCHING,13.488,-1.647,1.824,0.00,0.00,-27.40,1.632,3.812,1.788,3.636,3.860,0,0,SEARCHING,0.000,0.800,-0.000,-0.082
23:00:06.843,SEARCHING,13.629,-1.721,1.824,0.00,0.00,-28.16,1.746,3.427,1.700,3.403,3.574,0,0,SEARCHING,0.000,0.800,-0.000,-0.023
23:00:07.045,SEARCHING,13.770,-1.797,1.824,0.00,0.00,-28.26,1.863,3.188,1.671,3.220,3.358,0,0,SEARCHING,0.000,0.800,-0.000,0.025
23:00:07.245,SEARCHING,13.911,-1.872,1.824,0.00,0.00,-27.89,1.897,3.844,1.620,3.141,3.337,0,0,SEARCHING,0.000,0.800,-0.000,0.053
23:00:07.445,SEARCHING,14.053,-1.947,1.824,0.00,0.00,-27.21,1.934,5.520,1.609,3.156,3.749,0,0,SEARCHING,0.000,0.800,-0.018,0.074
23:00:07.646,SEARCHING,14.139,-1.990,1.820,0.00,0.00,-26.67,1.911,5.895,1.613,3.978,4.485,0,0,SEARCHING,0.000,0.800,-0.010,0.080
23:00:07.846,SEARCHING,14.253,-2.047,1.819,0.00,0.00,-25.96,1.895,5.796,1.618,4.170,4.648,0,0,SEARCHING,0.000,0.800,-0.002,0.074
23:00:08.046,SEARCHING,14.398,-2.116,1.819,0.00,0.00,-25.12,1.856,5.638,1.625,4.219,4.565,0,0,SEARCHING,0.000,0.800,-0.001,0.069
23:00:08.249,SEARCHING,14.543,-2.183,1.819,0.00,0.00,-24.37,1.825,5.477,1.659,4.254,4.456,0,0,SEARCHING,0.000,0.800,-0.000,0.054
23:00:08.448,SEARCHING,14.689,-2.248,1.819,0.00,0.00,-23.77,1.825,5.348,1.637,4.248,4.308,0,0,SEARCHING,0.000,0.800,-0.000,0.050
23:00:08.649,SEARCHING,14.836,-2.312,1.819,0.00,0.00,-23.21,1.805,5.188,1.659,4.227,4.123,0,0,SEARCHING,0.000,0.800,-0.000,0.044
23:00:08.849,SEARCHING,14.983,-2.375,1.819,0.00,0.00,-22.74,1.747,5.102,1.686,4.228,3.997,0,0,SEARCHING,0.000,0.800,-0.000,0.028
23:00:09.050,SEARCHING,15.131,-2.436,1.819,0.00,0.00,-22.46,1.728,4.989,1.659,4.205,3.830,0,0,SEARCHING,0.000,0.800,-0.000,0.020
23:00:09.251,SEARCHING,15.279,-2.497,1.819,0.00,0.00,-21.80,4.835,4.922,1.630,4.200,3.662,0,0,SEARCHING,0.000,0.800,-0.000,0.198
23:00:09.452,SEARCHING,15.398,-2.543,1.821,0.00,0.00,-20.03,5.202,4.955,3.324,4.215,3.554,0,0,SEARCHING,0.000,0.800,0.034,0.155
23:00:10.880,SEARCHING,15.474,-2.570,1.829,0.00,0.00,-19.35,5.293,4.970,3.769,4.204,3.483,0,0,SEARCHING,0.000,0.800,0.052,0.086
23:00:10.906,SEARCHING,15.534,-2.591,1.841,0.00,0.00,-19.01,5.293,4.970,3.769,4.204,3.483,0,0,SEARCHING,0.000,0.800,0.057,0.067
23:00:11.063,SEARCHING,15.625,-2.622,1.852,0.00,0.00,-18.58,5.135,4.974,3.858,4.142,3.329,0,0,SEARCHING,0.000,0.800,0.064,0.057
23:00:11.257,SEARCHING,15.716,-2.652,1.866,0.00,0.00,-18.21,5.089,4.992,3.870,4.148,3.250,0,0,SEARCHING,0.000,0.800,0.074,0.052
23:00:11.458,SEARCHING,15.807,-2.682,1.881,0.00,0.00,-17.86,4.877,4.976,3.844,4.110,3.199,0,0,SEARCHING,0.000,0.800,0.080,0.048
23:00:11.657,SEARCHING,15.899,-2.711,1.897,0.00,0.00,-17.54,4.830,4.975,3.810,4.053,3.212,0,0,SEARCHING,0.000,0.800,0.080,0.044
23:00:11.858,SEARCHING,15.990,-2.740,1.913,0.00,0.00,-17.23,4.880,4.988,3.718,4.019,3.185,0,0,SEARCHING,0.000,0.800,0.078,0.048
23:00:12.059,SEARCHING,16.082,-2.768,1.929,0.00,0.00,-16.89,4.785,4.927,3.631,3.964,3.184,0,0,SEARCHING,0.000,0.800,0.075,0.051
23:00:12.260,SEARCHING,16.174,-2.796,1.943,0.00,0.00,-16.53,4.695,4.912,3.554,3.921,3.215,0,0,SEARCHING,0.000,0.800,0.071,0.054
23:00:12.462,SEARCHING,16.266,-2.823,1.957,0.00,0.00,-16.15,4.673,4.874,3.468,3.883,3.222,0,0,SEARCHING,0.000,0.800,0.066,0.056
23:00:12.661,SEARCHING,16.358,-2.849,1.970,0.00,0.00,-15.76,4.592,4.869,3.361,3.810,3.275,0,0,SEARCHING,0.000,0.800,0.059,0.060
23:00:12.862,SEARCHING,16.451,-2.875,1.980,0.00,0.00,-15.33,4.438,4.876,3.262,3.775,3.297,0,0,SEARCHING,0.000,0.800,0.019,0.063
23:00:13.062,SEARCHING,16.574,-2.908,1.981,0.00,0.00,-14.74,4.407,4.912,3.157,3.769,3.274,0,0,SEARCHING,0.000,0.800,0.005,0.068
23:00:13.263,SEARCHING,16.729,-2.948,1.981,0.00,0.00,-13.94,4.275,4.885,3.042,3.755,3.278,0,0,SEARCHING,0.000,0.800,0.001,0.074
23:00:13.464,SEARCHING,16.885,-2.986,1.981,0.00,0.00,-13.10,4.155,5.006,3.019,3.821,3.291,0,0,SEARCHING,0.000,0.800,0.015,0.073
23:00:13.665,SEARCHING,16.979,-3.007,1.987,0.00,0.00,-12.60,4.076,5.064,3.024,3.806,3.297,0,0,SEARCHING,0.000,0.800,0.028,0.071
23:00:13.867,SEARCHING,17.072,-3.028,1.991,0.00,0.00,-12.13,3.962,5.386,3.011,3.765,3.273,0,0,SEARCHING,0.000,0.800,0.007,0.066
23:00:14.067,SEARCHING,17.229,-3.060,1.991,0.00,0.00,-11.38,3.859,5.750,2.996,3.759,3.276,0,0,SEARCHING,0.000,0.800,0.002,0.063
23:00:14.267,SEARCHING,17.386,-3.091,1.991,0.00,0.00,-10.67,3.724,6.217,2.963,3.728,3.272,0,0,SEARCHING,0.000,0.800,0.000,0.058
23:00:14.477,SEARCHING,17.543,-3.120,1.991,0.00,0.00,-10.03,3.489,6.327,2.920,3.747,3.311,0,0,SEARCHING,0.000,0.800,0.000,0.051
23:00:14.679,SEARCHING,17.701,-3.147,1.991,0.00,0.00,-9.46,3.476,6.406,2.937,3.700,3.301,0,0,SEARCHING,0.000,0.800,0.000,0.045
23:00:14.881,SEARCHING,17.859,-3.173,1.991,0.00,0.00,-8.98,3.225,6.439,2.860,3.752,3.315,0,0,SEARCHING,0.000,0.800,0.000,0.034
23:00:15.082,SEARCHING,18.017,-3.197,1.991,0.00,0.00,-8.60,3.134,6.521,2.872,3.773,3.270,0,0,SEARCHING,0.000,0.800,0.000,0.029
23:00:15.284,SEARCHING,18.175,-3.221,1.991,0.00,0.00,-8.29,3.075,6.536,2.815,3.760,3.328,0,0,SEARCHING,0.000,0.800,0.000,0.025
23:00:15.482,SEARCHING,18.334,-3.244,1.991,0.00,0.00,-8.04,2.875,6.704,2.775,3.762,3.646,0,0,SEARCHING,0.000,0.800,0.000,0.014
23:00:15.683,SEARCHING,18.492,-3.266,1.991,0.00,0.00,-7.88,5.041,6.601,2.767,3.815,4.200,0,0,SEARCHING,0.000,0.800,0.000,0.048
23:00:15.883,SEARCHING,18.651,-3.287,1.991,0.00,0.00,-7.02,6.861,6.675,2.716,3.785,4.415,0,0,SEARCHING,0.000,0.800,0.000,0.139
23:00:16.085,SEARCHING,18.778,-3.301,1.988,0.00,0.00,-5.66,6.688,8.081,2.734,3.737,4.601,0,0,SEARCHING,0.000,0.800,-0.039,0.166
23:00:16.285,SEARCHING,18.874,-3.310,1.979,0.00,0.00,-4.51,6.542,8.814,2.854,3.790,4.712,0,0,SEARCHING,0.000,0.800,-0.057,0.165
23:00:16.485,SEARCHING,18.969,-3.317,1.967,0.00,0.00,-3.44,6.391,9.828,3.161,3.840,4.723,0,0,SEARCHING,0.000,0.800,-0.059,0.142
23:00:16.685,SEARCHING,19.065,-3.322,1.956,0.00,0.00,-2.54,6.190,9.986,3.405,3.843,4.682,0,0,SEARCHING,0.000,0.800,-0.057,0.119
23:00:16.886,SEARCHING,19.161,-3.326,1.944,0.00,0.00,-1.77,6.197,9.998,3.504,3.880,4.639,0,0,SEARCHING,0.000,0.800,-0.054,0.106
23:00:17.089,SEARCHING,19.257,-3.328,1.935,0.00,0.00,-1.08,5.989,10.000,3.628,3.927,4.601,0,0,SEARCHING,0.000,0.800,-0.018,0.094
23:00:17.288,SEARCHING,19.385,-3.330,1.934,0.00,0.00,-0.25,5.872,10.000,3.759,3.943,4.579,0,0,SEARCHING,0.000,0.800,-0.004,0.083
23:00:17.488,SEARCHING,19.545,-3.329,1.934,0.00,0.00,0.67,5.714,10.000,3.907,3.802,4.577,0,0,SEARCHING,0.000,0.800,-0.017,0.073
23:00:17.688,SEARCHING,19.641,-3.328,1.930,0.00,0.00,1.14,5.516,10.000,4.038,3.896,4.647,0,0,SEARCHING,0.000,0.800,-0.010,0.062
23:00:17.890,SEARCHING,19.769,-3.325,1.928,0.00,0.00,1.68,5.357,9.992,4.183,3.922,4.730,0,0,SEARCHING,0.000,0.800,-0.036,0.049
23:00:18.090,SEARCHING,19.865,-3.322,1.920,0.00,0.00,1.98,5.326,9.957,4.269,3.949,4.741,0,0,SEARCHING,0.000,0.800,-0.048,0.041
23:00:18.291,SEARCHING,19.961,-3.318,1.912,0.00,0.00,2.25,5.322,9.825,4.290,4.003,4.757,0,0,SEARCHING,0.000,0.800,-0.017,0.038
23:00:18.491,SEARCHING,20.089,-3.313,1.910,0.00,0.00,2.59,5.264,9.761,4.355,3.967,4.765,0,0,SEARCHING,0.000,0.800,-0.019,0.034
23:00:18.693,SEARCHING,20.185,-3.308,1.906,0.00,0.00,2.81,5.208,9.505,4.395,3.991,4.738,0,0,SEARCHING,0.000,0.800,-0.010,0.030
23:00:18.893,SEARCHING,20.344,-3.300,1.906,0.00,0.00,3.15,5.098,9.242,4.472,4.035,4.810,0,0,SEARCHING,0.000,0.800,-0.002,0.026
23:00:19.094,SEARCHING,20.472,-3.293,1.905,0.00,0.00,3.37,5.010,9.145,4.485,3.964,4.825,0,0,SEARCHING,0.000,0.800,-0.035,0.022
23:00:19.294,SEARCHING,20.568,-3.287,1.898,0.00,0.00,3.51,4.978,8.947,4.463,3.942,4.799,0,0,SEARCHING,0.000,0.800,-0.030,0.020
23:00:19.495,SEARCHING,20.664,-3.281,1.891,0.00,0.00,3.64,4.967,8.917,4.509,4.064,4.776,0,0,SEARCHING,0.000,0.800,-0.031,0.017
23:00:19.695,SEARCHING,20.760,-3.275,1.887,0.00,0.00,3.75,4.908,8.840,4.517,4.054,4.768,0,0,SEARCHING,0.000,0.800,-0.007,0.015
23:00:19.896,SEARCHING,20.919,-3.264,1.887,0.00,0.00,3.92,4.891,8.807,4.566,4.073,4.767,0,0,SEARCHING,0.000,0.800,-0.002,0.013
23:00:20.097,SEARCHING,21.079,-3.253,1.887,0.00,0.00,4.05,4.799,8.611,4.695,4.056,4.819,0,0,SEARCHING,0.000,0.800,-0.000,0.008
23:00:20.298,SEARCHING,21.239,-3.242,1.887,0.00,0.00,4.12,4.771,8.352,5.071,4.045,4.827,0,0,SEARCHING,0.000,0.800,-0.000,-0.002
23:00:20.498,SEARCHING,21.398,-3.230,1.887,0.00,0.00,4.06,4.753,8.224,5.529,4.063,4.795,0,0,SEARCHING,0.000,0.800,-0.000,-0.015
23:00:20.698,SEARCHING,21.558,-3.219,1.887,0.00,0.00,3.85,4.677,8.176,5.918,4.067,4.823,0,0,SEARCHING,0.000,0.800,-0.000,-0.028
23:00:20.899,SEARCHING,21.717,-3.209,1.887,0.00,0.00,3.50,4.671,8.152,6.004,4.060,4.861,0,0,SEARCHING,0.000,0.800,-0.000,-0.035
23:00:21.101,SEARCHING,21.877,-3.199,1.887,0.00,0.00,3.08,4.670,8.226,5.987,4.067,4.837,0,0,SEARCHING,0.000,0.800,-0.000,-0.037
23:00:21.300,SEARCHING,22.037,-3.191,1.887,0.00,0.00,2.65,4.670,8.288,5.962,4.035,4.865,0,0,SEARCHING,0.000,0.800,-0.015,-0.038
23:00:21.501,SEARCHING,22.133,-3.187,1.883,0.00,0.00,2.40,4.677,8.343,5.936,4.050,4.847,0,0,SEARCHING,0.000,0.800,-0.009,-0.037
23:00:21.702,SEARCHING,22.293,-3.181,1.883,0.00,0.00,1.98,4.695,8.678,5.829,4.003,4.798,0,0,SEARCHING,0.000,0.800,-0.002,-0.035
23:00:21.903,SEARCHING,22.421,-3.177,1.881,0.00,0.00,1.66,4.716,8.705,5.751,4.007,4.860,0,0,SEARCHING,0.000,0.800,-0.039,-0.033
23:00:22.103,SEARCHING,22.517,-3.174,1.872,0.00,0.00,1.44,4.692,8.633,5.750,4.028,4.846,0,0,SEARCHING,0.000,0.800,-0.048,-0.032
23:00:22.304,SEARCHING,22.613,-3.172,1.864,0.00,0.00,1.23,4.674,8.549,5.711,4.084,4.818,0,0,SEARCHING,0.000,0.800,-0.017,-0.031
23:00:22.504,SEARCHING,22.741,-3.169,1.863,0.00,0.00,0.95,4.670,8.664,5.627,4.097,4.844,0,0,SEARCHING,0.000,0.800,-0.004,-0.030
23:00:22.706,SEARCHING,22.901,-3.167,1.863,0.00,0.00,0.61,4.741,8.835,5.609,4.115,4.843,0,0,SEARCHING,0.000,0.800,-0.001,-0.028
23:00:22.909,SEARCHING,23.061,-3.166,1.863,0.00,0.00,0.29,4.757,8.559,5.584,4.132,4.820,0,0,SEARCHING,0.000,0.800,-0.000,-0.026
23:00:23.108,SEARCHING,23.221,-3.165,1.863,0.00,0.00,-0.00,4.756,8.477,5.654,4.113,4.804,0,0,SEARCHING,0.000,0.800,-0.000,-0.026
23:00:23.306,SEARCHING,23.381,-3.166,1.863,0.00,0.00,-0.30,4.765,8.367,5.635,4.109,4.840,0,0,SEARCHING,0.000,0.800,-0.000,-0.026
23:00:23.506,SEARCHING,23.541,-3.167,1.863,0.00,0.00,-0.60,4.738,8.239,5.559,4.124,4.830,0,0,SEARCHING,0.000,0.800,-0.000,-0.025
23:00:23.707,SEARCHING,23.701,-3.169,1.863,0.00,0.00,-0.88,4.764,7.981,5.524,4.140,4.859,0,0,SEARCHING,0.000,0.800,-0.000,-0.024
23:00:23.908,SEARCHING,23.861,-3.172,1.863,0.00,0.00,-1.16,4.681,7.843,5.416,4.062,4.819,0,0,SEARCHING,0.000,0.800,-0.000,-0.024
23:00:24.108,SEARCHING,24.020,-3.176,1.863,0.00,0.00,-1.43,4.676,7.685,5.358,4.116,4.863,0,0,SEARCHING,0.000,0.800,-0.000,-0.022
23:00:24.308,SEARCHING,24.180,-3.180,1.863,0.00,0.00,-1.68,4.703,7.472,5.259,4.090,4.853,0,0,SEARCHING,0.000,0.800,-0.000,-0.020
23:00:24.510,SEARCHING,24.340,-3.185,1.863,0.00,0.00,-1.90,4.675,7.414,5.290,4.085,4.866,0,0,SEARCHING,0.000,0.800,-0.000,-0.019
23:00:24.710,SEARCHING,24.500,-3.190,1.863,0.00,0.00,-2.12,4.623,7.251,5.238,4.124,4.868,0,0,SEARCHING,0.000,0.800,-0.000,-0.020
23:00:24.912,SEARCHING,24.660,-3.197,1.863,0.00,0.00,-2.35,4.582,7.052,5.205,4.149,4.856,0,0,SEARCHING,0.000,0.800,-0.000,-0.021
23:00:25.111,SEARCHING,24.820,-3.203,1.863,0.00,0.00,-2.59,4.568,6.962,5.113,4.090,4.860,0,0,SEARCHING,0.000,0.800,-0.000,-0.020
23:00:25.311,SEARCHING,24.980,-3.211,1.863,0.00,0.00,-2.82,4.501,6.836,5.131,4.130,4.846,0,0,SEARCHING,0.000,0.800,-0.000,-0.021
23:00:25.513,SEARCHING,25.140,-3.219,1.863,0.00,0.00,-3.05,4.561,6.742,5.074,4.097,4.866,0,0,SEARCHING,0.000,0.800,-0.000,-0.020
23:00:25.713,SEARCHING,25.299,-3.228,1.863,0.00,0.00,-3.27,4.575,6.507,5.064,4.099,4.885,0,0,SEARCHING,0.000,0.800,-0.000,-0.018
23:00:25.914,SEARCHING,25.459,-3.237,1.863,0.00,0.00,-3.46,4.576,6.408,4.989,4.065,4.871,0,0,SEARCHING,0.000,0.800,-0.000,-0.016
23:00:26.115,SEARCHING,25.619,-3.247,1.863,0.00,0.00,-3.64,4.549,6.221,4.934,4.112,4.885,0,0,SEARCHING,0.000,0.800,-0.000,-0.014
23:00:26.315,SEARCHING,25.778,-3.258,1.863,0.00,0.00,-3.80,4.504,6.084,4.879,4.111,4.856,0,0,SEARCHING,0.000,0.800,-0.000,-0.014
23:00:26.515,SEARCHING,25.938,-3.268,1.863,0.00,0.00,-3.95,4.541,5.890,4.823,4.138,4.785,0,0,SEARCHING,0.000,0.800,-0.000,-0.012
23:00:26.716,SEARCHING,26.098,-3.280,1.863,0.00,0.00,-4.08,4.495,5.695,4.700,4.149,4.802,0,0,SEARCHING,0.000,0.800,-0.000,-0.009
23:00:26.918,SEARCHING,26.257,-3.291,1.863,0.00,0.00,-4.18,4.501,5.614,4.685,4.143,4.847,0,0,SEARCHING,0.000,0.800,-0.000,-0.008
23:00:27.117,SEARCHING,26.417,-3.303,1.863,0.00,0.00,-4.27,4.488,5.453,4.731,4.072,4.836,0,0,SEARCHING,0.000,0.800,-0.000,-0.008
23:00:27.318,SEARCHING,26.576,-3.315,1.863,0.00,0.00,-4.36,4.487,5.238,4.697,4.034,4.863,0,0,SEARCHING,0.000,0.800,-0.015,-0.008
23:00:27.519,SEARCHING,26.672,-3.322,1.860,0.00,0.00,-4.42,4.469,5.204,4.725,4.088,4.816,0,0,SEARCHING,0.000,0.800,-0.009,-0.008
23:00:27.719,SEARCHING,26.832,-3.335,1.860,0.00,0.00,-4.52,4.484,5.080,4.681,4.057,4.850,0,0,SEARCHING,0.000,0.800,-0.002,-0.008
23:00:27.920,SEARCHING,26.991,-3.347,1.860,0.00,0.00,-4.61,4.506,4.923,4.651,4.080,4.866,0,0,SEARCHING,0.000,0.800,-0.001,-0.007
23:00:28.120,SEARCHING,27.151,-3.360,1.860,0.00,0.00,-4.68,4.451,4.915,4.687,4.109,4.838,0,0,SEARCHING,0.000,0.800,-0.000,-0.007
23:00:28.321,SEARCHING,27.310,-3.373,1.860,0.00,0.00,-4.77,4.463,4.859,4.672,4.191,4.813,0,0,SEARCHING,0.000,0.800,-0.000,-0.008
23:00:28.522,SEARCHING,27.469,-3.387,1.860,0.00,0.00,-4.87,4.424,4.750,4.700,4.159,4.841,0,0,SEARCHING,0.000,0.800,-0.000,-0.009
23:00:28.722,SEARCHING,27.629,-3.401,1.860,0.00,0.00,-4.98,4.426,4.647,4.655,4.126,4.857,0,0,SEARCHING,0.000,0.800,-0.000,-0.009
23:00:28.923,SEARCHING,27.788,-3.415,1.860,0.00,0.00,-5.08,4.462,4.600,4.627,3.988,4.860,0,0,SEARCHING,0.000,0.800,-0.016,-0.008
23:00:29.124,SEARCHING,27.884,-3.423,1.854,0.00,0.00,-5.13,4.523,4.473,4.613,3.902,4.878,0,0,SEARCHING,0.000,0.800,-0.049,-0.005
23:00:29.328,SEARCHING,27.980,-3.432,1.843,0.00,0.00,-5.16,4.567,6.168,4.617,3.762,4.869,0,0,SEARCHING,0.000,0.800,-0.063,-0.004
23:00:29.529,SEARCHING,28.075,-3.440,1.830,0.00,0.00,-5.18,4.575,6.993,4.581,3.684,4.869,0,0,SEARCHING,0.000,0.800,-0.074,-0.001
23:00:29.729,SEARCHING,28.171,-3.449,1.814,0.00,0.00,-5.18,4.530,6.965,4.549,3.591,4.791,0,0,SEARCHING,0.000,0.800,-0.081,-0.000
23:00:29.931,SEARCHING,28.266,-3.458,1.798,0.00,0.00,-5.18,4.521,7.129,4.494,3.513,4.770,0,0,SEARCHING,0.000,0.800,-0.086,0.000
23:00:30.130,SEARCHING,28.362,-3.466,1.780,0.00,0.00,-5.17,4.586,7.147,4.431,3.432,4.738,0,0,SEARCHING,0.000,0.800,-0.093,0.003
23:00:30.331,SEARCHING,28.458,-3.475,1.761,0.00,0.00,-5.14,4.706,7.150,4.361,3.324,4.684,0,0,SEARCHING,0.000,0.800,-0.099,0.009
23:00:30.533,SEARCHING,28.553,-3.484,1.741,0.00,0.00,-5.06,4.735,7.070,4.284,3.255,4.672,0,0,SEARCHING,0.000,0.800,-0.107,0.014
23:00:30.732,SEARCHING,28.649,-3.492,1.719,0.00,0.00,-4.94,4.955,6.995,4.241,3.127,4.592,0,0,SEARCHING,0.000,0.800,-0.116,0.021
23:00:30.932,SEARCHING,28.744,-3.500,1.695,0.00,0.00,-4.76,5.133,6.941,4.104,3.030,4.551,0,0,SEARCHING,0.000,0.800,-0.126,0.032
23:00:31.133,SEARCHING,28.840,-3.508,1.669,0.00,0.00,-4.51,5.598,6.935,4.105,2.928,4.503,0,0,SEARCHING,0.000,0.800,-0.136,0.043
23:00:31.335,SEARCHING,28.936,-3.515,1.642,0.00,0.00,-4.18,5.901,6.934,4.135,2.867,4.424,0,0,SEARCHING,0.000,0.800,-0.143,0.053
23:00:31.536,SEARCHING,29.032,-3.522,1.613,0.00,0.00,-3.80,5.910,6.855,4.136,2.769,4.338,0,0,SEARCHING,0.000,0.800,-0.151,0.057
23:00:31.736,SEARCHING,29.127,-3.528,1.582,0.00,0.00,-3.40,5.968,6.925,4.120,2.677,4.267,0,0,SEARCHING,0.000,0.800,-0.161,0.059
23:00:31.938,SEARCHING,29.223,-3.533,1.549,0.00,0.00,-2.99,6.013,6.932,4.122,2.596,4.192,0,0,SEARCHING,0.000,0.800,-0.170,0.060
23:00:32.137,SEARCHING,29.319,-3.538,1.514,0.00,0.00,-2.57,6.170,6.934,4.116,2.481,4.090,0,0,SEARCHING,0.000,0.800,-0.181,0.063
23:00:32.339,SEARCHING,29.415,-3.542,1.477,0.00,0.00,-2.13,6.182,7.044,4.140,2.418,3.992,0,0,SEARCHING,0.000,0.800,-0.191,0.064
23:00:32.538,SEARCHING,29.511,-3.545,1.439,0.00,0.00,-1.70,6.065,7.120,4.195,2.392,3.884,0,0,SEARCHING,0.000,0.800,-0.194,0.061
23:00:32.739,SEARCHING,29.607,-3.548,1.400,0.00,0.00,-1.29,5.927,7.145,4.222,2.418,3.778,0,0,SEARCHING,0.000,0.800,-0.185,0.057
23:00:32.940,SEARCHING,29.703,-3.550,1.364,0.00,0.00,-0.90,5.878,7.150,4.204,3.630,3.670,0,0,SEARCHING,0.000,0.800,-0.125,0.055
23:00:33.140,SEARCHING,29.799,-3.551,1.350,0.00,0.00,-0.52,5.824,7.167,4.213,5.107,3.636,0,0,SEARCHING,0.000,0.800,0.024,0.054
23:00:33.342,SEARCHING,29.895,-3.552,1.360,0.00,0.00,-0.15,5.849,7.153,4.193,5.286,3.663,0,0,SEARCHING,0.000,0.800,0.082,0.054
23:00:33.542,SEARCHING,29.991,-3.552,1.378,0.00,0.00,0.22,6.001,7.151,4.280,5.336,3.674,0,0,SEARCHING,0.000,0.800,0.098,0.054
23:00:33.742,SEARCHING,30.087,-3.551,1.398,0.00,0.00,0.58,5.878,7.208,4.285,5.271,3.743,0,0,SEARCHING,0.000,0.800,0.096,0.052
23:00:33.943,SEARCHING,30.183,-3.550,1.417,0.00,0.00,0.93,5.869,7.160,4.282,5.259,3.782,0,0,SEARCHING,0.000,0.800,0.092,0.051
23:00:34.144,SEARCHING,30.279,-3.548,1.435,0.00,0.00,1.28,5.867,7.152,4.319,5.183,3.801,0,0,SEARCHING,0.000,0.800,0.087,0.049
23:00:34.344,SEARCHING,30.375,-3.546,1.452,0.00,0.00,1.62,5.800,7.151,4.305,5.140,3.846,0,0,SEARCHING,0.000,0.800,0.083,0.049
23:00:34.545,SEARCHING,30.471,-3.543,1.468,0.00,0.00,1.95,5.752,6.986,4.316,5.124,3.909,0,0,SEARCHING,0.000,0.800,0.077,0.048
23:00:34.746,SEARCHING,30.567,-3.539,1.483,0.00,0.00,2.27,5.726,6.943,4.219,5.038,3.924,0,0,SEARCHING,0.000,0.800,0.069,0.048
23:00:34.946,SEARCHING,30.663,-3.535,1.497,0.00,0.00,2.60,5.593,6.935,4.233,4.970,4.000,0,0,SEARCHING,0.000,0.800,0.064,0.047
23:00:35.147,SEARCHING,30.759,-3.531,1.509,0.00,0.00,2.92,5.597,6.873,4.229,5.037,4.028,0,0,SEARCHING,0.000,0.800,0.060,0.047
23:00:35.347,SEARCHING,30.854,-3.526,1.519,0.00,0.00,3.24,5.495,6.742,4.237,4.939,4.079,0,0,SEARCHING,0.000,0.800,0.036,0.045
23:00:35.548,SEARCHING,30.950,-3.520,1.527,0.00,0.00,3.55,5.456,6.732,4.214,4.968,4.085,0,0,SEARCHING,0.000,0.800,0.048,0.043
23:00:35.749,SEARCHING,31.046,-3.514,1.535,0.00,0.00,3.84,5.384,6.577,4.189,4.953,4.136,0,0,SEARCHING,0.000,0.800,0.017,0.043
23:00:35.949,SEARCHING,31.174,-3.505,1.537,0.00,0.00,4.24,5.377,6.542,4.199,4.824,4.142,0,0,SEARCHING,0.000,0.800,0.004,0.043
23:00:36.149,SEARCHING,31.333,-3.492,1.537,0.00,0.00,4.72,5.254,6.400,4.180,4.894,4.154,0,0,SEARCHING,0.000,0.800,0.001,0.041
23:00:36.350,SEARCHING,31.493,-3.479,1.537,0.00,0.00,5.18,5.175,6.276,4.118,4.927,4.159,0,0,SEARCHING,0.000,0.800,0.000,0.040
23:00:36.552,SEARCHING,31.652,-3.464,1.537,0.00,0.00,5.64,5.101,6.146,4.101,4.875,4.147,0,0,SEARCHING,0.000,0.800,0.000,0.039
23:00:36.752,SEARCHING,31.811,-3.447,1.537,0.00,0.00,6.08,5.019,5.990,4.150,4.839,4.151,0,0,SEARCHING,0.000,0.800,0.000,0.036
23:00:36.952,SEARCHING,31.970,-3.430,1.537,0.00,0.00,6.48,4.924,5.797,4.140,4.848,4.091,0,0,SEARCHING,0.000,0.800,0.000,0.033
23:00:37.152,SEARCHING,32.129,-3.411,1.537,0.00,0.00,6.85,4.849,5.630,4.095,4.834,4.065,0,0,SEARCHING,0.000,0.800,0.000,0.032
23:00:37.354,SEARCHING,32.288,-3.392,1.537,0.00,0.00,7.20,4.779,5.483,4.153,4.787,4.078,0,0,SEARCHING,0.000,0.800,0.000,0.028
23:00:37.554,SEARCHING,32.447,-3.371,1.537,0.00,0.00,7.52,4.725,5.266,4.068,4.831,4.066,0,0,SEARCHING,0.000,0.800,0.000,0.027
23:00:37.755,SEARCHING,32.605,-3.350,1.537,0.00,0.00,7.82,4.657,5.124,4.204,4.859,4.102,0,0,SEARCHING,0.000,0.800,0.000,0.024
23:00:37.955,SEARCHING,32.764,-3.328,1.537,0.00,0.00,8.07,4.544,4.999,4.361,4.878,4.089,0,0,SEARCHING,0.000,0.800,0.000,0.015
23:00:38.158,SEARCHING,32.922,-3.305,1.537,0.00,0.00,8.21,4.493,4.812,4.428,4.818,4.094,0,0,SEARCHING,0.000,0.800,0.000,0.006
23:00:38.356,SEARCHING,33.080,-3.282,1.537,0.00,0.00,8.28,4.428,4.697,4.349,4.664,4.080,0,0,SEARCHING,0.000,0.800,0.000,0.004
23:00:38.557,SEARCHING,33.239,-3.259,1.537,0.00,0.00,8.32,4.342,4.544,4.267,4.561,4.085,0,0,SEARCHING,0.000,0.800,0.000,0.003
23:00:38.757,SEARCHING,33.397,-3.236,1.537,0.00,0.00,8.36,4.313,4.428,4.143,4.439,4.086,0,0,SEARCHING,0.000,0.800,0.000,0.006
23:00:38.959,SEARCHING,33.555,-3.213,1.537,0.00,0.00,8.43,4.265,4.290,4.042,4.279,4.039,0,0,SEARCHING,0.000,0.800,0.000,0.008
23:00:39.159,SEARCHING,33.714,-3.189,1.537,0.00,0.00,8.53,4.221,4.171,3.907,4.142,4.030,0,0,SEARCHING,0.000,0.800,0.000,0.012
23:00:39.359,SEARCHING,33.872,-3.165,1.537,0.00,0.00,8.68,4.156,4.006,3.759,4.003,3.950,0,0,SEARCHING,0.000,0.800,0.000,0.016
23:00:39.559,SEARCHING,34.030,-3.141,1.537,0.00,0.00,8.88,4.054,3.864,3.596,3.855,3.858,0,0,SEARCHING,0.000,0.800,0.000,0.021
23:00:39.760,SEARCHING,34.188,-3.116,1.537,0.00,0.00,9.14,3.966,3.701,3.462,3.706,3.727,0,0,SEARCHING,0.000,0.800,0.000,0.026
23:00:39.961,SEARCHING,34.346,-3.090,1.537,0.00,0.00,9.45,3.844,3.606,3.375,3.616,3.594,0,0,SEARCHING,0.000,0.800,0.000,0.028
23:00:40.161,SEARCHING,34.504,-3.063,1.537,0.00,0.00,9.77,3.653,3.449,3.208,3.450,3.448,0,0,SEARCHING,0.000,0.800,0.000,0.029
23:00:40.362,SEARCHING,34.661,-3.036,1.537,0.00,0.00,10.11,3.536,3.318,3.082,3.318,3.318,0,0,SEARCHING,0.000,0.800,0.000,0.032
23:00:40.562,SEARCHING,34.819,-3.007,1.537,0.00,0.00,10.48,3.367,3.149,2.922,3.143,3.126,0,0,SEARCHING,0.000,0.800,0.000,0.035
23:00:40.763,SEARCHING,34.976,-2.978,1.537,0.00,0.00,10.88,3.237,2.984,2.785,2.982,2.970,0,0,SEARCHING,0.000,0.800,0.000,0.038
23:00:40.964,SEARCHING,35.133,-2.947,1.537,0.00,0.00,11.33,3.055,2.832,2.642,2.843,2.824,0,0,SEARCHING,0.000,0.800,0.000,0.040
23:00:41.164,SEARCHING,35.290,-2.915,1.537,0.00,0.00,11.80,2.927,2.714,2.498,2.721,2.713,0,0,SEARCHING,0.000,0.800,0.000,0.043
23:00:41.364,SEARCHING,35.446,-2.882,1.537,0.00,0.00,12.31,2.776,2.520,2.343,2.525,2.536,0,0,SEARCHING,0.000,0.800,0.000,0.049
23:00:41.565,SEARCHING,35.602,-2.847,1.537,0.00,0.00,12.89,2.626,2.387,2.198,2.381,2.386,0,0,SEARCHING,0.000,0.800,0.000,0.055
23:00:41.766,SEARCHING,35.758,-2.810,1.537,0.00,0.00,13.53,2.491,2.282,2.076,2.277,2.274,0,0,SEARCHING,0.000,0.800,0.000,0.060
23:00:41.966,SEARCHING,35.913,-2.772,1.537,0.00,0.00,14.24,2.320,2.102,1.915,2.100,2.093,0,0,SEARCHING,0.000,0.800,0.000,0.067
23:00:42.167,SEARCHING,36.068,-2.732,1.537,0.00,0.00,15.04,2.167,1.956,1.782,1.965,1.958,0,0,SEARCHING,0.000,0.780,0.000,0.076
23:00:42.368,SEARCHING,36.215,-2.691,1.537,0.00,0.00,15.93,2.054,1.833,1.666,1.837,1.836,0,0,SEARCHING,0.000,0.702,0.000,0.084
23:00:42.568,SEARCHING,36.344,-2.653,1.537,0.00,0.00,16.93,1.899,1.684,1.520,1.686,1.686,0,0,SEARCHING,0.000,0.608,0.000,0.096
23:00:42.769,SEARCHING,36.457,-2.618,1.537,0.00,0.00,18.06,1.792,1.574,1.413,1.582,1.578,0,0,SEARCHING,0.000,0.530,0.000,0.109
23:00:42.970,SEARCHING,36.554,-2.586,1.537,0.00,0.00,19.36,1.701,1.485,1.323,1.484,1.485,0,0,SEARCHING,0.000,0.463,0.000,0.125
23:00:44.451,SEARCHING,36.638,-2.555,1.537,0.00,0.00,20.83,1.642,1.434,1.270,1.431,1.434,0,0,SEARCHING,0.000,0.415,0.000,0.137
23:00:44.461,SEARCHING,36.715,-2.525,1.537,0.00,0.00,22.40,1.642,1.434,1.270,1.431,1.434,0,0,SEARCHING,0.000,0.398,0.000,0.141
23:00:44.581,SEARCHING,36.787,-2.494,1.537,0.00,0.00,24.05,1.521,1.301,1.129,1.300,1.299,0,0,SEARCHING,0.000,0.364,0.000,0.158
23:00:44.769,SEARCHING,36.850,-2.464,1.537,0.00,0.00,25.95,1.457,1.227,1.059,1.229,1.231,0,0,SEARCHING,0.000,0.313,0.000,0.188
23:00:44.968,SEARCHING,36.905,-2.437,1.537,0.00,0.00,28.19,1.439,1.186,1.011,1.188,1.188,0,0,SEARCHING,0.000,0.282,0.000,0.216
23:00:45.169,SEARCHING,36.953,-2.410,1.537,0.00,0.00,30.74,1.431,1.159,0.971,1.161,1.161,0,0,SEARCHING,0.000,0.262,0.000,0.244
23:00:45.370,SEARCHING,36.997,-2.382,1.537,0.00,0.00,33.63,1.441,1.140,0.941,1.138,1.138,0,0,SEARCHING,0.000,0.253,0.000,0.274
23:00:45.570,SEARCHING,37.038,-2.353,1.537,0.00,0.00,36.85,1.462,1.126,0.918,1.129,1.127,0,0,SEARCHING,0.000,0.251,0.000,0.303
23:00:45.771,SEARCHING,37.077,-2.322,1.537,0.00,0.00,40.43,1.527,1.130,0.899,1.131,1.128,0,0,SEARCHING,0.000,0.250,0.000,0.339
23:00:45.971,SEARCHING,37.114,-2.289,1.537,0.00,0.00,44.44,1.613,1.143,0.890,1.146,1.145,0,0,SEARCHING,0.000,0.250,0.000,0.379
23:00:46.173,SEARCHING,37.149,-2.252,1.537,0.00,0.00,48.87,1.636,1.180,0.886,1.178,1.175,0,0,SEARCHING,0.000,0.250,0.000,0.405
23:00:46.373,SEARCHING,37.181,-2.213,1.537,0.00,0.00,53.52,1.590,1.234,0.898,1.230,1.236,0,0,SEARCHING,0.000,0.261,0.000,0.400
23:00:46.574,SEARCHING,37.211,-2.169,1.537,0.00,0.00,58.04,1.540,1.317,0.917,1.316,1.316,0,0,SEARCHING,0.000,0.285,0.000,0.375
23:00:46.774,SEARCHING,37.240,-2.119,1.537,0.00,0.00,62.23,1.488,1.414,0.942,1.415,1.409,0,0,SEARCHING,0.000,0.321,0.000,0.338
23:00:46.974,SEARCHING,37.269,-2.059,1.537,0.00,0.00,65.98,1.439,1.505,0.976,1.523,1.523,0,0,SEARCHING,0.000,0.361,0.000,0.295
23:00:47.175,SEARCHING,37.297,-1.990,1.537,0.00,0.00,69.23,1.390,1.532,1.003,1.536,1.534,0,0,SEARCHING,0.000,0.395,0.000,0.252
23:00:47.375,SEARCHING,37.324,-1.916,1.537,0.00,0.00,71.99,1.331,1.458,1.037,1.458,1.456,0,0,SEARCHING,0.000,0.390,0.000,0.205
23:00:47.576,SEARCHING,37.346,-1.842,1.537,0.00,0.00,74.18,1.280,1.380,1.061,1.381,1.380,0,0,SEARCHING,0.000,0.366,0.000,0.157
23:00:47.777,SEARCHING,37.365,-1.773,1.537,0.00,0.00,75.86,1.221,1.306,1.080,1.306,1.306,0,0,SEARCHING,0.000,0.337,0.000,0.115
23:00:47.977,SEARCHING,37.380,-1.709,1.537,0.00,0.00,77.04,1.171,1.239,1.106,1.239,1.237,0,0,SEARCHING,0.000,0.311,0.000,0.070
23:00:48.181,SEARCHING,37.394,-1.649,1.537,0.00,0.00,77.72,1.116,1.180,1.119,1.181,1.181,0,0,SEARCHING,0.000,0.288,0.000,0.027
23:00:48.383,SEARCHING,37.406,-1.594,1.537,0.00,0.00,77.91,1.065,1.122,1.112,1.122,1.122,0,0,SEARCHING,0.000,0.264,0.000,-0.010
23:00:48.581,SEARCHING,37.416,-1.543,1.537,0.00,0.00,77.70,1.016,1.071,1.105,1.071,1.071,0,0,SEARCHING,0.000,0.253,0.000,-0.043
23:00:48.781,SEARCHING,37.427,-1.494,1.537,0.00,0.00,77.13,0.966,1.022,1.079,1.022,1.021,0,0,SEARCHING,0.000,0.251,0.000,-0.070
23:00:48.981,SEARCHING,37.439,-1.445,1.537,0.00,0.00,76.27,0.917,0.972,1.033,0.973,0.972,0,0,SEARCHING,0.000,0.250,0.000,-0.088
23:00:49.183,SEARCHING,37.451,-1.397,1.537,0.00,0.00,75.22,0.867,0.924,0.989,0.924,0.924,0,0,SEARCHING,0.000,0.250,0.000,-0.103
23:00:49.383,SEARCHING,37.464,-1.348,1.537,0.00,0.00,73.99,0.818,0.878,0.947,0.877,0.877,0,0,SEARCHING,0.000,0.250,0.000,-0.120
23:00:49.584,SEARCHING,37.479,-1.300,1.537,0.00,0.00,72.56,0.769,0.831,0.903,0.830,0.831,0,0,SEARCHING,0.000,0.250,0.000,-0.139
23:00:49.824,INSPECTING,37.494,-1.253,1.537,0.00,0.00,70.90,0.721,0.785,0.861,0.785,0.785,0,0,SEARCHING,0.000,0.175,0.000,-0.163
23:00:49.984,INSPECTING,37.508,-1.215,1.537,0.00,0.00,67.96,0.677,0.745,0.813,0.745,0.746,0,0,INSPECT_RIGHT,0.000,0.168,0.000,-0.419
23:00:50.185,INSPECTING,37.522,-1.184,1.537,0.00,0.00,62.91,0.641,0.722,0.736,0.722,0.721,0,0,INSPECT_RIGHT,0.000,0.157,0.000,-0.481
23:00:50.386,INSPECTING,37.537,-1.158,1.537,0.00,0.00,57.35,0.614,0.712,0.659,0.712,0.712,0,0,INSPECT_RIGHT,0.000,0.142,0.000,-0.495
23:00:50.587,INSPECTING,37.553,-1.135,1.537,0.00,0.00,51.66,0.597,0.714,0.592,0.714,0.714,0,0,INSPECT_RIGHT,0.000,0.128,0.000,-0.499
23:00:50.787,INSPECTING,37.566,-1.119,1.523,0.00,0.00,47.96,0.589,0.720,0.542,0.721,0.722,0,0,INSPECT_BOTTOM,0.000,0.138,-0.263,-0.171
23:00:50.988,INSPECTING,37.578,-1.107,1.460,0.00,0.00,47.35,0.582,0.698,0.520,0.700,0.699,0,0,INSPECT_BOTTOM,0.000,0.140,-0.367,-0.041
23:00:51.188,INSPECTING,37.589,-1.095,1.384,0.00,0.00,47.20,0.572,0.680,0.508,0.679,0.679,0,0,INSPECT_BOTTOM,0.000,0.138,-0.392,-0.010
23:00:51.391,INSPECTING,37.600,-1.082,1.305,0.00,0.00,47.16,0.561,0.666,0.499,0.665,0.665,0,0,INSPECT_BOTTOM,0.000,0.135,-0.398,-0.002
23:00:51.591,INSPECTING,37.611,-1.071,1.225,0.00,0.00,47.15,0.549,0.650,0.488,0.652,0.654,0,0,INSPECT_BOTTOM,0.000,0.132,-0.400,-0.001
23:00:51.791,INSPECTING,37.622,-1.059,1.145,0.00,0.00,47.15,0.538,0.638,0.481,0.637,0.637,0,0,INSPECT_BOTTOM,0.000,0.130,-0.400,-0.000
23:00:51.991,INSPECTING,37.632,-1.048,1.065,0.00,0.00,47.15,0.526,0.627,0.471,0.628,0.621,0,0,INSPECT_BOTTOM,0.000,0.126,-0.400,-0.000
23:00:52.192,INSPECTING,37.642,-1.037,0.986,0.00,0.00,47.15,0.517,0.609,0.458,0.616,0.608,0,0,INSPECT_BOTTOM,0.000,0.123,-0.400,-0.000
23:00:52.392,INSPECTING,37.652,-1.026,0.905,0.00,0.00,47.15,0.505,0.596,0.447,0.600,0.595,0,0,INSPECT_BOTTOM,0.000,0.121,-0.400,-0.000
23:00:52.593,INSPECTING,37.662,-1.016,0.825,0.00,0.00,47.15,0.495,0.584,0.437,0.584,0.583,0,0,INSPECT_BOTTOM,0.000,0.118,-0.400,-0.000
23:00:52.794,INSPECTING,37.672,-1.005,0.745,0.00,0.00,47.15,0.484,0.573,0.430,0.572,0.576,0,0,INSPECT_BOTTOM,0.000,0.116,-0.400,-0.000
23:00:52.995,INSPECTING,37.681,-0.995,0.665,0.00,0.00,47.15,0.474,0.562,0.425,0.561,0.566,0,0,INSPECT_BOTTOM,0.000,0.114,-0.400,-0.000
23:00:53.196,INSPECTING,37.690,-0.985,0.585,0.00,0.00,47.15,0.463,0.552,0.415,0.549,0.557,0,0,INSPECT_BOTTOM,0.000,0.113,-0.400,-0.000
23:00:53.396,INSPECTING,37.699,-0.975,0.505,0.00,0.00,47.15,0.455,0.542,0.405,0.538,0.543,0,0,INSPECT_BOTTOM,0.000,0.110,-0.400,-0.000
23:00:53.596,INSPECTING,37.708,-0.966,0.425,0.00,0.00,47.15,0.445,0.532,0.394,0.529,0.533,0,0,INSPECT_BOTTOM,0.000,0.108,-0.400,-0.000
23:00:53.797,INSPECTING,37.717,-0.956,0.345,0.00,0.00,47.15,0.438,0.522,0.384,0.520,0.522,0,0,INSPECT_BOTTOM,0.000,0.106,-0.400,-0.000
23:00:53.997,TURNING,37.723,-0.950,0.279,0.00,0.00,46.67,0.428,0.512,0.381,0.509,0.510,0,0,TURNING,0.000,0.077,-0.196,-0.714
23:00:54.198,TURNING,37.728,-0.945,0.253,0.00,0.00,39.51,0.435,0.470,0.363,0.470,0.472,0,0,TURNING,0.000,0.057,-0.047,-1.235
23:00:54.399,TURNING,37.733,-0.941,0.247,0.00,0.00,30.47,0.463,0.411,0.334,0.410,0.411,0,0,TURNING,0.000,0.052,-0.011,-1.360
23:00:54.600,TURNING,37.741,-0.938,0.246,0.00,0.00,17.84,0.421,0.360,0.309,0.359,0.359,0,0,TURNING,0.000,0.050,-0.003,-1.391
23:00:54.802,TURNING,37.751,-0.936,0.246,0.00,0.00,1.88,0.343,0.319,0.298,0.318,0.318,0,0,TURNING,0.000,0.050,-0.001,-1.398
23:00:55.001,TURNING,37.761,-0.937,0.246,0.00,0.00,-14.15,0.292,0.297,0.304,0.297,0.297,0,0,TURNING,0.000,0.050,-0.000,-1.399
23:00:55.202,TURNING,37.770,-0.941,0.246,0.00,0.00,-30.18,0.261,0.290,0.329,0.291,0.290,0,0,TURNING,0.000,0.050,-0.000,-1.400
23:00:55.402,TURNING,37.778,-0.947,0.246,0.00,0.00,-46.22,0.259,0.317,0.407,0.316,0.315,0,0,TURNING,0.000,0.050,-0.000,-1.400
23:00:55.603,TURNING,37.784,-0.955,0.246,0.00,0.00,-62.27,0.288,0.393,0.623,0.393,0.393,0,0,TURNING,0.000,0.050,-0.000,-1.400
23:00:55.804,TURNING,37.787,-0.964,0.246,0.00,0.00,-78.31,0.368,0.595,1.494,0.599,0.591,0,0,TURNING,0.000,0.050,-0.000,-1.400
23:00:56.005,TURNING,37.788,-0.974,0.246,0.00,0.00,-94.35,0.560,1.316,1.911,1.358,0.714,0,0,TURNING,0.000,0.050,-0.000,-1.400
23:00:56.249,RETURNING,37.786,-0.984,0.246,0.00,0.00,-110.40,1.213,1.919,1.934,3.345,0.724,0,0,TURNING,0.000,0.035,-0.000,-0.980
23:00:56.405,RETURNING,37.781,-0.995,0.287,0.00,0.00,-114.67,2.059,2.169,2.055,3.683,0.786,0,0,RETURNING,0.000,0.214,0.532,-0.888
23:00:56.605,RETURNING,37.767,-1.024,0.406,0.00,0.00,-120.46,2.979,2.808,2.798,3.918,1.037,0,0,RETURNING,0.000,0.325,0.660,-0.795
23:00:56.806,RETURNING,37.743,-1.060,0.541,0.00,0.00,-125.71,3.330,4.005,4.101,4.294,1.380,0,0,RETURNING,0.000,0.402,0.657,-0.733
23:00:57.006,RETURNING,37.711,-1.101,0.666,0.00,0.00,-130.58,3.302,4.583,5.726,4.623,1.725,0,0,RETURNING,0.000,0.463,0.538,-0.685
23:00:57.208,RETURNING,37.672,-1.144,0.764,0.00,0.00,-135.15,3.398,4.913,6.449,4.953,1.952,0,0,RETURNING,0.000,0.516,0.427,-0.637
23:00:57.408,RETURNING,37.625,-1.188,0.845,0.00,0.00,-139.37,3.614,5.407,7.318,5.379,2.206,0,0,RETURNING,0.000,0.561,0.357,-0.587
23:00:57.608,RETURNING,37.570,-1.232,0.914,0.00,0.00,-143.25,3.809,5.896,7.634,5.893,2.411,0,0,RETURNING,0.000,0.600,0.317,-0.537
23:00:57.808,RETURNING,37.510,-1.275,0.975,0.00,0.00,-146.79,4.095,6.458,8.145,6.135,2.569,0,0,RETURNING,0.000,0.633,0.289,-0.490
23:00:58.009,RETURNING,37.444,-1.316,1.031,0.00,0.00,-150.02,4.366,6.863,6.068,5.476,2.699,0,0,RETURNING,0.000,0.661,0.255,-0.443
23:00:58.210,RETURNING,37.374,-1.354,1.079,0.00,0.00,-152.88,4.545,7.186,3.590,5.078,2.875,0,0,RETURNING,0.000,0.684,0.211,-0.383
23:00:58.410,RETURNING,37.299,-1.391,1.119,0.00,0.00,-155.34,4.729,7.599,3.201,5.061,2.978,0,0,RETURNING,0.000,0.703,0.182,-0.333
23:00:58.611,RETURNING,37.221,-1.425,1.154,0.00,0.00,-157.50,4.922,7.843,2.950,4.930,3.079,0,0,RETURNING,0.000,0.718,0.159,-0.294
23:00:58.815,RETURNING,37.140,-1.457,1.184,0.00,0.00,-159.42,5.052,8.209,2.632,4.883,3.129,0,0,RETURNING,0.000,0.730,0.145,-0.259
23:00:59.015,RETURNING,37.057,-1.487,1.212,0.00,0.00,-161.09,5.292,8.507,2.426,4.745,3.215,0,0,RETURNING,0.000,0.740,0.130,-0.227
23:00:59.216,RETURNING,36.973,-1.515,1.238,0.00,0.00,-162.56,5.560,8.933,2.272,4.683,3.298,0,0,RETURNING,0.000,0.748,0.116,-0.198
23:00:59.417,RETURNING,36.886,-1.541,1.260,0.00,0.00,-163.84,5.712,9.180,2.159,4.638,3.337,0,0,RETURNING,0.000,0.754,0.108,-0.173
23:00:59.617,RETURNING,36.799,-1.566,1.281,0.00,0.00,-164.96,5.763,9.272,2.086,4.596,3.398,0,0,RETURNING,0.000,0.760,0.098,-0.153
23:00:59.818,RETURNING,36.710,-1.589,1.300,0.00,0.00,-165.95,5.910,9.767,1.992,4.486,3.448,0,0,RETURNING,0.000,0.764,0.088,-0.134
23:01:00.019,RETURNING,36.621,-1.611,1.317,0.00,0.00,-166.82,5.968,9.826,1.918,4.417,3.504,0,0,RETURNING,0.000,0.768,0.078,-0.118
23:01:00.219,RETURNING,36.531,-1.631,1.332,0.00,0.00,-167.58,6.047,9.919,1.839,4.329,3.518,0,0,RETURNING,0.000,0.771,0.069,-0.102
23:01:00.420,RETURNING,36.441,-1.651,1.345,0.00,0.00,-168.24,6.126,9.863,1.777,4.218,3.566,0,0,RETURNING,0.000,0.773,0.060,-0.089
23:01:00.621,RETURNING,36.349,-1.669,1.355,0.00,0.00,-168.81,6.174,9.934,1.738,4.121,3.605,0,0,RETURNING,0.000,0.776,0.020,-0.077
23:01:00.820,RETURNING,36.228,-1.693,1.356,0.00,0.00,-169.48,6.283,9.845,1.707,3.999,3.605,0,0,RETURNING,0.000,0.777,0.005,-0.066
23:01:01.023,RETURNING,36.074,-1.720,1.356,0.00,0.00,-170.21,6.344,9.768,1.698,3.917,3.623,0,0,RETURNING,0.000,0.780,0.001,-0.056
23:01:01.222,RETURNING,35.921,-1.746,1.356,0.00,0.00,-170.82,6.407,9.769,1.648,3.815,3.600,0,0,RETURNING,0.000,0.781,0.000,-0.045
23:01:01.422,RETURNING,35.766,-1.770,1.356,0.00,0.00,-171.31,6.522,9.877,1.607,3.788,3.621,0,0,RETURNING,0.000,0.783,0.000,-0.035
23:01:01.624,RETURNING,35.611,-1.794,1.356,0.00,0.00,-171.68,6.457,9.940,1.557,3.848,3.584,0,0,RETURNING,0.000,0.784,0.000,-0.026
23:01:01.824,RETURNING,35.456,-1.816,1.356,0.00,0.00,-171.96,6.515,9.823,1.561,4.221,3.611,0,0,RETURNING,0.000,0.785,0.000,-0.020
23:01:02.025,RETURNING,35.331,-1.833,1.359,0.00,0.00,-172.13,6.484,9.934,1.533,4.994,3.614,0,0,RETURNING,0.000,0.785,0.052,-0.016
23:01:02.225,RETURNING,35.238,-1.846,1.372,0.00,0.00,-172.22,6.541,9.947,1.445,5.029,3.660,0,0,RETURNING,0.000,0.786,0.086,-0.009
23:01:02.428,RETURNING,35.145,-1.859,1.390,0.00,0.00,-172.25,6.538,9.964,1.353,5.242,3.698,0,0,RETURNING,0.000,0.786,0.093,0.002
23:01:02.628,RETURNING,35.051,-1.872,1.409,0.00,0.00,-172.20,6.538,9.967,1.264,5.249,3.736,0,0,RETURNING,0.000,0.786,0.093,0.014
23:01:02.828,RETURNING,34.958,-1.885,1.427,0.00,0.00,-172.07,6.464,9.980,1.170,5.200,3.781,0,0,RETURNING,0.000,0.786,0.090,0.025
23:01:03.028,RETURNING,34.864,-1.898,1.445,0.00,0.00,-171.88,6.369,9.981,1.142,5.187,3.847,0,0,RETURNING,0.000,0.785,0.084,0.031
23:01:03.229,RETURNING,34.771,-1.911,1.461,0.00,0.00,-171.64,6.358,9.960,1.071,5.191,3.875,0,0,RETURNING,0.000,0.784,0.080,0.039
23:01:03.429,RETURNING,34.678,-1.925,1.477,0.00,0.00,-171.35,6.320,9.961,1.125,5.163,3.912,0,0,RETURNING,0.000,0.784,0.077,0.040
23:01:03.631,RETURNING,34.585,-1.939,1.492,0.00,0.00,-171.13,6.189,9.973,1.258,5.078,3.963,0,0,RETURNING,0.000,0.783,0.070,0.020
23:01:03.831,RETURNING,34.493,-1.954,1.506,0.00,0.00,-171.05,6.066,9.960,1.250,5.011,3.995,0,0,RETURNING,0.000,0.782,0.064,0.007
23:01:04.032,RETURNING,34.400,-1.968,1.518,0.00,0.00,-171.05,6.055,9.950,1.457,4.979,4.034,0,0,RETURNING,0.000,0.782,0.060,-0.011
23:01:04.235,RETURNING,34.307,-1.983,1.530,0.00,0.00,-171.18,6.004,9.862,1.515,4.959,4.062,0,0,RETURNING,0.000,0.782,0.055,-0.024
23:01:04.434,RETURNING,34.214,-1.997,1.541,0.00,0.00,-171.36,5.922,9.941,1.539,4.870,4.080,0,0,RETURNING,0.000,0.782,0.037,-0.028
23:01:04.635,RETURNING,34.122,-2.011,1.546,0.00,0.00,-171.56,5.848,9.948,1.580,4.832,4.119,0,0,RETURNING,0.000,0.783,0.009,-0.031
23:01:04.835,RETURNING,33.967,-2.034,1.546,0.00,0.00,-171.92,5.791,9.948,1.543,4.908,4.128,0,0,RETURNING,0.000,0.783,0.002,-0.029
23:01:05.036,RETURNING,33.811,-2.055,1.546,0.00,0.00,-172.24,5.754,9.862,1.523,4.873,4.133,0,0,RETURNING,0.000,0.784,0.001,-0.025
23:01:05.237,RETURNING,33.656,-2.076,1.546,0.00,0.00,-172.51,5.755,9.938,1.823,4.864,4.095,0,0,RETURNING,0.000,0.785,0.000,-0.028
23:01:05.438,RETURNING,33.500,-2.096,1.546,0.00,0.00,-172.90,5.633,9.947,2.030,4.868,4.087,0,0,RETURNING,0.000,0.786,0.000,-0.048
23:01:05.638,RETURNING,33.344,-2.115,1.546,0.00,0.00,-173.47,5.822,9.948,2.097,4.752,4.039,0,0,RETURNING,0.000,0.787,0.000,-0.052
23:01:05.840,RETURNING,33.188,-2.132,1.546,0.00,0.00,-174.06,5.851,9.906,2.192,4.809,4.081,0,0,RETURNING,0.000,0.788,0.000,-0.050
23:01:06.040,RETURNING,33.031,-2.148,1.546,0.00,0.00,-174.63,5.850,9.784,2.461,4.848,4.067,0,0,RETURNING,0.000,0.789,0.000,-0.052
23:01:06.240,RETURNING,32.874,-2.162,1.546,0.00,0.00,-175.24,5.850,9.812,2.507,4.780,4.079,0,0,RETURNING,0.000,0.790,0.000,-0.052
23:01:06.441,RETURNING,32.716,-2.174,1.546,0.00,0.00,-175.82,5.865,9.745,2.499,4.838,4.107,0,0,RETURNING,0.000,0.791,0.000,-0.047
23:01:06.642,RETURNING,32.558,-2.185,1.546,0.00,0.00,-176.33,5.867,9.610,2.483,4.833,4.089,0,0,RETURNING,0.000,0.792,0.000,-0.040
23:01:06.843,RETURNING,32.400,-2.195,1.546,0.00,0.00,-176.78,5.899,9.744,2.478,4.894,4.065,0,0,RETURNING,0.000,0.793,0.015,-0.035
23:01:07.042,RETURNING,32.305,-2.200,1.549,0.00,0.00,-177.00,5.906,9.551,2.432,4.776,4.084,0,0,RETURNING,0.000,0.794,0.009,-0.029
23:01:07.244,RETURNING,32.146,-2.208,1.549,0.00,0.00,-177.32,5.880,9.557,2.496,4.748,4.086,0,0,RETURNING,0.000,0.794,0.002,-0.026
23:01:07.444,RETURNING,31.987,-2.215,1.549,0.00,0.00,-177.64,5.848,9.398,3.088,4.824,4.064,0,0,RETURNING,0.000,0.795,0.001,-0.034
23:01:07.645,RETURNING,31.828,-2.221,1.549,0.00,0.00,-178.05,5.765,9.120,3.213,4.840,4.077,0,0,RETURNING,0.000,0.795,0.000,-0.039
23:01:07.845,RETURNING,31.669,-2.226,1.549,0.00,0.00,-178.50,5.666,9.150,3.266,4.866,4.037,0,0,RETURNING,0.000,0.796,0.015,-0.038
23:01:08.045,RETURNING,31.574,-2.228,1.552,0.00,0.00,-178.75,5.590,8.867,3.279,4.823,4.077,0,0,RETURNING,0.000,0.796,0.009,-0.036
23:01:08.246,RETURNING,31.415,-2.231,1.552,0.00,0.00,-179.16,5.729,8.852,3.268,4.888,4.062,0,0,RETURNING,0.000,0.797,0.002,-0.032
23:01:08.447,RETURNING,31.287,-2.233,1.552,0.00,0.00,-179.44,5.754,8.773,3.236,4.856,4.025,0,0,RETURNING,0.000,0.797,0.026,-0.027
23:01:08.648,RETURNING,31.191,-2.233,1.559,0.00,0.00,-179.61,5.825,8.797,3.238,4.861,4.031,0,0,RETURNING,0.000,0.797,0.045,-0.024
23:01:08.848,RETURNING,31.096,-2.234,1.567,0.00,0.00,-179.77,5.862,8.653,3.168,4.773,4.080,0,0,RETURNING,0.000,0.798,0.016,-0.021
23:01:09.048,RETURNING,30.968,-2.234,1.568,0.00,0.00,-179.95,5.866,8.576,3.194,4.761,4.074,0,0,RETURNING,0.000,0.798,0.004,-0.018
23:01:09.249,RETURNING,30.809,-2.234,1.568,-0.00,0.00,179.85,5.913,8.483,3.203,4.783,4.085,0,0,RETURNING,0.000,0.798,0.001,-0.016
23:01:09.450,RETURNING,30.649,-2.234,1.568,-0.00,0.00,179.67,6.009,8.209,3.256,4.762,4.064,0,0,RETURNING,0.000,0.798,0.000,-0.014
23:01:09.651,RETURNING,30.489,-2.232,1.568,-0.00,0.00,179.52,6.019,8.231,3.230,4.759,4.023,0,0,RETURNING,0.000,0.798,0.000,-0.012
23:01:09.851,RETURNING,30.330,-2.231,1.568,-0.00,0.00,179.38,6.116,8.118,3.266,4.802,4.015,0,0,RETURNING,0.000,0.798,0.000,-0.010
23:01:10.052,RETURNING,30.170,-2.229,1.568,-0.00,0.00,179.26,6.176,7.931,3.310,4.837,4.014,0,0,RETURNING,0.000,0.798,0.015,-0.010
23:01:10.253,RETURNING,30.074,-2.228,1.573,-0.00,0.00,179.20,6.167,7.856,3.348,4.803,3.962,0,0,RETURNING,0.000,0.799,0.044,-0.009
23:01:10.453,RETURNING,29.978,-2.226,1.583,-0.00,0.00,179.14,6.182,7.886,3.363,4.779,4.005,0,0,RETURNING,0.000,0.799,0.034,-0.009
23:01:10.654,RETURNING,29.883,-2.225,1.587,-0.00,0.00,179.08,6.184,7.603,3.395,4.781,4.013,0,0,RETURNING,0.000,0.799,0.008,-0.009
23:01:10.854,RETURNING,29.723,-2.222,1.587,-0.00,0.00,178.97,6.184,7.624,3.397,4.774,3.969,0,0,RETURNING,0.000,0.799,0.017,-0.008
23:01:11.055,RETURNING,29.627,-2.220,1.593,-0.00,0.00,178.92,6.220,7.517,3.389,4.788,3.983,0,0,RETURNING,0.000,0.799,0.043,-0.007
23:01:11.258,RETURNING,29.531,-2.219,1.602,-0.00,0.00,178.87,6.190,7.404,3.434,4.781,4.004,0,0,RETURNING,0.000,0.799,0.034,-0.007
23:01:11.456,RETURNING,29.435,-2.217,1.607,-0.00,0.00,178.82,6.132,7.383,3.468,4.707,4.073,0,0,RETURNING,0.000,0.799,0.008,-0.008
23:01:11.658,RETURNING,29.276,-2.213,1.607,-0.00,0.00,178.73,6.221,7.178,3.515,4.709,4.037,0,0,RETURNING,0.000,0.799,0.002,-0.008
23:01:11.859,RETURNING,29.116,-2.210,1.607,-0.00,0.00,178.64,6.165,7.043,3.550,4.713,4.021,0,0,RETURNING,0.000,0.799,0.000,-0.007
23:01:12.059,RETURNING,28.956,-2.206,1.607,-0.00,0.00,178.55,6.182,6.958,3.581,4.720,3.980,0,0,RETURNING,0.000,0.799,0.000,-0.008
23:01:12.260,RETURNING,28.796,-2.202,1.607,-0.00,0.00,178.46,6.160,6.887,3.582,4.713,3.956,0,0,RETURNING,0.000,0.799,0.000,-0.007
23:01:12.460,RETURNING,28.637,-2.197,1.607,-0.00,0.00,178.38,6.147,6.775,3.552,4.756,3.946,0,0,RETURNING,0.000,0.799,0.016,-0.006
23:01:12.662,RETURNING,28.541,-2.194,1.612,-0.00,0.00,178.34,6.231,6.579,3.566,4.674,3.925,0,0,RETURNING,0.000,0.799,0.028,-0.005
23:01:12.863,RETURNING,28.445,-2.192,1.617,-0.00,0.00,178.31,6.201,6.452,3.551,4.692,3.910,0,0,RETURNING,0.000,0.799,0.041,-0.005
23:01:13.063,RETURNING,28.349,-2.189,1.626,-0.00,0.00,178.28,6.108,6.312,3.525,4.706,3.881,0,0,RETURNING,0.000,0.799,0.050,-0.004
23:01:13.262,RETURNING,28.253,-2.186,1.637,-0.00,0.00,178.25,6.110,6.256,3.476,4.659,3.850,0,0,RETURNING,0.000,0.799,0.053,-0.004
23:01:13.464,RETURNING,28.157,-2.183,1.647,-0.00,0.00,178.23,6.109,6.210,3.475,4.545,3.889,0,0,RETURNING,0.000,0.799,0.036,-0.003
23:01:13.664,RETURNING,28.062,-2.180,1.652,-0.00,0.00,178.21,6.078,6.163,3.400,4.648,3.894,0,0,RETURNING,0.000,0.799,0.024,-0.002
23:01:13.864,RETURNING,27.966,-2.177,1.657,-0.00,0.00,178.20,5.998,5.937,3.293,4.618,3.905,0,0,RETURNING,0.000,0.799,0.011,-0.001
23:01:14.065,RETURNING,27.838,-2.173,1.658,-0.00,0.00,178.20,5.854,5.756,3.249,4.639,3.920,0,0,RETURNING,0.000,0.799,0.003,0.000
23:01:14.266,RETURNING,27.678,-2.168,1.658,-0.00,0.00,178.20,5.845,5.569,3.136,4.597,3.908,0,0,RETURNING,0.000,0.799,0.001,0.001
23:01:14.467,RETURNING,27.518,-2.163,1.658,-0.00,0.00,178.22,5.880,5.386,3.123,4.593,3.917,0,0,RETURNING,0.000,0.799,0.000,0.002
23:01:14.667,RETURNING,27.359,-2.158,1.658,-0.00,0.00,178.24,5.813,5.216,3.124,4.578,3.883,0,0,RETURNING,0.000,0.799,0.000,0.002
23:01:14.868,RETURNING,27.199,-2.153,1.658,-0.00,0.00,178.27,5.869,4.939,3.088,4.581,3.846,0,0,RETURNING,0.000,0.799,0.015,0.002
23:01:15.068,RETURNING,27.103,-2.150,1.663,-0.00,0.00,178.29,5.930,4.767,3.075,4.543,3.817,0,0,RETURNING,0.000,0.799,0.043,0.003
23:01:15.269,RETURNING,27.007,-2.147,1.672,-0.00,0.00,178.31,6.011,4.738,3.143,4.578,3.805,0,0,RETURNING,0.000,0.799,0.050,0.002
23:01:15.470,RETURNING,26.911,-2.145,1.682,-0.00,0.00,178.32,6.009,4.630,3.174,4.552,3.739,0,0,RETURNING,0.000,0.799,0.053,0.001
23:01:15.670,RETURNING,26.816,-2.142,1.693,-0.00,0.00,178.32,6.028,4.514,3.191,4.508,3.696,0,0,RETURNING,0.000,0.799,0.058,0.001
23:01:15.871,RETURNING,26.720,-2.139,1.705,-0.00,0.00,178.33,6.137,4.490,3.182,4.490,3.646,0,0,RETURNING,0.000,0.799,0.061,0.000
23:01:16.071,RETURNING,26.624,-2.136,1.717,-0.00,0.00,178.33,6.092,4.487,3.185,4.478,3.650,0,0,RETURNING,0.000,0.799,0.062,0.000
23:01:16.272,RETURNING,26.528,-2.133,1.730,-0.00,0.00,178.33,6.169,4.487,3.168,4.467,3.623,0,0,RETURNING,0.000,0.799,0.062,0.001
23:01:16.472,RETURNING,26.432,-2.131,1.742,-0.00,0.00,178.34,6.260,4.410,3.208,4.441,3.636,0,0,RETURNING,0.000,0.799,0.061,0.001
23:01:16.673,RETURNING,26.336,-2.128,1.754,-0.00,0.00,178.34,6.399,4.323,3.189,4.409,3.684,0,0,RETURNING,0.000,0.799,0.057,0.001
23:01:18.042,RETURNING,26.257,-2.125,1.765,-0.00,0.00,178.35,6.441,4.297,3.199,4.433,3.668,0,0,RETURNING,0.000,0.799,0.056,0.001
23:01:18.108,RETURNING,26.177,-2.123,1.776,-0.00,0.00,178.36,6.588,4.190,3.211,4.357,3.711,0,0,RETURNING,0.000,0.799,0.039,0.001
23:01:18.288,RETURNING,26.081,-2.120,1.782,-0.00,0.00,178.37,6.698,3.983,3.249,4.321,3.752,0,0,RETURNING,0.000,0.799,0.009,0.001
23:01:18.484,RETURNING,25.921,-2.116,1.782,-0.00,0.00,178.38,6.779,3.861,3.266,4.281,3.765,0,0,RETURNING,0.000,0.799,0.002,0.001
23:01:18.684,RETURNING,25.761,-2.111,1.782,-0.00,0.00,178.39,7.048,3.736,3.252,4.303,3.722,0,0,RETURNING,0.000,0.799,0.001,0.002
23:01:18.884,RETURNING,25.602,-2.107,1.782,-0.00,0.00,178.41,7.318,3.488,3.310,4.316,3.589,0,0,RETURNING,0.000,0.799,0.017,0.001
23:01:19.086,RETURNING,25.506,-2.104,1.788,-0.00,0.00,178.43,7.399,3.419,3.338,4.317,3.488,0,0,RETURNING,0.000,0.799,0.052,0.002
23:01:19.285,RETURNING,25.410,-2.102,1.799,-0.00,0.00,178.43,7.588,3.319,3.354,4.317,3.394,0,0,RETURNING,0.000,0.799,0.068,0.001
23:01:19.486,RETURNING,25.314,-2.099,1.814,-0.00,0.00,178.44,7.623,3.208,3.441,4.313,3.308,0,0,RETURNING,0.000,0.799,0.078,0.001
23:01:19.688,RETURNING,25.218,-2.096,1.830,-0.00,0.00,178.44,7.627,3.119,3.507,4.241,3.231,0,0,RETURNING,0.000,0.799,0.085,-0.001
23:01:19.887,RETURNING,25.123,-2.094,1.847,-0.00,0.00,178.43,7.627,3.068,3.518,4.227,3.069,0,0,RETURNING,0.000,0.799,0.097,-0.002
23:01:20.088,RETURNING,25.027,-2.091,1.867,-0.00,0.00,178.41,7.610,3.032,3.514,4.180,3.015,0,0,RETURNING,0.000,0.799,0.105,-0.002
23:01:20.288,RETURNING,24.931,-2.089,1.889,-0.00,0.00,178.40,7.607,2.775,3.539,4.114,2.910,0,0,RETURNING,0.000,0.799,0.115,-0.002
