timestamp,state,x,y,z,roll_deg,pitch_deg,yaw_deg,dist_left,dist_center,dist_right,dist_top,dist_bottom,dtof_alert,collision_event,best_dir,max_space,cmd_vx,cmd_vz,cmd_yaw
19:09:45.262,SEARCHING,0.064,0.000,1.000,0.00,0.00,0.00,10.000,10.000,10.000,10.000,10.000,0,0,SEARCHING,10.000,0.000,0.000,0.000
19:09:45.463,SEARCHING,0.224,0.000,1.000,0.00,0.00,0.00,10.000,10.000,10.000,10.000,10.000,0,0,SEARCHING,10.000,0.000,0.000,0.000
19:09:45.665,SEARCHING,0.384,0.000,1.000,0.00,0.00,0.00,0.817,0.795,2.460,0.795,0.792,0,0,SEARCHING,0.792,0.000,0.000,0.000
19:09:45.902,INSPECTING,0.450,-0.001,1.000,0.00,0.00,-7.56,0.689,0.691,2.119,0.693,0.691,0,0,RIGHT,2.119,0.120,0.000,0.000
19:09:46.099,INSPECTING,0.479,-0.008,1.000,0.00,0.00,-20.17,0.602,2.630,1.658,2.661,2.460,0,0,TOP,2.661,0.120,0.000,0.000
19:09:46.301,INSPECTING,0.507,-0.019,1.000,0.00,0.00,-22.69,0.665,2.222,1.525,2.222,2.222,0,0,TOP,2.222,0.120,0.000,0.000
19:09:46.503,INSPECTING,0.535,-0.031,1.000,0.00,0.00,-22.69,0.650,2.200,1.505,2.179,2.159,0,0,TOP,2.179,0.120,0.000,0.000
19:09:46.668,SEARCHING,0.572,-0.047,1.000,0.00,0.00,-23.59,0.711,2.138,1.496,2.138,2.159,0,0,SEARCHING,0.711,0.000,0.000,0.000
19:09:46.868,SEARCHING,0.690,-0.106,1.000,0.00,0.00,-26.84,3.134,1.845,1.315,1.845,1.845,0,0,SEARCHING,1.315,0.000,0.000,0.000
19:09:47.069,SEARCHING,0.799,-0.155,1.000,0.00,0.00,-21.90,3.092,1.923,1.362,1.923,1.956,0,0,SEARCHING,1.362,0.000,0.000,0.000
19:09:47.270,SEARCHING,0.917,-0.198,1.000,0.00,0.00,-17.16,3.365,2.159,1.354,2.159,2.179,0,0,SEARCHING,1.354,0.000,0.000,0.000
19:09:47.473,SEARCHING,1.053,-0.234,1.000,0.00,0.00,-12.15,3.691,2.434,1.395,2.460,2.409,0,0,SEARCHING,1.395,0.000,0.000,0.000
19:09:47.675,SEARCHING,1.208,-0.261,1.000,0.00,0.00,-7.09,4.868,2.724,1.525,2.757,2.460,0,0,SEARCHING,1.525,0.000,0.000,0.000
19:09:47.875,SEARCHING,1.367,-0.274,1.000,0.00,0.00,-1.89,5.581,2.630,1.708,2.630,2.487,0,0,SEARCHING,1.708,0.000,0.000,0.000
19:09:48.076,SEARCHING,1.527,-0.273,1.000,0.00,0.00,2.60,4.767,2.825,1.990,2.860,2.487,0,0,SEARCHING,1.990,0.000,0.000,0.000
19:09:48.276,SEARCHING,1.687,-0.262,1.000,0.00,0.00,5.86,4.400,3.178,2.099,3.178,2.460,0,0,SEARCHING,2.099,0.000,0.000,0.000
19:09:48.478,SEARCHING,1.845,-0.242,1.000,0.00,0.00,8.77,3.878,3.365,1.923,3.415,2.460,0,0,SEARCHING,1.923,0.000,0.000,0.000
19:09:48.678,SEARCHING,2.003,-0.214,1.000,0.00,0.00,11.81,3.520,5.867,1.939,3.814,2.434,0,0,SEARCHING,1.939,0.000,0.000,0.000
19:09:48.878,SEARCHING,2.159,-0.178,1.000,0.00,0.00,14.36,3.134,6.184,2.061,6.022,2.460,0,0,SEARCHING,2.061,0.000,0.000,0.000
19:09:49.079,SEARCHING,2.313,-0.136,1.000,0.00,0.00,16.25,2.972,5.448,2.138,5.448,2.487,0,0,SEARCHING,2.138,0.000,0.000,0.000
19:09:49.279,SEARCHING,2.466,-0.089,1.000,0.00,0.00,17.70,2.825,4.974,2.243,5.085,2.460,0,0,SEARCHING,2.243,0.000,0.000,0.000
19:09:49.480,SEARCHING,2.618,-0.039,1.000,0.00,0.00,18.77,2.692,4.767,2.288,4.767,2.460,0,0,SEARCHING,2.288,0.000,0.000,0.000
19:09:49.680,SEARCHING,2.769,0.013,1.000,0.00,0.00,19.53,2.630,4.576,2.335,4.487,2.460,0,0,SEARCHING,2.335,0.000,0.000,0.000
19:09:49.881,SEARCHING,2.920,0.067,1.000,0.00,0.00,19.60,2.514,4.400,2.335,4.400,2.460,0,0,SEARCHING,2.335,0.000,0.000,0.000
19:09:50.080,SEARCHING,3.071,0.121,1.000,0.00,0.00,19.60,2.514,4.317,2.311,4.317,2.460,0,0,SEARCHING,2.311,0.000,0.000,0.000
19:09:50.279,SEARCHING,3.222,0.174,1.000,0.00,0.00,19.60,2.514,4.237,2.896,4.237,2.460,0,0,SEARCHING,2.460,0.000,0.000,0.000
19:09:50.479,SEARCHING,3.372,0.228,1.000,0.00,0.00,19.00,2.487,4.086,2.972,4.160,2.434,0,0,SEARCHING,2.434,0.000,0.000,0.000
19:09:50.680,SEARCHING,3.524,0.279,1.000,0.00,0.00,18.27,2.514,4.160,2.860,4.237,2.434,0,0,SEARCHING,2.434,0.000,0.000,0.000
19:09:50.880,SEARCHING,3.676,0.329,1.000,0.00,0.00,18.20,2.487,4.014,2.896,4.160,2.487,0,0,SEARCHING,2.487,0.000,0.000,0.000
19:09:51.080,SEARCHING,3.828,0.378,1.000,0.00,0.00,17.88,2.487,4.014,2.972,4.014,2.487,0,0,SEARCHING,2.487,0.000,0.000,0.000
19:09:51.281,SEARCHING,3.981,0.427,1.000,0.00,0.00,17.10,2.514,4.014,3.223,4.014,2.460,0,0,SEARCHING,2.460,0.000,0.000,0.000
19:09:51.482,SEARCHING,4.134,0.472,1.000,0.00,0.00,16.06,2.514,4.014,3.316,4.014,2.460,0,0,SEARCHING,2.460,0.000,0.000,0.000
19:09:51.682,SEARCHING,4.288,0.515,1.000,0.00,0.00,14.90,2.359,4.237,3.316,4.237,2.487,0,0,SEARCHING,2.359,0.000,0.000,0.000
19:09:51.883,SEARCHING,4.443,0.555,1.000,0.00,0.00,13.55,2.288,4.487,3.178,4.487,2.487,0,0,SEARCHING,2.288,0.000,0.000,0.000
19:09:52.083,SEARCHING,4.599,0.591,1.000,0.00,0.00,12.26,2.311,4.767,2.972,4.767,2.460,0,0,SEARCHING,2.311,0.000,0.000,0.000
19:09:52.284,SEARCHING,4.756,0.623,1.000,0.00,0.00,11.23,2.359,4.868,2.896,4.974,2.434,0,0,SEARCHING,2.359,0.000,0.000,0.000
19:09:52.485,SEARCHING,4.913,0.653,1.000,0.00,0.00,10.37,2.384,4.974,2.790,4.974,2.434,0,0,SEARCHING,2.384,0.000,0.000,0.000
19:09:52.684,SEARCHING,5.070,0.681,1.000,0.00,0.00,9.68,2.335,4.974,2.757,4.974,2.460,0,0,SEARCHING,2.335,0.000,0.000,0.000
19:09:52.886,SEARCHING,5.228,0.707,1.000,0.00,0.00,9.00,2.335,4.974,2.724,4.974,2.487,0,0,SEARCHING,2.335,0.000,0.000,0.000
19:09:53.085,SEARCHING,5.386,0.731,1.000,0.00,0.00,8.59,2.384,4.868,2.724,4.974,2.434,0,0,SEARCHING,2.384,0.000,0.000,0.000
19:09:53.286,SEARCHING,5.545,0.755,1.000,0.00,0.00,8.29,2.384,4.974,2.692,4.974,2.434,0,0,SEARCHING,2.384,0.000,0.000,0.000
19:09:53.487,SEARCHING,5.703,0.778,1.000,0.00,0.00,8.04,2.359,4.868,2.692,4.868,2.460,0,0,SEARCHING,2.359,0.000,0.000,0.000
19:09:53.688,SEARCHING,5.862,0.799,1.000,0.00,0.00,7.44,2.384,4.868,2.630,4.868,2.460,0,0,SEARCHING,2.384,0.000,0.000,0.000
19:09:53.888,SEARCHING,6.020,0.820,1.000,0.00,0.00,7.14,2.359,4.868,2.630,4.767,2.460,0,0,SEARCHING,2.359,0.000,0.000,0.000
19:09:54.089,SEARCHING,6.179,0.840,1.000,0.00,0.00,7.08,2.487,4.974,2.571,4.670,2.460,0,0,SEARCHING,2.460,0.000,0.000,0.000
19:09:54.289,SEARCHING,6.338,0.859,1.000,0.00,0.00,7.08,2.487,4.868,2.600,4.576,2.434,0,0,SEARCHING,2.434,0.000,0.000,0.000
19:09:54.489,SEARCHING,6.497,0.879,1.000,0.00,0.00,7.08,2.514,4.670,2.600,4.487,2.409,0,0,SEARCHING,2.409,0.000,0.000,0.000
19:09:54.690,SEARCHING,6.655,0.899,1.000,0.00,0.00,7.08,2.487,4.576,2.661,4.317,2.460,0,0,SEARCHING,2.460,0.000,0.000,0.000
19:09:54.890,SEARCHING,6.814,0.919,1.000,0.00,0.00,7.08,2.487,4.576,2.661,4.086,2.460,0,0,SEARCHING,2.460,0.000,0.000,0.000
19:09:55.091,SEARCHING,6.973,0.938,1.000,0.00,0.00,7.08,2.460,4.400,2.487,3.814,2.460,0,0,SEARCHING,2.460,0.000,0.000,0.000
19:09:55.295,SEARCHING,7.132,0.958,1.000,0.00,0.00,7.08,2.434,4.317,4.160,3.691,2.460,0,0,SEARCHING,2.434,0.000,0.000,0.000
19:09:55.496,SEARCHING,7.291,0.976,1.000,0.00,0.00,5.35,2.409,4.400,3.945,3.575,2.460,0,0,SEARCHING,2.409,0.000,0.000,0.000
19:09:55.696,SEARCHING,7.450,0.989,1.000,0.00,0.00,4.23,2.409,4.487,2.335,3.365,2.460,0,0,SEARCHING,2.335,0.000,0.000,0.000
19:09:55.897,SEARCHING,7.610,1.001,1.000,0.00,0.00,4.23,2.384,4.400,3.223,3.134,2.460,0,0,SEARCHING,2.384,0.000,0.000,0.000
19:09:56.098,SEARCHING,7.769,1.011,1.000,0.00,0.00,3.02,2.409,4.400,3.269,2.972,2.460,0,0,SEARCHING,2.409,0.000,0.000,0.000
19:09:56.298,SEARCHING,7.929,1.018,1.000,0.00,0.00,1.81,2.434,3.814,3.092,2.896,2.434,0,0,SEARCHING,2.434,0.000,0.000,0.000
19:09:56.499,SEARCHING,8.089,1.022,1.000,0.00,0.00,0.96,2.460,3.415,2.825,2.757,2.487,0,0,SEARCHING,2.460,0.000,0.000,0.000
19:09:56.699,SEARCHING,8.249,1.024,1.000,0.00,0.00,0.60,2.460,3.269,2.972,2.692,2.460,0,0,SEARCHING,2.460,0.000,0.000,0.000
19:09:56.900,SEARCHING,8.409,1.025,1.000,0.00,0.00,-0.12,2.460,3.223,2.860,2.630,2.434,0,0,SEARCHING,2.434,0.000,0.000,0.000
19:09:57.101,SEARCHING,8.569,1.023,1.000,0.00,0.00,-0.77,2.487,3.011,2.790,2.630,2.460,0,0,SEARCHING,2.460,0.000,0.000,0.000
19:09:57.302,SEARCHING,8.729,1.021,1.000,0.00,0.00,-0.83,2.460,2.896,2.661,2.571,2.460,0,0,SEARCHING,2.460,0.000,0.000,0.000
19:09:57.502,SEARCHING,8.889,1.019,1.000,0.00,0.00,-0.83,2.460,2.860,2.542,2.600,2.460,0,0,SEARCHING,2.460,0.000,0.000,0.000
19:09:57.702,SEARCHING,9.049,1.016,1.000,0.00,0.00,-0.83,2.409,2.724,2.384,2.600,2.460,0,0,SEARCHING,2.384,0.000,0.000,0.000
19:09:57.903,SEARCHING,9.209,1.014,1.000,0.00,0.00,-0.83,2.359,2.571,2.243,2.514,2.434,0,0,SEARCHING,2.243,0.000,0.000,0.000
19:09:58.102,SEARCHING,9.369,1.012,1.000,0.00,0.00,-0.83,2.288,2.542,2.061,2.311,2.434,0,0,SEARCHING,2.061,0.000,0.000,0.000
19:09:58.301,SEARCHING,9.529,1.010,1.000,0.00,0.00,-0.57,2.179,3.751,1.907,2.514,2.460,0,0,SEARCHING,1.907,0.000,0.000,0.000
19:09:58.502,SEARCHING,9.689,1.009,1.000,0.00,0.00,0.37,2.119,3.575,1.720,2.571,2.460,0,0,SEARCHING,1.720,0.000,0.000,0.000
19:09:58.701,SEARCHING,9.849,1.012,1.000,0.00,0.00,1.70,2.043,3.269,1.578,2.630,2.434,0,0,SEARCHING,1.578,0.000,0.000,0.000
19:09:58.903,SEARCHING,10.009,1.019,1.000,0.00,0.00,3.42,1.907,2.972,1.404,2.600,2.460,0,0,SEARCHING,1.404,0.000,0.000,0.000
19:09:59.103,SEARCHING,10.168,1.031,1.000,0.00,0.00,5.58,1.788,2.692,1.378,2.661,2.460,0,0,SEARCHING,1.378,0.000,0.000,0.000
19:09:59.304,SEARCHING,10.327,1.049,1.000,0.00,0.00,7.48,1.658,2.487,1.308,2.487,2.434,0,0,SEARCHING,1.308,0.000,0.000,0.000
19:09:59.503,SEARCHING,10.482,1.070,1.000,0.00,0.00,6.80,1.557,2.288,4.160,2.311,2.311,0,0,SEARCHING,1.557,0.000,0.000,0.000
19:09:59.705,SEARCHING,10.629,1.082,1.000,0.00,0.00,2.19,1.600,2.514,4.670,2.542,2.434,0,0,SEARCHING,1.600,0.000,0.000,0.000
19:09:59.905,SEARCHING,10.788,1.083,1.000,0.00,0.00,-2.53,1.658,2.825,1.050,2.825,2.460,0,0,SEARCHING,1.050,0.000,0.000,0.000
19:10:00.106,SEARCHING,10.948,1.077,1.000,0.00,0.00,-2.85,1.600,2.757,4.868,2.757,2.434,0,0,SEARCHING,1.600,0.000,0.000,0.000
19:10:00.306,SEARCHING,11.108,1.063,1.000,0.00,0.00,-7.60,1.708,3.134,5.085,2.825,2.409,0,0,SEARCHING,1.708,0.000,0.000,0.000
19:10:00.507,SEARCHING,11.265,1.036,1.000,0.00,0.00,-12.02,1.939,3.467,5.720,2.661,2.460,0,0,SEARCHING,1.939,0.000,0.000,0.000
19:10:00.707,SEARCHING,11.421,0.998,1.000,0.00,0.00,-15.90,2.099,3.814,6.356,2.434,2.434,0,0,SEARCHING,2.099,0.000,0.000,0.000
19:10:00.907,SEARCHING,11.573,0.950,1.000,0.00,0.00,-19.57,2.359,4.237,7.627,2.311,2.434,0,0,SEARCHING,2.311,0.000,0.000,0.000
19:10:01.108,SEARCHING,11.722,0.892,1.000,0.00,0.00,-22.83,2.487,4.317,6.538,2.080,2.460,0,0,SEARCHING,2.080,0.000,0.000,0.000
19:10:01.309,SEARCHING,11.868,0.827,1.000,0.00,0.00,-25.63,2.630,4.487,5.867,1.973,2.434,0,0,SEARCHING,1.973,0.000,0.000,0.000
19:10:01.509,SEARCHING,12.011,0.755,1.000,0.00,0.00,-27.92,2.790,4.576,5.085,1.860,2.460,0,0,SEARCHING,1.860,0.000,0.000,0.000
19:10:01.709,SEARCHING,12.152,0.678,1.000,0.00,0.00,-29.73,2.934,4.670,4.767,1.760,2.460,0,0,SEARCHING,1.760,0.000,0.000,0.000
19:10:01.909,SEARCHING,12.290,0.597,1.000,0.00,0.00,-31.17,3.051,4.868,4.317,1.733,2.434,0,0,SEARCHING,1.733,0.000,0.000,0.000
19:10:02.111,SEARCHING,12.426,0.513,1.000,0.00,0.00,-32.23,3.223,4.868,4.237,1.733,2.460,0,0,SEARCHING,1.733,0.000,0.000,0.000
19:10:02.310,SEARCHING,12.561,0.427,1.000,0.00,0.00,-33.10,3.178,4.974,4.160,1.720,2.487,0,0,SEARCHING,1.720,0.000,0.000,0.000
19:10:02.511,SEARCHING,12.694,0.339,1.000,0.00,0.00,-34.01,2.972,5.200,4.086,1.760,2.460,0,0,SEARCHING,1.760,0.000,0.000,0.000
19:10:02.713,SEARCHING,12.826,0.248,1.000,0.00,0.00,-35.03,2.934,6.538,3.945,1.774,2.434,0,0,SEARCHING,1.774,0.000,0.000,0.000
19:10:02.913,SEARCHING,12.956,0.155,1.000,0.00,0.00,-36.02,2.934,6.934,3.814,1.747,2.460,0,0,SEARCHING,1.747,0.000,0.000,0.000
19:10:03.112,SEARCHING,13.085,0.060,1.000,0.00,0.00,-36.92,2.934,6.730,3.691,1.708,2.409,0,0,SEARCHING,1.708,0.000,0.000,0.000
19:10:03.314,SEARCHING,13.212,-0.037,1.000,0.00,0.00,-37.71,2.896,6.730,3.520,1.747,2.460,0,0,SEARCHING,1.747,0.000,0.000,0.000
19:10:03.514,SEARCHING,13.338,-0.135,1.000,0.00,0.00,-38.40,2.934,7.151,3.520,1.720,2.460,0,0,SEARCHING,1.720,0.000,0.000,0.000
19:10:03.716,SEARCHING,13.463,-0.235,1.000,0.00,0.00,-39.05,2.896,7.151,3.415,1.733,2.434,0,0,SEARCHING,1.733,0.000,0.000,0.000
19:10:03.918,SEARCHING,13.587,-0.337,1.000,0.00,0.00,-39.42,2.934,7.151,3.316,1.670,2.434,0,0,SEARCHING,1.670,0.000,0.000,0.000
19:10:04.118,SEARCHING,13.711,-0.438,1.000,0.00,0.00,-39.42,2.860,6.934,3.223,1.646,2.460,0,0,SEARCHING,1.646,0.000,0.000,0.000
19:10:04.319,SEARCHING,13.834,-0.540,1.000,0.00,0.00,-39.42,2.825,6.730,3.269,1.634,2.460,0,0,SEARCHING,1.634,0.000,0.000,0.000
19:10:04.520,SEARCHING,13.958,-0.642,1.000,0.00,0.00,-39.66,2.790,6.730,3.223,3.878,2.434,0,0,SEARCHING,2.434,0.000,0.000,0.000
19:10:04.719,SEARCHING,14.081,-0.744,1.000,0.00,0.00,-39.72,2.692,6.538,3.223,3.691,2.434,0,0,SEARCHING,2.434,0.000,0.000,0.000
19:10:04.921,SEARCHING,14.204,-0.847,1.000,0.00,0.00,-40.07,2.757,6.184,3.092,3.575,2.434,0,0,SEARCHING,2.434,0.000,0.000,0.000
19:10:05.121,SEARCHING,14.326,-0.950,1.000,0.00,0.00,-40.07,2.825,6.184,3.051,3.365,2.487,0,0,SEARCHING,2.487,0.000,0.000,0.000
19:10:05.322,SEARCHING,14.448,-1.053,1.000,0.00,0.00,-40.07,3.467,6.184,3.011,3.223,2.487,0,0,SEARCHING,2.487,0.000,0.000,0.000
19:10:05.522,SEARCHING,14.571,-1.156,1.000,0.00,0.00,-40.07,3.520,6.022,3.011,3.011,2.460,0,0,SEARCHING,2.460,0.000,0.000,0.000
19:10:05.723,SEARCHING,14.693,-1.258,1.000,0.00,0.00,-39.83,3.520,5.867,3.051,2.896,2.434,0,0,SEARCHING,2.434,0.000,0.000,0.000
19:10:05.924,SEARCHING,14.816,-1.361,1.000,0.00,0.00,-39.51,3.467,5.720,3.051,2.757,2.460,0,0,SEARCHING,2.460,0.000,0.000,0.000
19:10:06.122,SEARCHING,14.940,-1.462,1.000,0.00,0.00,-39.44,3.467,5.581,3.051,2.542,2.487,0,0,SEARCHING,2.487,0.000,0.000,0.000
19:10:06.322,SEARCHING,15.064,-1.564,1.000,0.00,0.00,-39.44,3.467,5.321,3.011,2.359,2.434,0,0,SEARCHING,2.359,0.000,0.000,0.000
19:10:06.523,SEARCHING,15.187,-1.666,1.000,0.00,0.00,-39.44,3.520,5.321,3.051,2.288,2.460,0,0,SEARCHING,2.288,0.000,0.000,0.000
19:10:06.723,SEARCHING,15.311,-1.767,1.000,0.00,0.00,-39.44,3.575,5.200,3.223,2.159,2.434,0,0,SEARCHING,2.159,0.000,0.000,0.000
19:10:06.924,SEARCHING,15.434,-1.869,1.000,0.00,0.00,-39.44,3.467,4.974,3.134,2.138,2.460,0,0,SEARCHING,2.138,0.000,0.000,0.000
19:10:07.124,SEARCHING,15.558,-1.971,1.000,0.00,0.00,-39.44,3.467,4.868,3.178,2.080,2.460,0,0,SEARCHING,2.080,0.000,0.000,0.000
19:10:07.324,SEARCHING,15.681,-2.072,1.000,0.00,0.00,-39.44,3.415,4.868,3.134,2.099,2.460,0,0,SEARCHING,2.099,0.000,0.000,0.000
19:10:07.524,SEARCHING,15.805,-2.174,1.000,0.00,0.00,-39.44,3.365,4.670,3.092,2.099,2.434,0,0,SEARCHING,2.099,0.000,0.000,0.000
19:10:07.726,SEARCHING,15.928,-2.276,1.000,0.00,0.00,-39.44,3.269,4.487,3.051,2.080,2.460,0,0,SEARCHING,2.080,0.000,0.000,0.000
19:10:07.927,SEARCHING,16.052,-2.377,1.000,0.00,0.00,-39.44,3.223,4.487,3.092,2.099,2.335,0,0,SEARCHING,2.099,0.000,0.000,0.000
19:10:08.126,SEARCHING,16.176,-2.479,1.000,0.00,0.00,-39.44,3.269,4.400,3.134,2.099,2.359,0,0,SEARCHING,2.099,0.000,0.000,0.000
19:10:08.327,SEARCHING,16.299,-2.580,1.000,0.00,0.00,-39.44,3.134,4.317,3.575,2.099,2.460,0,0,SEARCHING,2.099,0.000,0.000,0.000
19:10:08.527,SEARCHING,16.423,-2.682,1.000,0.00,0.00,-39.44,3.134,4.237,3.467,2.119,2.460,0,0,SEARCHING,2.119,0.000,0.000,0.000
19:10:08.728,SEARCHING,16.546,-2.784,1.000,0.00,0.00,-39.44,3.051,4.160,3.316,2.043,2.487,0,0,SEARCHING,2.043,0.000,0.000,0.000
19:10:08.928,SEARCHING,16.670,-2.885,1.000,0.00,0.00,-39.44,3.011,4.014,3.134,1.990,2.434,0,0,SEARCHING,1.990,0.000,0.000,0.000
19:10:09.129,SEARCHING,16.793,-2.987,1.000,0.00,0.00,-39.44,3.011,3.945,2.972,2.043,2.434,0,0,SEARCHING,2.043,0.000,0.000,0.000
19:10:10.197,SEARCHING,16.917,-3.089,1.000,0.00,0.00,-39.44,2.972,3.814,2.860,2.061,2.434,0,0,SEARCHING,2.061,0.000,0.000,0.000
19:10:10.223,SEARCHING,17.041,-3.190,1.000,0.00,0.00,-39.44,2.972,3.814,2.860,2.061,2.434,0,0,SEARCHING,2.061,0.000,0.000,0.000
19:10:10.383,SEARCHING,17.164,-3.292,1.000,0.00,0.00,-39.44,2.790,3.415,2.542,3.520,2.487,0,0,SEARCHING,2.487,0.000,0.000,0.000
19:10:10.577,SEARCHING,17.288,-3.394,1.000,0.00,0.00,-39.44,2.630,3.415,2.487,3.415,2.460,0,0,SEARCHING,2.460,0.000,0.000,0.000
19:10:10.777,SEARCHING,17.411,-3.495,1.000,0.00,0.00,-39.44,2.409,3.223,2.487,3.223,2.487,0,0,SEARCHING,2.409,0.000,0.000,0.000
19:10:10.978,SEARCHING,17.535,-3.597,1.000,0.00,0.00,-39.44,2.311,3.092,2.514,3.092,2.460,0,0,SEARCHING,2.311,0.000,0.000,0.000
19:10:11.178,SEARCHING,17.658,-3.699,1.000,0.00,0.00,-39.68,2.119,2.896,2.542,2.860,2.487,0,0,SEARCHING,2.119,0.000,0.000,0.000
19:10:11.379,SEARCHING,17.781,-3.802,1.000,0.00,0.00,-40.61,1.973,2.790,2.514,2.790,2.460,0,0,SEARCHING,1.973,0.000,0.000,0.000
19:10:11.580,SEARCHING,17.901,-3.907,1.000,0.00,0.00,-41.92,1.816,2.630,2.409,2.600,2.460,0,0,SEARCHING,1.816,0.000,0.000,0.000
19:10:11.779,SEARCHING,18.019,-4.015,1.000,0.00,0.00,-43.43,1.774,2.460,2.266,2.460,2.409,0,0,SEARCHING,1.774,0.000,0.000,0.000
19:10:11.980,SEARCHING,18.130,-4.123,1.000,0.00,0.00,-44.69,1.860,2.311,2.159,2.311,2.288,0,0,SEARCHING,1.860,0.000,0.000,0.000
19:10:12.181,SEARCHING,18.233,-4.225,1.000,0.00,0.00,-45.47,1.939,2.179,2.099,2.179,2.179,0,0,SEARCHING,1.939,0.000,0.000,0.000
19:10:12.383,SEARCHING,18.326,-4.320,1.000,0.00,0.00,-45.53,1.939,1.891,1.923,1.891,2.007,0,0,SEARCHING,1.891,0.000,0.000,0.000
19:10:12.584,SEARCHING,18.411,-4.407,1.000,0.00,0.00,-44.92,1.891,1.876,1.720,1.876,1.876,0,0,SEARCHING,1.720,0.000,0.000,0.000
19:10:12.785,SEARCHING,18.496,-4.491,1.000,0.00,0.00,-44.47,1.845,1.760,1.774,1.774,1.760,0,0,SEARCHING,1.760,0.000,0.000,0.000
19:10:12.985,SEARCHING,18.576,-4.569,1.000,0.00,0.00,-44.21,1.860,1.634,1.708,1.646,1.646,0,0,SEARCHING,1.634,0.000,0.000,0.000
19:10:13.185,SEARCHING,18.651,-4.642,1.000,0.00,0.00,-43.87,1.831,1.546,1.557,1.546,1.546,0,0,SEARCHING,1.546,0.000,0.000,0.000
19:10:13.386,SEARCHING,18.722,-4.709,1.000,0.00,0.00,-42.75,1.760,1.439,1.467,1.439,1.439,0,0,SEARCHING,1.439,0.000,0.000,0.000
19:10:13.588,SEARCHING,18.789,-4.770,1.000,0.00,0.00,-41.39,1.682,1.346,1.354,1.346,1.346,0,0,SEARCHING,1.346,0.000,0.000,0.000
19:10:13.788,SEARCHING,18.854,-4.826,1.000,0.00,0.00,-39.70,1.600,1.278,1.271,1.278,1.271,0,0,SEARCHING,1.271,0.000,0.000,0.000
19:10:13.988,SEARCHING,18.918,-4.877,1.000,0.00,0.00,-37.79,1.505,1.224,1.179,1.237,1.230,0,0,SEARCHING,1.179,0.000,0.000,0.000
19:10:14.189,SEARCHING,18.981,-4.925,1.000,0.00,0.00,-35.61,1.421,1.338,1.090,1.338,1.354,0,0,SEARCHING,1.090,0.000,0.000,0.000
19:10:14.389,SEARCHING,19.052,-4.973,1.000,0.00,0.00,-33.10,1.315,1.330,0.995,1.354,1.354,0,0,SEARCHING,0.995,0.000,0.000,0.000
19:10:14.590,SEARCHING,19.147,-5.032,1.000,0.00,0.00,-30.15,1.186,2.061,0.851,2.061,2.099,0,0,SEARCHING,0.851,0.000,0.000,0.000
19:10:14.790,SEARCHING,19.262,-5.094,1.000,0.00,0.00,-26.26,1.050,1.733,0.857,1.733,1.747,0,0,SEARCHING,0.857,0.000,0.000,0.000
19:10:14.991,SEARCHING,19.362,-5.141,1.000,0.00,0.00,-24.12,0.974,1.536,0.923,1.536,1.557,0,0,SEARCHING,0.923,0.000,0.000,0.000
19:10:15.187,SEARCHING,19.451,-5.180,1.000,0.00,0.00,-23.67,0.915,1.448,2.896,1.448,1.457,0,0,SEARCHING,0.915,0.000,0.000,0.000
19:10:15.386,SEARCHING,19.534,-5.222,1.000,0.00,0.00,-31.37,0.970,1.623,0.763,1.634,1.646,0,0,SEARCHING,0.763,0.000,0.000,0.000
19:10:15.587,SEARCHING,19.630,-5.279,1.000,0.00,0.00,-28.60,0.934,1.589,3.092,1.623,1.634,0,0,SEARCHING,0.934,0.000,0.000,0.000
19:10:15.787,SEARCHING,19.721,-5.334,1.000,0.00,0.00,-35.79,1.008,2.043,0.610,2.043,2.043,0,0,SEARCHING,0.610,0.000,0.000,0.000
19:10:15.987,SEARCHING,19.828,-5.406,1.000,0.00,0.00,-29.38,0.887,1.774,2.972,1.788,1.760,0,0,SEARCHING,0.887,0.000,0.000,0.000
19:10:16.188,SEARCHING,19.924,-5.465,1.000,0.00,0.00,-36.76,0.961,1.923,3.575,1.907,1.907,0,0,SEARCHING,0.961,0.000,0.000,0.000
19:10:16.389,SEARCHING,20.018,-5.547,1.000,0.00,0.00,-45.37,1.395,2.335,4.974,2.119,2.359,0,0,SEARCHING,1.395,0.000,0.000,0.000
19:10:16.590,SEARCHING,20.118,-5.660,1.000,0.00,0.00,-51.28,1.536,2.692,4.317,2.119,2.460,0,0,SEARCHING,1.536,0.000,0.000,0.000
19:10:16.790,SEARCHING,20.214,-5.788,1.000,0.00,0.00,-55.82,1.708,3.415,3.632,2.119,2.460,0,0,SEARCHING,1.708,0.000,0.000,0.000
19:10:16.991,SEARCHING,20.300,-5.923,1.000,0.00,0.00,-59.30,1.802,6.022,3.415,1.973,2.460,0,0,SEARCHING,1.802,0.000,0.000,0.000
19:10:17.190,SEARCHING,20.378,-6.062,1.000,0.00,0.00,-62.29,1.923,5.200,3.223,5.085,2.487,0,0,SEARCHING,1.923,0.000,0.000,0.000
19:10:17.392,SEARCHING,20.450,-6.205,1.000,0.00,0.00,-64.60,2.099,4.767,3.134,4.767,2.460,0,0,SEARCHING,2.099,0.000,0.000,0.000
19:10:17.592,SEARCHING,20.516,-6.351,1.000,0.00,0.00,-66.23,2.311,4.487,2.896,4.487,2.487,0,0,SEARCHING,2.311,0.000,0.000,0.000
19:10:17.793,SEARCHING,20.580,-6.498,1.000,0.00,0.00,-67.18,2.460,4.160,2.825,4.160,2.460,0,0,SEARCHING,2.460,0.000,0.000,0.000
19:10:17.994,SEARCHING,20.641,-6.645,1.000,0.00,0.00,-67.56,2.460,4.014,2.757,4.014,2.434,0,0,SEARCHING,2.434,0.000,0.000,0.000
19:10:18.193,SEARCHING,20.702,-6.793,1.000,0.00,0.00,-67.56,2.434,3.814,2.692,3.878,2.460,0,0,SEARCHING,2.434,0.000,0.000,0.000
19:10:18.394,SEARCHING,20.763,-6.941,1.000,0.00,0.00,-67.56,6.934,3.691,2.487,3.751,2.434,0,0,SEARCHING,2.434,0.000,0.000,0.000
19:10:18.594,SEARCHING,20.827,-7.088,1.000,0.00,0.00,-64.90,6.934,3.878,2.434,3.878,2.434,0,0,SEARCHING,2.434,0.000,0.000,0.000
19:10:18.794,SEARCHING,20.898,-7.231,1.000,0.00,0.00,-63.34,2.061,4.086,2.434,4.086,2.460,0,0,SEARCHING,2.061,0.000,0.000,0.000
19:10:18.996,SEARCHING,20.969,-7.375,1.000,0.00,0.00,-64.09,7.151,3.878,2.384,3.878,2.460,0,0,SEARCHING,2.384,0.000,0.000,0.000
19:10:19.197,SEARCHING,21.041,-7.517,1.000,0.00,0.00,-61.23,6.184,4.160,2.409,4.086,2.434,0,0,SEARCHING,2.409,0.000,0.000,0.000
19:10:19.401,SEARCHING,21.122,-7.656,1.000,0.00,0.00,-58.35,5.200,4.317,2.487,4.400,2.460,0,0,SEARCHING,2.460,0.000,0.000,0.000
19:10:19.602,SEARCHING,21.208,-7.791,1.000,0.00,0.00,-57.63,3.945,4.487,2.514,4.576,2.460,0,0,SEARCHING,2.460,0.000,0.000,0.000
19:10:19.803,SEARCHING,21.294,-7.925,1.000,0.00,0.00,-56.27,3.814,4.670,2.514,4.576,2.460,0,0,SEARCHING,2.460,0.000,0.000,0.000
19:10:20.003,SEARCHING,21.385,-8.057,1.000,0.00,0.00,-54.78,3.467,4.974,2.571,4.974,2.434,0,0,SEARCHING,2.434,0.000,0.000,0.000
19:10:20.204,SEARCHING,21.478,-8.187,1.000,0.00,0.00,-53.66,3.365,5.085,2.571,5.085,2.571,0,0,SEARCHING,2.571,0.000,0.000,0.000
19:10:20.404,SEARCHING,21.574,-8.315,1.000,0.00,0.00,-52.68,3.178,5.200,2.600,5.200,2.487,0,0,SEARCHING,2.487,0.000,0.000,0.000
19:10:20.604,SEARCHING,21.672,-8.442,1.000,0.00,0.00,-51.91,3.134,5.200,2.661,5.200,2.460,0,0,SEARCHING,2.460,0.000,0.000,0.000
19:10:20.806,SEARCHING,21.771,-8.567,1.000,0.00,0.00,-51.25,3.134,5.200,2.692,5.200,2.460,0,0,SEARCHING,2.460,0.000,0.000,0.000
19:10:21.005,SEARCHING,21.872,-8.691,1.000,0.00,0.00,-50.64,3.178,5.085,2.661,5.200,2.434,0,0,SEARCHING,2.434,0.000,0.000,0.000
19:10:21.206,SEARCHING,21.974,-8.815,1.000,0.00,0.00,-49.97,3.092,5.085,2.630,5.085,2.460,0,0,SEARCHING,2.460,0.000,0.000,0.000
19:10:21.409,SEARCHING,22.078,-8.937,1.000,0.00,0.00,-49.30,3.134,5.085,2.692,5.085,2.434,0,0,SEARCHING,2.434,0.000,0.000,0.000
19:10:21.608,SEARCHING,22.183,-9.057,1.000,0.00,0.00,-48.67,3.134,5.085,2.661,5.085,2.409,0,0,SEARCHING,2.409,0.000,0.000,0.000
19:10:21.808,SEARCHING,22.289,-9.177,1.000,0.00,0.00,-48.28,3.092,5.085,2.692,4.974,2.460,0,0,SEARCHING,2.460,0.000,0.000,0.000
19:10:22.009,SEARCHING,22.395,-9.296,1.000,0.00,0.00,-48.04,3.134,4.974,2.630,4.974,2.460,0,0,SEARCHING,2.460,0.000,0.000,0.000
19:10:22.210,SEARCHING,22.503,-9.415,1.000,0.00,0.00,-47.63,3.051,4.974,2.790,4.974,2.487,0,0,SEARCHING,2.487,0.000,0.000,0.000
19:10:22.410,SEARCHING,22.611,-9.533,1.000,0.00,0.00,-47.63,3.092,4.974,2.896,4.974,2.487,0,0,SEARCHING,2.487,0.000,0.000,0.000
19:10:22.610,SEARCHING,22.719,-9.651,1.000,0.00,0.00,-47.63,3.092,4.767,2.896,4.767,2.460,0,0,SEARCHING,2.460,0.000,0.000,0.000
19:10:22.811,SEARCHING,22.826,-9.770,1.000,0.00,0.00,-47.63,3.134,4.670,2.790,4.670,2.434,0,0,SEARCHING,2.434,0.000,0.000,0.000
19:10:23.011,SEARCHING,22.934,-9.888,1.000,0.00,0.00,-47.63,3.092,4.576,2.825,4.576,2.460,0,0,SEARCHING,2.460,0.000,0.000,0.000
19:10:23.207,SEARCHING,23.042,-10.006,1.000,0.00,0.00,-47.07,4.237,4.576,2.825,4.576,2.460,0,0,SEARCHING,2.460,0.000,0.000,0.000
19:10:23.407,SEARCHING,23.152,-10.122,1.000,0.00,0.00,-45.69,4.086,4.576,2.825,4.576,2.434,0,0,SEARCHING,2.434,0.000,0.000,0.000
19:10:23.608,SEARCHING,23.265,-10.235,1.000,0.00,0.00,-44.92,3.751,4.670,2.692,4.487,2.460,0,0,SEARCHING,2.460,0.000,0.000,0.000
19:10:23.808,SEARCHING,23.379,-10.347,1.000,0.00,0.00,-43.78,3.814,4.868,2.724,4.400,2.460,0,0,SEARCHING,2.460,0.000,0.000,0.000
19:10:24.008,SEARCHING,23.496,-10.457,1.000,0.00,0.00,-42.63,3.691,4.868,2.724,4.237,2.460,0,0,SEARCHING,2.460,0.000,0.000,0.000
19:10:24.209,SEARCHING,23.615,-10.564,1.000,0.00,0.00,-41.51,3.575,4.868,2.757,4.160,2.460,0,0,SEARCHING,2.460,0.000,0.000,0.000
19:10:24.410,SEARCHING,23.735,-10.669,1.000,0.00,0.00,-40.56,3.467,5.321,2.757,3.878,2.460,0,0,SEARCHING,2.460,0.000,0.000,0.000
19:10:24.611,SEARCHING,23.857,-10.773,1.000,0.00,0.00,-39.72,3.415,5.867,2.790,3.814,2.434,0,0,SEARCHING,2.434,0.000,0.000,0.000
19:10:24.811,SEARCHING,23.981,-10.874,1.000,0.00,0.00,-38.99,3.316,6.538,2.757,3.632,2.460,0,0,SEARCHING,2.460,0.000,0.000,0.000
19:10:25.011,SEARCHING,24.106,-10.974,1.000,0.00,0.00,-38.56,3.269,6.356,2.825,3.467,2.487,0,0,SEARCHING,2.487,0.000,0.000,0.000
19:10:25.212,SEARCHING,24.231,-11.074,1.000,0.00,0.00,-38.28,3.365,6.356,2.724,3.316,2.460,0,0,SEARCHING,2.460,0.000,0.000,0.000
19:10:25.413,SEARCHING,24.357,-11.172,1.000,0.00,0.00,-37.47,3.223,5.867,2.790,3.134,2.222,0,0,SEARCHING,2.222,0.000,0.000,0.000
19:10:25.613,SEARCHING,24.484,-11.269,1.000,0.00,0.00,-37.11,3.223,5.720,2.692,3.051,2.311,0,0,SEARCHING,2.311,0.000,0.000,0.000
19:10:25.813,SEARCHING,24.613,-11.365,1.000,0.00,0.00,-36.69,3.178,5.448,2.724,2.896,2.434,0,0,SEARCHING,2.434,0.000,0.000,0.000
19:10:26.014,SEARCHING,24.741,-11.460,1.000,0.00,0.00,-36.39,3.178,5.200,2.757,2.790,2.487,0,0,SEARCHING,2.487,0.000,0.000,0.000
19:10:26.214,SEARCHING,24.870,-11.555,1.000,0.00,0.00,-36.13,3.269,5.085,2.790,2.724,2.487,0,0,SEARCHING,2.487,0.000,0.000,0.000
19:10:26.415,SEARCHING,25.000,-11.649,1.000,0.00,0.00,-35.52,3.134,4.974,2.724,4.974,2.460,0,0,SEARCHING,2.460,0.000,0.000,0.000
19:10:26.615,SEARCHING,25.130,-11.742,1.000,0.00,0.00,-35.46,3.134,4.767,2.630,4.767,2.434,0,0,SEARCHING,2.434,0.000,0.000,0.000
19:10:26.817,SEARCHING,25.261,-11.834,1.000,0.00,0.00,-35.11,3.051,4.670,2.757,4.670,2.434,0,0,SEARCHING,2.434,0.000,0.000,0.000
19:10:27.018,SEARCHING,25.392,-11.926,1.000,0.00,0.00,-35.11,2.825,4.576,2.724,4.670,2.460,0,0,SEARCHING,2.460,0.000,0.000,0.000
19:10:27.222,SEARCHING,25.522,-12.018,1.000,0.00,0.00,-35.11,2.757,4.487,2.724,4.576,2.460,0,0,SEARCHING,2.460,0.000,0.000,0.000
19:10:27.422,SEARCHING,25.653,-12.110,1.000,0.00,0.00,-35.11,2.571,4.400,2.724,4.487,2.460,0,0,SEARCHING,2.460,0.000,0.000,0.000
19:10:27.623,SEARCHING,25.784,-12.202,1.000,0.00,0.00,-35.11,2.460,4.400,2.600,4.400,2.460,0,0,SEARCHING,2.460,0.000,0.000,0.000
19:10:27.823,SEARCHING,25.915,-12.294,1.000,0.00,0.00,-35.11,2.359,4.317,3.691,4.317,2.460,0,0,SEARCHING,2.359,0.000,0.000,0.000
19:10:28.024,SEARCHING,26.045,-12.388,1.000,0.00,0.00,-36.73,2.359,4.576,3.467,4.487,2.460,0,0,SEARCHING,2.359,0.000,0.000,0.000
19:10:28.225,SEARCHING,26.172,-12.485,1.000,0.00,0.00,-38.31,2.409,4.670,3.365,4.767,2.460,0,0,SEARCHING,2.409,0.000,0.000,0.000
19:10:28.425,SEARCHING,26.296,-12.586,1.000,0.00,0.00,-39.62,2.434,4.767,3.316,4.767,2.434,0,0,SEARCHING,2.434,0.000,0.000,0.000
19:10:28.625,SEARCHING,26.419,-12.689,1.000,0.00,0.00,-40.73,2.460,4.767,3.092,4.767,2.434,0,0,SEARCHING,2.434,0.000,0.000,0.000
19:10:28.826,SEARCHING,26.539,-12.794,1.000,0.00,0.00,-41.61,2.487,4.868,3.011,4.868,2.460,0,0,SEARCHING,2.460,0.000,0.000,0.000
19:10:29.027,SEARCHING,26.658,-12.901,1.000,0.00,0.00,-42.38,2.542,4.974,2.896,4.974,2.460,0,0,SEARCHING,2.460,0.000,0.000,0.000
19:10:29.228,SEARCHING,26.776,-13.009,1.000,0.00,0.00,-42.71,2.514,4.868,2.896,4.974,2.409,0,0,SEARCHING,2.409,0.000,0.000,0.000
19:10:29.428,SEARCHING,26.893,-13.118,1.000,0.00,0.00,-43.33,2.514,4.974,2.825,4.974,2.460,0,0,SEARCHING,2.460,0.000,0.000,0.000
19:10:29.628,SEARCHING,27.010,-13.228,1.000,0.00,0.00,-43.40,2.542,4.868,2.825,4.868,2.460,0,0,SEARCHING,2.460,0.000,0.000,0.000
19:10:29.828,SEARCHING,27.126,-13.338,1.000,0.00,0.00,-43.40,2.600,4.767,2.860,4.767,2.487,0,0,SEARCHING,2.487,0.000,0.000,0.000
19:10:30.029,SEARCHING,27.242,-13.448,1.000,0.00,0.00,-43.40,2.571,4.767,2.790,4.670,2.460,0,0,SEARCHING,2.460,0.000,0.000,0.000
19:10:30.230,SEARCHING,27.358,-13.558,1.000,0.00,0.00,-43.40,2.571,4.670,2.757,4.670,2.434,0,0,SEARCHING,2.434,0.000,0.000,0.000
19:10:30.430,SEARCHING,27.475,-13.668,1.000,0.00,0.00,-43.40,2.600,4.487,2.860,4.576,2.460,0,0,SEARCHING,2.460,0.000,0.000,0.000
19:10:30.631,SEARCHING,27.591,-13.778,1.000,0.00,0.00,-43.40,2.571,4.487,2.972,4.400,2.311,0,0,SEARCHING,2.311,0.000,0.000,0.000
19:10:30.831,SEARCHING,27.707,-13.888,1.000,0.00,0.00,-43.94,2.571,4.400,2.972,4.400,2.460,0,0,SEARCHING,2.460,0.000,0.000,0.000
19:10:31.031,SEARCHING,27.821,-14.000,1.000,0.00,0.00,-44.56,2.460,4.317,2.934,4.237,2.434,0,0,SEARCHING,2.434,0.000,0.000,0.000
19:10:31.229,SEARCHING,27.935,-14.112,1.000,0.00,0.00,-45.30,2.384,4.237,2.860,4.237,2.487,0,0,SEARCHING,2.384,0.000,0.000,0.000
19:10:31.429,SEARCHING,28.047,-14.227,1.000,0.00,0.00,-46.12,2.335,4.237,2.825,4.237,2.514,0,0,SEARCHING,2.335,0.000,0.000,0.000
19:10:31.630,SEARCHING,28.157,-14.343,1.000,0.00,0.00,-46.91,2.311,4.160,2.724,4.160,2.460,0,0,SEARCHING,2.311,0.000,0.000,0.000
19:10:31.831,SEARCHING,28.265,-14.460,1.000,0.00,0.00,-47.61,2.384,4.014,2.757,3.945,2.460,0,0,SEARCHING,2.384,0.000,0.000,0.000
19:10:32.031,SEARCHING,28.373,-14.579,1.000,0.00,0.00,-48.00,2.384,3.814,2.661,3.814,2.434,0,0,SEARCHING,2.384,0.000,0.000,0.000
19:10:32.231,SEARCHING,28.480,-14.698,1.000,0.00,0.00,-48.00,2.335,3.691,2.692,3.632,2.434,0,0,SEARCHING,2.335,0.000,0.000,0.000
19:10:32.431,SEARCHING,28.586,-14.817,1.000,0.00,0.00,-48.57,2.384,3.520,2.692,3.467,2.460,0,0,SEARCHING,2.384,0.000,0.000,0.000
19:10:32.632,SEARCHING,28.692,-14.937,1.000,0.00,0.00,-48.63,2.384,3.415,2.692,3.415,2.460,0,0,SEARCHING,2.384,0.000,0.000,0.000
19:10:32.834,SEARCHING,28.798,-15.058,1.000,0.00,0.00,-48.89,2.384,3.269,2.600,3.223,2.460,0,0,SEARCHING,2.384,0.000,0.000,0.000
19:10:33.033,SEARCHING,28.903,-15.178,1.000,0.00,0.00,-48.96,2.335,3.051,2.661,3.092,2.460,0,0,SEARCHING,2.335,0.000,0.000,0.000
19:10:33.233,SEARCHING,29.007,-15.299,1.000,0.00,0.00,-49.52,2.335,2.896,2.661,2.896,2.487,0,0,SEARCHING,2.335,0.000,0.000,0.000
19:10:33.434,SEARCHING,29.111,-15.421,1.000,0.00,0.00,-50.18,2.222,2.790,2.661,2.790,2.460,0,0,SEARCHING,2.222,0.000,0.000,0.000
19:10:33.635,SEARCHING,29.212,-15.545,1.000,0.00,0.00,-51.02,2.119,2.661,2.434,2.630,2.460,0,0,SEARCHING,2.119,0.000,0.000,0.000
19:10:33.835,SEARCHING,29.312,-15.670,1.000,0.00,0.00,-51.46,2.080,2.460,2.335,2.460,2.409,0,0,SEARCHING,2.080,0.000,0.000,0.000
19:10:34.035,SEARCHING,29.410,-15.793,1.000,0.00,0.00,-51.76,2.043,2.335,2.200,2.335,2.335,0,0,SEARCHING,2.043,0.000,0.000,0.000
19:10:34.236,SEARCHING,29.502,-15.910,1.000,0.00,0.00,-51.76,1.990,2.200,2.061,2.200,2.179,0,0,SEARCHING,1.990,0.000,0.000,0.000
19:10:34.437,SEARCHING,29.588,-16.019,1.000,0.00,0.00,-51.76,1.990,2.043,1.939,2.043,2.061,0,0,SEARCHING,1.939,0.000,0.000,0.000
19:10:34.637,SEARCHING,29.669,-16.122,1.000,0.00,0.00,-51.76,1.956,1.973,1.845,1.956,1.956,0,0,SEARCHING,1.845,0.000,0.000,0.000
19:10:34.837,SEARCHING,29.745,-16.219,1.000,0.00,0.00,-51.76,1.923,1.845,1.733,1.831,1.831,0,0,SEARCHING,1.733,0.000,0.000,0.000
19:10:35.039,SEARCHING,29.818,-16.310,1.000,0.00,0.00,-51.11,1.831,1.720,1.600,1.720,1.720,0,0,SEARCHING,1.600,0.000,0.000,0.000
19:10:35.238,SEARCHING,29.886,-16.394,1.000,0.00,0.00,-50.20,1.747,1.611,1.505,1.611,1.611,0,0,SEARCHING,1.505,0.000,0.000,0.000
19:10:35.439,SEARCHING,29.953,-16.472,1.000,0.00,0.00,-49.12,1.646,1.525,1.404,1.525,1.515,0,0,SEARCHING,1.404,0.000,0.000,0.000
19:10:35.641,SEARCHING,30.016,-16.544,1.000,0.00,0.00,-47.90,1.578,1.439,1.330,1.439,1.439,0,0,SEARCHING,1.330,0.000,0.000,0.000
19:10:35.843,SEARCHING,30.078,-16.611,1.000,0.00,0.00,-46.50,1.486,1.346,1.230,1.346,1.346,0,0,SEARCHING,1.230,0.000,0.000,0.000
19:10:36.045,SEARCHING,30.137,-16.672,1.000,0.00,0.00,-44.87,1.421,1.278,1.156,1.278,1.278,0,0,SEARCHING,1.156,0.000,0.000,0.000
19:10:36.246,SEARCHING,30.196,-16.728,1.000,0.00,0.00,-42.95,1.362,1.204,1.090,1.204,1.204,0,0,SEARCHING,1.090,0.000,0.000,0.000
19:10:36.446,SEARCHING,30.252,-16.780,1.000,0.00,0.00,-40.77,1.308,1.150,1.017,1.144,1.150,0,0,SEARCHING,1.017,0.000,0.000,0.000
19:10:36.648,SEARCHING,30.309,-16.826,1.000,0.00,0.00,-38.21,1.244,1.095,0.957,1.090,1.095,0,0,SEARCHING,0.957,0.000,0.000,0.000
19:10:36.847,SEARCHING,30.364,-16.868,1.000,0.00,0.00,-35.48,1.162,1.045,0.901,1.045,1.040,0,0,SEARCHING,0.901,0.000,0.000,0.000
19:10:37.047,SEARCHING,30.419,-16.906,1.000,0.00,0.00,-32.66,1.079,1.008,0.854,1.004,1.008,0,0,SEARCHING,0.854,0.000,0.000,0.000
19:10:37.247,SEARCHING,30.474,-16.939,1.000,0.00,0.00,-30.14,1.017,0.974,0.817,0.974,0.970,0,0,SEARCHING,0.817,0.000,0.000,0.000
19:10:37.448,SEARCHING,30.528,-16.970,1.000,0.00,0.00,-28.74,0.965,0.930,0.770,0.930,0.926,0,0,SEARCHING,0.770,0.000,0.000,0.000
19:10:37.649,SEARCHING,30.581,-16.998,1.000,0.00,0.00,-27.24,0.915,0.887,0.729,0.887,0.887,0,0,SEARCHING,0.729,0.000,0.000,0.000
19:10:37.849,SEARCHING,30.632,-17.023,1.000,0.00,0.00,-25.65,0.873,0.857,0.700,0.854,0.857,0,0,SEARCHING,0.700,0.000,0.000,0.000
19:10:38.049,SEARCHING,30.682,-17.047,1.000,0.00,0.00,-24.03,0.829,0.823,0.665,0.823,0.820,0,0,SEARCHING,0.665,0.000,0.000,0.000
19:10:38.256,SEARCHING,30.730,-17.067,1.000,0.00,0.00,-22.35,0.792,0.797,0.637,0.795,0.795,0,0,SEARCHING,0.637,0.000,0.000,0.000
19:10:38.487,INSPECTING,30.756,-17.078,1.000,0.00,0.00,-21.84,0.755,0.765,0.613,0.763,0.768,0,0,BOTTOM,0.768,0.120,0.000,0.000
19:10:38.690,INSPECTING,30.784,-17.089,1.000,0.00,0.00,-21.84,0.736,0.741,0.593,0.738,0.743,0,0,BOTTOM,0.743,0.120,0.000,0.000
19:10:38.887,INSPECTING,30.812,-17.100,1.000,0.00,0.00,-21.84,0.715,0.715,0.569,0.715,0.717,0,0,BOTTOM,0.717,0.120,0.000,0.000
19:10:39.095,INSPECTING,30.839,-17.111,1.000,0.00,0.00,-21.84,0.702,0.693,0.553,0.695,0.695,0,0,LEFT,0.702,0.120,0.000,0.000
19:10:39.297,INSPECTING,30.868,-17.121,1.000,0.00,0.00,-13.01,0.643,0.738,0.561,0.738,0.738,0,0,LEFT,0.643,0.120,0.000,0.000
19:10:39.486,INSPECTING,30.897,-17.125,1.000,0.00,0.00,-0.41,0.596,0.695,0.637,0.695,0.695,0,0,LEFT,0.596,0.120,0.000,0.000
19:10:39.748,INSPECTING,30.927,-17.122,1.000,0.00,0.00,12.20,0.578,0.639,0.715,0.641,0.641,0,0,LEFT,0.578,0.120,0.000,0.000
19:10:39.925,INSPECTING,30.942,-17.118,1.000,0.00,0.00,18.50,0.578,0.623,0.679,0.623,0.625,0,0,RIGHT,0.679,0.120,0.000,0.000
19:10:40.265,INSPECTING,30.969,-17.106,1.000,0.00,0.00,31.11,0.601,0.599,0.597,0.599,0.599,0,0,RIGHT,0.597,0.120,0.000,0.000
19:10:40.439,INSPECTING,30.982,-17.098,1.000,0.00,0.00,27.32,0.573,0.575,0.575,0.573,0.575,0,0,RIGHT,0.575,0.120,0.000,0.000
19:10:40.602,INSPECTING,30.996,-17.092,1.000,0.00,0.00,21.02,0.508,0.540,0.575,0.541,0.541,0,0,RIGHT,0.575,0.120,0.000,0.000
19:10:40.954,INSPECTING,31.039,-17.083,1.000,0.00,0.00,2.11,0.448,0.507,0.585,0.507,0.507,0,0,RIGHT,0.585,0.120,0.000,0.000
19:10:41.107,INSPECTING,31.062,-17.082,1.000,0.00,0.00,6.53,0.439,0.472,0.508,0.471,0.471,0,0,RIGHT,0.508,0.120,0.000,0.000
19:10:41.312,INSPECTING,31.098,-17.073,1.000,0.00,0.00,22.28,0.450,0.445,0.439,0.445,0.445,0,0,RIGHT,0.439,0.120,0.000,0.000
19:10:41.648,INSPECTING,31.138,-17.052,1.000,0.00,0.00,23.54,0.370,0.393,0.418,0.392,0.393,0,0,RIGHT,0.418,0.120,0.000,0.000
19:10:41.812,INSPECTING,31.159,-17.045,1.000,0.00,0.00,14.09,0.335,0.375,0.426,0.376,0.375,0,0,RIGHT,0.426,0.120,0.000,0.000
19:10:42.155,INSPECTING,31.211,-17.041,1.000,0.00,0.00,-7.97,0.314,0.396,0.468,0.397,0.394,0,0,RIGHT,0.468,0.120,0.000,0.000
19:10:42.326,INSPECTING,31.233,-17.046,1.000,0.00,0.00,-17.42,0.329,0.444,0.409,0.448,0.445,0,0,TOP,0.448,0.120,0.000,0.000
19:10:43.559,TURNING,31.305,-17.098,1.000,0.00,0.00,-51.46,0.397,0.399,0.356,0.399,0.399,0,0,TURNING,0.000,0.000,0.000,0.000
19:10:43.742,TURNING,31.361,-17.140,1.000,0.00,0.00,-30.09,0.283,0.349,0.289,0.347,0.350,0,0,TURNING,0.000,0.000,0.000,0.000
19:10:43.941,TURNING,31.361,-17.140,1.000,0.00,0.00,-39.25,0.315,0.320,0.279,0.322,0.320,0,0,TURNING,0.000,0.000,0.000,0.000
19:10:44.140,TURNING,31.361,-17.140,1.000,0.00,0.00,-48.42,0.328,0.298,0.272,0.297,0.298,0,0,TURNING,0.000,0.000,0.000,0.000
19:10:44.521,TURNING,31.361,-17.140,1.000,0.00,0.00,-57.59,0.303,0.288,0.275,0.288,0.288,1,0,TURNING,0.000,0.000,0.000,0.000
19:10:44.694,TURNING,31.361,-17.140,1.000,0.00,0.00,-62.17,0.296,0.287,0.278,0.287,0.287,1,0,TURNING,0.000,0.000,0.000,0.000
19:10:44.960,TURNING,31.361,-17.140,1.000,0.00,0.00,-69.05,0.270,0.281,0.292,0.281,0.281,1,0,TURNING,0.000,0.000,0.000,0.000
19:10:45.146,TURNING,31.361,-17.140,1.000,0.00,0.00,-73.63,0.259,0.279,0.305,0.280,0.279,1,0,TURNING,0.000,0.000,0.000,0.000
19:10:45.298,TURNING,31.361,-17.140,1.000,0.00,0.00,-80.51,0.254,0.286,0.328,0.285,0.285,0,0,TURNING,0.000,0.000,0.000,0.000
19:10:45.472,TURNING,31.361,-17.140,1.000,0.00,0.00,-94.26,0.256,0.304,0.373,0.304,0.303,0,0,TURNING,0.000,0.000,0.000,0.000
19:10:45.648,TURNING,31.361,-17.140,1.000,0.00,0.00,-117.18,0.296,0.393,0.602,0.393,0.399,0,0,TURNING,0.000,0.000,0.000,0.000
19:10:45.849,TURNING,31.361,-17.140,1.000,0.00,0.00,-126.34,0.341,0.501,0.978,0.501,0.500,0,0,TURNING,0.000,0.000,0.000,0.000
19:10:46.050,TURNING,31.361,-17.140,1.000,0.00,0.00,-135.51,0.402,0.677,1.720,0.667,0.667,0,0,TURNING,0.000,0.000,0.000,0.000
19:10:46.251,TURNING,31.361,-17.140,1.000,0.00,0.00,-144.68,0.515,0.986,1.788,0.986,1.012,0,0,TURNING,0.000,0.000,0.000,0.000
19:10:46.451,TURNING,31.361,-17.140,1.000,0.00,0.00,-153.84,0.641,1.658,1.860,1.634,1.658,0,0,TURNING,0.000,0.000,0.000,0.000
19:10:46.652,TURNING,31.361,-17.140,1.000,0.00,0.00,-163.01,0.934,1.816,1.990,1.816,1.816,0,0,TURNING,0.000,0.000,0.000,0.000
19:10:46.853,TURNING,31.361,-17.140,1.000,0.00,0.00,-171.72,1.733,1.860,2.243,1.876,1.876,0,0,TURNING,0.000,0.000,0.000,0.000
19:10:47.053,TURNING,31.361,-17.140,1.000,0.00,0.00,-178.86,1.658,1.973,2.434,1.956,1.973,0,0,TURNING,0.000,0.000,0.000,0.000
19:10:47.254,TURNING,31.361,-17.140,1.000,-0.00,0.00,175.46,1.670,2.099,2.790,2.080,2.080,0,0,TURNING,0.000,0.000,0.000,0.000
19:10:47.453,TURNING,31.361,-17.140,1.000,-0.00,0.00,170.93,1.720,2.222,3.365,2.222,2.222,0,0,TURNING,0.000,0.000,0.000,0.000
19:10:47.655,TURNING,31.361,-17.140,1.000,-0.00,0.00,167.26,1.760,2.311,3.751,2.311,2.288,0,0,TURNING,0.000,0.000,0.000,0.000
19:10:47.860,TURNING,31.361,-17.140,1.000,-0.00,0.00,163.82,1.802,2.434,4.160,2.409,2.384,0,0,TURNING,0.000,0.000,0.000,0.000
19:10:48.055,TURNING,31.361,-17.140,1.000,-0.00,0.00,160.39,1.860,2.542,4.400,2.571,2.460,0,0,TURNING,0.000,0.000,0.000,0.000
19:10:48.263,RETURNING,31.361,-17.140,1.000,-0.00,0.00,157.29,1.939,2.790,6.184,2.825,2.460,0,0,RETURNING,0.000,0.000,0.000,0.000
19:10:48.454,RETURNING,31.278,-17.103,1.000,-0.00,0.00,154.29,1.973,3.051,6.730,3.051,2.434,0,0,RETURNING,0.000,0.000,0.000,0.000
19:10:48.655,RETURNING,31.189,-17.057,1.000,-0.00,0.00,150.99,2.007,3.415,6.022,3.365,2.409,0,0,RETURNING,0.000,0.000,0.000,0.000
19:10:48.854,RETURNING,31.103,-17.007,1.000,-0.00,0.00,147.94,2.061,3.691,5.448,3.691,2.460,0,0,RETURNING,0.000,0.000,0.000,0.000
19:10:49.056,RETURNING,31.020,-16.952,1.000,-0.00,0.00,145.16,2.099,3.878,4.767,3.878,2.487,0,0,RETURNING,0.000,0.000,0.000,0.000
19:10:49.256,RETURNING,30.939,-16.893,1.000,-0.00,0.00,142.79,2.266,4.014,3.814,3.878,2.460,0,0,RETURNING,0.000,0.000,0.000,0.000
19:10:49.457,RETURNING,30.860,-16.832,1.000,-0.00,0.00,141.13,2.384,4.086,3.415,3.945,2.384,0,0,RETURNING,0.000,0.000,0.000,0.000
19:10:49.657,RETURNING,30.783,-16.768,1.000,-0.00,0.00,139.95,2.434,5.581,3.223,4.317,2.409,0,0,RETURNING,0.000,0.000,0.000,0.000
19:10:49.858,RETURNING,30.707,-16.703,1.000,-0.00,0.00,139.02,2.487,7.890,3.092,4.487,2.460,0,0,RETURNING,0.000,0.000,0.000,0.000
19:10:50.059,RETURNING,30.632,-16.637,1.000,-0.00,0.00,138.28,2.514,6.934,3.011,4.487,2.434,0,0,RETURNING,0.000,0.000,0.000,0.000
19:10:50.259,RETURNING,30.557,-16.570,1.000,-0.00,0.00,137.67,2.542,7.151,2.934,4.400,2.434,0,0,RETURNING,0.000,0.000,0.000,0.000
19:10:50.459,RETURNING,30.484,-16.503,1.000,-0.00,0.00,137.21,2.542,6.538,2.896,4.317,2.460,0,0,RETURNING,0.000,0.000,0.000,0.000
19:10:50.660,RETURNING,30.410,-16.434,1.000,-0.00,0.00,136.81,2.630,6.538,2.860,4.160,2.434,0,0,RETURNING,0.000,0.000,0.000,0.000
19:10:50.861,RETURNING,30.338,-16.366,1.000,-0.00,0.00,136.51,2.571,6.356,2.825,4.160,2.460,0,0,RETURNING,0.000,0.000,0.000,0.000
19:10:51.061,RETURNING,30.265,-16.297,1.000,-0.00,0.00,136.18,2.661,6.538,2.825,4.014,2.409,0,0,RETURNING,0.000,0.000,0.000,0.000
19:10:51.261,RETURNING,30.193,-16.227,1.000,-0.00,0.00,135.95,2.661,6.356,2.724,3.945,2.409,0,0,RETURNING,0.000,0.000,0.000,0.000
19:10:51.463,RETURNING,30.121,-16.158,1.000,-0.00,0.00,135.83,2.600,6.356,2.757,3.814,2.434,0,0,RETURNING,0.000,0.000,0.000,0.000
19:10:51.662,RETURNING,30.050,-16.088,1.000,-0.00,0.00,135.63,2.600,6.184,2.757,3.691,2.460,0,0,RETURNING,0.000,0.000,0.000,0.000
19:10:51.864,RETURNING,29.978,-16.018,1.000,-0.00,0.00,135.41,2.514,6.022,2.825,3.575,2.487,0,0,RETURNING,0.000,0.000,0.000,0.000
19:10:52.067,RETURNING,29.907,-15.948,1.000,-0.00,0.00,135.03,2.434,5.867,2.825,3.520,2.487,0,0,RETURNING,0.000,0.000,0.000,0.000
19:10:52.269,RETURNING,29.837,-15.877,1.000,-0.00,0.00,134.52,2.335,5.581,2.757,3.415,2.460,0,0,RETURNING,0.000,0.000,0.000,0.000
19:10:52.469,RETURNING,29.767,-15.805,1.000,-0.00,0.00,133.94,2.243,5.448,2.724,3.365,2.460,0,0,RETURNING,0.000,0.000,0.000,0.000
19:10:52.669,RETURNING,29.698,-15.733,1.000,-0.00,0.00,133.28,2.311,5.321,2.661,3.223,2.460,0,0,RETURNING,0.000,0.000,0.000,0.000
19:10:52.871,RETURNING,29.630,-15.659,1.000,-0.00,0.00,132.75,2.542,5.085,2.600,3.134,2.434,0,0,RETURNING,0.000,0.000,0.000,0.000
19:10:53.071,RETURNING,29.562,-15.586,1.000,-0.00,0.00,132.57,2.692,4.974,2.514,3.051,2.434,0,0,RETURNING,0.000,0.000,0.000,0.000
19:10:53.271,RETURNING,29.494,-15.512,1.000,-0.00,0.00,132.73,2.692,5.085,2.600,2.972,2.460,0,0,RETURNING,0.000,0.000,0.000,0.000
19:10:53.472,RETURNING,29.427,-15.439,1.000,-0.00,0.00,132.86,2.825,4.868,2.661,2.860,2.434,0,0,RETURNING,0.000,0.000,0.000,0.000
19:10:53.674,RETURNING,29.358,-15.366,1.000,-0.00,0.00,132.99,2.972,4.868,2.972,2.790,2.434,0,0,RETURNING,0.000,0.000,0.000,0.000
19:10:53.875,RETURNING,29.290,-15.293,1.000,-0.00,0.00,132.87,3.134,4.670,2.972,2.790,2.434,0,0,RETURNING,0.000,0.000,0.000,0.000
19:10:54.075,RETURNING,29.222,-15.219,1.000,-0.00,0.00,132.98,3.269,4.670,2.934,2.724,2.409,0,0,RETURNING,0.000,0.000,0.000,0.000
19:10:54.275,RETURNING,29.154,-15.146,1.000,-0.00,0.00,133.31,3.365,4.670,2.896,2.860,2.460,0,0,RETURNING,0.000,0.000,0.000,0.000
19:10:54.476,RETURNING,29.085,-15.074,1.000,-0.00,0.00,133.75,3.316,4.670,2.896,4.670,2.460,0,0,RETURNING,0.000,0.000,0.000,0.000
19:10:54.676,RETURNING,29.016,-15.002,1.000,-0.00,0.00,134.16,3.467,4.670,2.896,4.767,2.460,0,0,RETURNING,0.000,0.000,0.000,0.000
19:10:54.877,RETURNING,28.946,-14.930,1.000,-0.00,0.00,134.65,3.415,4.974,2.860,4.974,2.460,0,0,RETURNING,0.000,0.000,0.000,0.000
19:10:55.078,RETURNING,28.875,-14.859,1.000,-0.00,0.00,135.17,3.415,4.974,2.860,4.974,2.434,0,0,RETURNING,0.000,0.000,0.000,0.000
19:10:55.278,RETURNING,28.804,-14.789,1.000,-0.00,0.00,135.69,3.365,5.085,2.860,4.974,2.409,0,0,RETURNING,0.000,0.000,0.000,0.000
19:10:55.478,RETURNING,28.732,-14.720,1.000,-0.00,0.00,136.19,3.365,5.448,2.860,5.200,2.460,0,0,RETURNING,0.000,0.000,0.000,0.000
19:10:55.686,RETURNING,28.660,-14.651,1.000,-0.00,0.00,136.69,3.365,5.321,2.896,5.200,2.288,0,0,RETURNING,0.000,0.000,0.000,0.000
19:10:55.890,RETURNING,28.587,-14.582,1.000,-0.00,0.00,137.15,3.269,5.720,2.860,5.321,2.460,0,0,RETURNING,0.000,0.000,0.000,0.000
19:10:56.078,RETURNING,28.513,-14.515,1.000,-0.00,0.00,137.56,3.269,5.720,2.896,5.200,2.359,0,0,RETURNING,0.000,0.000,0.000,0.000
19:10:56.277,RETURNING,28.439,-14.447,1.000,-0.00,0.00,137.93,3.269,5.581,2.896,5.321,2.460,0,0,RETURNING,0.000,0.000,0.000,0.000
19:10:56.479,RETURNING,28.365,-14.381,1.000,-0.00,0.00,138.30,3.269,5.867,2.896,5.448,2.487,0,0,RETURNING,0.000,0.000,0.000,0.000
19:10:56.678,RETURNING,28.290,-14.314,1.000,-0.00,0.00,138.67,3.269,6.184,2.896,5.321,2.460,0,0,RETURNING,0.000,0.000,0.000,0.000
19:10:56.879,RETURNING,28.215,-14.248,1.000,-0.00,0.00,139.04,3.316,6.356,2.896,5.581,2.434,0,0,RETURNING,0.000,0.000,0.000,0.000
19:10:57.079,RETURNING,28.139,-14.183,1.000,-0.00,0.00,139.44,3.316,6.184,2.896,5.581,2.409,0,0,RETURNING,0.000,0.000,0.000,0.000
19:10:57.280,RETURNING,28.063,-14.118,1.000,-0.00,0.00,139.84,3.316,6.356,2.934,5.448,2.460,0,0,RETURNING,0.000,0.000,0.000,0.000
19:10:57.483,RETURNING,27.986,-14.054,1.000,-0.00,0.00,140.21,3.316,6.538,2.860,5.448,2.487,0,0,RETURNING,0.000,0.000,0.000,0.000
19:10:57.683,RETURNING,27.909,-13.990,1.000,-0.00,0.00,140.63,3.316,6.730,2.825,5.448,2.487,0,0,RETURNING,0.000,0.000,0.000,0.000
19:10:57.884,RETURNING,27.831,-13.927,1.000,-0.00,0.00,141.09,3.269,6.538,2.757,5.448,2.460,0,0,RETURNING,0.000,0.000,0.000,0.000
19:10:58.084,RETURNING,27.753,-13.865,1.000,-0.00,0.00,141.62,3.316,6.730,2.630,5.448,2.434,0,0,RETURNING,0.000,0.000,0.000,0.000
19:10:58.285,RETURNING,27.675,-13.803,1.000,-0.00,0.00,142.33,3.269,6.538,2.600,5.448,2.434,0,0,RETURNING,0.000,0.000,0.000,0.000
19:10:58.484,RETURNING,27.595,-13.742,1.000,-0.00,0.00,143.07,3.134,6.356,2.692,5.448,2.460,0,0,RETURNING,0.000,0.000,0.000,0.000
19:10:58.685,RETURNING,27.515,-13.683,1.000,-0.00,0.00,143.56,3.051,6.184,2.790,5.321,2.460,0,0,RETURNING,0.000,0.000,0.000,0.000
19:10:58.886,RETURNING,27.434,-13.623,1.000,-0.00,0.00,143.84,3.051,6.022,2.825,5.200,2.434,0,0,RETURNING,0.000,0.000,0.000,0.000
19:10:59.087,RETURNING,27.354,-13.565,1.000,-0.00,0.00,144.06,3.051,6.022,2.934,5.321,2.288,0,0,RETURNING,0.000,0.000,0.000,0.000
19:10:59.291,RETURNING,27.273,-13.506,1.000,-0.00,0.00,144.20,3.011,5.867,2.972,5.200,2.460,0,0,RETURNING,0.000,0.000,0.000,0.000
19:10:59.492,RETURNING,27.191,-13.448,1.000,-0.00,0.00,144.26,2.972,5.720,3.051,5.200,2.460,0,0,RETURNING,0.000,0.000,0.000,0.000
19:10:59.692,RETURNING,27.110,-13.389,1.000,-0.00,0.00,144.22,2.934,5.720,3.051,5.085,2.460,0,0,RETURNING,0.000,0.000,0.000,0.000
19:10:59.893,RETURNING,27.029,-13.331,1.000,-0.00,0.00,144.12,2.934,5.720,3.011,5.085,2.460,0,0,RETURNING,0.000,0.000,0.000,0.000
19:11:00.101,RETURNING,26.948,-13.272,1.000,-0.00,0.00,144.04,2.896,5.720,3.011,5.085,2.460,0,0,RETURNING,0.000,0.000,0.000,0.000
19:11:00.300,RETURNING,26.867,-13.213,1.000,-0.00,0.00,143.96,2.934,5.867,2.972,5.085,2.434,0,0,RETURNING,0.000,0.000,0.000,0.000
19:11:00.494,RETURNING,26.786,-13.154,1.000,-0.00,0.00,143.91,2.934,5.720,2.972,5.085,2.460,0,0,RETURNING,0.000,0.000,0.000,0.000
19:11:00.695,RETURNING,26.706,-13.095,1.000,-0.00,0.00,143.87,2.896,5.581,2.934,5.085,2.487,0,0,RETURNING,0.000,0.000,0.000,0.000
19:11:00.896,RETURNING,26.625,-13.036,1.000,-0.00,0.00,143.83,2.860,5.581,2.860,5.085,2.460,0,0,RETURNING,0.000,0.000,0.000,0.000
19:11:01.097,RETURNING,26.544,-12.977,1.000,-0.00,0.00,143.79,2.825,5.581,2.972,5.085,2.460,0,0,RETURNING,0.000,0.000,0.000,0.000
19:11:01.297,RETURNING,26.464,-12.918,1.000,-0.00,0.00,143.63,2.790,5.581,2.972,4.974,2.460,0,0,RETURNING,0.000,0.000,0.000,0.000
19:11:01.497,RETURNING,26.383,-12.859,1.000,-0.00,0.00,143.45,2.757,5.581,2.972,5.085,2.434,0,0,RETURNING,0.000,0.000,0.000,0.000
19:11:01.698,RETURNING,26.303,-12.799,1.000,-0.00,0.00,143.22,2.692,5.720,2.934,4.974,2.460,0,0,RETURNING,0.000,0.000,0.000,0.000
19:11:01.899,RETURNING,26.223,-12.739,1.000,-0.00,0.00,142.95,2.630,5.867,2.934,4.974,2.460,0,0,RETURNING,0.000,0.000,0.000,0.000
19:11:02.100,RETURNING,26.143,-12.679,1.000,-0.00,0.00,142.59,2.661,5.867,2.934,4.974,2.487,0,0,RETURNING,0.000,0.000,0.000,0.000
19:11:02.300,RETURNING,26.064,-12.618,1.000,-0.00,0.00,142.28,2.661,6.022,2.896,4.868,2.434,0,0,RETURNING,0.000,0.000,0.000,0.000
19:11:02.501,RETURNING,25.985,-12.556,1.000,-0.00,0.00,142.02,2.692,6.184,2.896,4.868,2.434,0,0,RETURNING,0.000,0.000,0.000,0.000
19:11:02.701,RETURNING,25.906,-12.495,1.000,-0.00,0.00,141.79,2.724,6.022,2.860,4.767,2.434,0,0,RETURNING,0.000,0.000,0.000,0.000
19:11:02.902,RETURNING,25.828,-12.433,1.000,-0.00,0.00,141.60,2.724,6.022,2.825,4.670,2.434,0,0,RETURNING,0.000,0.000,0.000,0.000
19:11:03.102,RETURNING,25.750,-12.370,1.000,-0.00,0.00,141.47,2.692,6.184,2.825,4.576,2.434,0,0,RETURNING,0.000,0.000,0.000,0.000
19:11:03.304,RETURNING,25.671,-12.308,1.000,-0.00,0.00,141.31,2.724,5.867,2.825,4.487,2.460,0,0,RETURNING,0.000,0.000,0.000,0.000
19:11:03.504,RETURNING,25.593,-12.245,1.000,-0.00,0.00,141.18,2.692,6.022,2.790,4.400,2.460,0,0,RETURNING,0.000,0.000,0.000,0.000
19:11:03.704,RETURNING,25.516,-12.183,1.000,-0.00,0.00,141.09,2.724,6.022,2.757,4.317,2.487,0,0,RETURNING,0.000,0.000,0.000,0.000
19:11:03.905,RETURNING,25.438,-12.120,1.000,-0.00,0.00,141.04,2.724,5.867,2.692,4.237,2.460,0,0,RETURNING,0.000,0.000,0.000,0.000
19:11:04.104,RETURNING,25.360,-12.057,1.000,-0.00,0.00,141.05,2.661,5.867,2.661,4.237,2.460,0,0,RETURNING,0.000,0.000,0.000,0.000
19:11:04.302,RETURNING,25.282,-11.994,1.000,-0.00,0.00,141.07,2.724,5.720,2.600,4.160,2.460,0,0,RETURNING,0.000,0.000,0.000,0.000
19:11:04.501,RETURNING,25.204,-11.931,1.000,-0.00,0.00,141.18,2.661,5.581,2.630,4.160,2.434,0,0,RETURNING,0.000,0.000,0.000,0.000
19:11:04.702,RETURNING,25.126,-11.869,1.000,-0.00,0.00,141.22,2.661,5.581,2.692,4.160,2.460,0,0,RETURNING,0.000,0.000,0.000,0.000
19:11:04.903,RETURNING,25.048,-11.806,1.000,-0.00,0.00,141.19,2.571,5.448,2.661,4.237,2.460,0,0,RETURNING,0.000,0.000,0.000,0.000
19:11:05.104,RETURNING,24.971,-11.743,1.000,-0.00,0.00,141.10,2.571,5.321,2.692,4.160,2.434,0,0,RETURNING,0.000,0.000,0.000,0.000
19:11:05.304,RETURNING,24.893,-11.680,1.000,-0.00,0.00,140.95,2.630,5.321,2.661,4.086,2.460,0,0,RETURNING,0.000,0.000,0.000,0.000
19:11:05.504,RETURNING,24.815,-11.617,1.000,-0.00,0.00,140.86,2.571,5.200,2.692,4.086,2.460,0,0,RETURNING,0.000,0.000,0.000,0.000
19:11:05.705,RETURNING,24.738,-11.554,1.000,-0.00,0.00,140.69,2.571,5.200,2.724,4.086,2.460,0,0,RETURNING,0.000,0.000,0.000,0.000
19:11:05.905,RETURNING,24.660,-11.491,1.000,-0.00,0.00,140.49,2.600,5.200,2.692,4.160,2.460,0,0,RETURNING,0.000,0.000,0.000,0.000
19:11:06.106,RETURNING,24.583,-11.427,1.000,-0.00,0.00,140.34,2.600,5.085,2.692,4.086,2.434,0,0,RETURNING,0.000,0.000,0.000,0.000
19:11:06.307,RETURNING,24.506,-11.363,1.000,-0.00,0.00,140.23,2.542,5.085,2.600,4.086,2.460,0,0,RETURNING,0.000,0.000,0.000,0.000
19:11:06.507,RETURNING,24.430,-11.299,1.000,-0.00,0.00,140.20,2.514,5.085,2.514,4.086,2.460,0,0,RETURNING,0.000,0.000,0.000,0.000
19:11:06.708,RETURNING,24.353,-11.235,1.000,-0.00,0.00,140.27,2.514,4.974,2.434,4.086,2.487,0,0,RETURNING,0.000,0.000,0.000,0.000
19:11:06.908,RETURNING,24.276,-11.171,1.000,-0.00,0.00,140.42,2.487,4.868,2.335,4.160,2.460,0,0,RETURNING,0.000,0.000,0.000,0.000
19:11:07.109,RETURNING,24.199,-11.108,1.000,-0.00,0.00,140.67,2.487,4.767,2.243,4.086,2.460,0,0,RETURNING,0.000,0.000,0.000,0.000
19:11:07.309,RETURNING,24.121,-11.044,1.000,-0.00,0.00,141.06,2.460,4.670,2.222,4.014,2.460,0,0,RETURNING,0.000,0.000,0.000,0.000
19:11:07.509,RETURNING,24.043,-10.982,1.000,-0.00,0.00,141.01,2.409,4.576,4.767,4.086,2.460,0,0,RETURNING,0.000,0.000,0.000,0.000
19:11:07.725,RETURNING,23.985,-10.934,1.000,-0.00,0.00,139.61,2.487,4.670,2.061,3.945,2.434,0,0,RETURNING,0.000,0.000,0.000,0.000
19:11:07.916,RETURNING,23.891,-10.852,1.000,-0.00,0.00,138.89,2.514,4.767,1.956,3.814,2.460,0,0,RETURNING,0.000,0.000,0.000,0.000
19:11:08.116,RETURNING,23.815,-10.787,1.000,-0.00,0.00,139.92,2.487,4.576,3.575,3.691,2.487,0,0,RETURNING,0.000,0.000,0.000,0.000
19:11:08.317,RETURNING,23.739,-10.722,1.000,-0.00,0.00,139.35,2.460,4.576,4.086,3.632,2.542,0,0,RETURNING,0.000,0.000,0.000,0.000
19:11:08.518,RETURNING,23.664,-10.656,1.000,-0.00,0.00,138.00,2.571,4.767,3.092,3.467,2.434,0,0,RETURNING,0.000,0.000,0.000,0.000
19:11:08.718,RETURNING,23.590,-10.589,1.000,-0.00,0.00,137.43,2.757,4.767,3.011,3.415,2.434,0,0,RETURNING,0.000,0.000,0.000,0.000
19:11:08.918,RETURNING,23.516,-10.521,1.000,-0.00,0.00,137.24,2.825,4.670,2.692,3.316,2.460,0,0,RETURNING,0.000,0.000,0.000,0.000
19:11:09.120,RETURNING,23.443,-10.453,1.000,-0.00,0.00,137.44,2.790,4.576,2.896,3.178,2.434,0,0,RETURNING,0.000,0.000,0.000,0.000
19:11:09.321,RETURNING,23.369,-10.386,1.000,-0.00,0.00,137.29,2.724,4.400,3.467,3.051,2.460,0,0,RETURNING,0.000,0.000,0.000,0.000
19:11:09.521,RETURNING,23.296,-10.317,1.000,-0.00,0.00,136.48,2.757,4.487,3.365,2.860,2.434,0,0,RETURNING,0.000,0.000,0.000,0.000
19:11:09.721,RETURNING,23.224,-10.248,1.000,-0.00,0.00,135.80,2.757,4.317,3.134,2.860,2.487,0,0,RETURNING,0.000,0.000,0.000,0.000
19:11:09.922,RETURNING,23.152,-10.178,1.000,-0.00,0.00,135.35,2.692,4.160,3.223,2.724,2.434,0,0,RETURNING,0.000,0.000,0.000,0.000
19:11:10.123,RETURNING,23.082,-10.108,1.000,-0.00,0.00,134.80,2.692,4.086,3.178,2.692,2.434,0,0,RETURNING,0.000,0.000,0.000,0.000
19:11:10.333,RETURNING,23.011,-10.036,1.000,-0.00,0.00,134.26,2.724,4.014,3.316,2.542,2.460,0,0,RETURNING,0.000,0.000,0.000,0.000
19:11:10.524,RETURNING,22.942,-9.964,1.000,-0.00,0.00,133.66,2.724,3.751,3.223,2.434,2.460,0,0,RETURNING,0.000,0.000,0.000,0.000
19:11:10.724,RETURNING,22.873,-9.892,1.000,-0.00,0.00,133.13,2.661,3.751,3.178,2.359,2.460,0,0,RETURNING,0.000,0.000,0.000,0.000
19:11:10.925,RETURNING,22.805,-9.818,1.000,-0.00,0.00,132.57,2.661,3.632,3.134,2.335,2.460,0,0,RETURNING,0.000,0.000,0.000,0.000
19:11:11.126,RETURNING,22.738,-9.745,1.000,-0.00,0.00,132.04,2.692,3.415,3.092,2.243,2.460,0,0,RETURNING,0.000,0.000,0.000,0.000
19:11:11.326,RETURNING,22.671,-9.670,1.000,-0.00,0.00,131.56,2.630,3.415,3.092,2.159,2.460,0,0,RETURNING,0.000,0.000,0.000,0.000
19:11:11.533,RETURNING,22.622,-9.614,1.000,-0.00,0.00,131.17,2.661,3.415,3.051,2.159,2.434,0,0,RETURNING,0.000,0.000,0.000,0.000
19:11:11.727,RETURNING,22.540,-9.519,1.000,-0.00,0.00,130.64,2.724,3.316,3.051,2.080,2.434,0,0,RETURNING,0.000,0.000,0.000,0.000
19:11:11.928,RETURNING,22.475,-9.443,1.000,-0.00,0.00,130.23,2.692,3.134,3.051,2.138,2.409,0,0,RETURNING,0.000,0.000,0.000,0.000
19:11:12.125,RETURNING,22.411,-9.367,1.000,-0.00,0.00,129.80,2.724,3.365,3.051,2.080,2.384,0,0,RETURNING,0.000,0.000,0.000,0.000
19:11:12.325,RETURNING,22.347,-9.290,1.000,-0.00,0.00,129.42,2.724,3.415,2.972,2.099,2.434,0,0,RETURNING,0.000,0.000,0.000,0.000
19:11:12.525,RETURNING,22.283,-9.212,1.000,-0.00,0.00,129.11,2.692,3.365,2.972,2.138,2.460,0,0,RETURNING,0.000,0.000,0.000,0.000
19:11:12.725,RETURNING,22.221,-9.134,1.000,-0.00,0.00,128.81,2.724,3.365,2.896,2.099,2.460,0,0,RETURNING,0.000,0.000,0.000,0.000
19:11:12.926,RETURNING,22.158,-9.056,1.000,-0.00,0.00,128.59,2.661,3.365,2.825,2.119,2.487,0,0,RETURNING,0.000,0.000,0.000,0.000
19:11:13.126,RETURNING,22.096,-8.978,1.000,-0.00,0.00,128.36,2.542,3.269,2.790,2.119,2.460,0,0,RETURNING,0.000,0.000,0.000,0.000
19:11:13.328,RETURNING,22.034,-8.900,1.000,-0.00,0.00,128.03,2.409,3.134,2.692,2.099,2.460,0,0,RETURNING,0.000,0.000,0.000,0.000
19:11:13.528,RETURNING,21.973,-8.821,1.000,-0.00,0.00,127.62,2.359,2.825,2.661,2.119,2.384,0,0,RETURNING,0.000,0.000,0.000,0.000
19:11:13.728,RETURNING,21.912,-8.741,1.000,-0.00,0.00,127.18,2.222,2.860,2.542,2.119,2.409,0,0,RETURNING,0.000,0.000,0.000,0.000
19:11:13.929,RETURNING,21.852,-8.661,1.000,-0.00,0.00,126.66,2.119,2.757,2.487,2.138,2.434,0,0,RETURNING,0.000,0.000,0.000,0.000
19:11:14.130,RETURNING,21.792,-8.581,1.000,-0.00,0.00,126.01,2.025,2.724,2.384,2.119,2.487,0,0,RETURNING,0.000,0.000,0.000,0.000
19:11:14.330,RETURNING,21.734,-8.500,1.000,-0.00,0.00,125.31,1.923,2.724,2.311,2.119,2.487,0,0,RETURNING,0.000,0.000,0.000,0.000
19:11:14.531,RETURNING,21.677,-8.418,1.000,-0.00,0.00,124.48,1.802,2.600,2.243,2.099,2.460,0,0,RETURNING,0.000,0.000,0.000,0.000
19:11:14.731,RETURNING,21.621,-8.335,1.000,-0.00,0.00,123.49,1.802,2.487,2.179,2.119,2.434,0,0,RETURNING,0.000,0.000,0.000,0.000
19:11:14.933,RETURNING,21.566,-8.251,1.000,-0.00,0.00,122.64,1.891,2.384,2.080,2.099,2.359,0,0,RETURNING,0.000,0.000,0.000,0.000
19:11:15.133,RETURNING,21.513,-8.167,1.000,-0.00,0.00,122.20,2.099,2.288,2.025,2.159,2.266,0,0,RETURNING,0.000,0.000,0.000,0.000
19:11:15.334,RETURNING,21.459,-8.082,1.000,-0.00,0.00,122.26,2.159,2.200,2.043,2.159,2.179,0,0,RETURNING,0.000,0.000,0.000,0.000
19:11:15.533,RETURNING,21.406,-7.997,1.000,-0.00,0.00,122.52,2.159,2.080,1.990,2.080,2.080,0,0,RETURNING,0.000,0.000,0.000,0.000
19:11:16.841,RETURNING,21.365,-7.934,1.000,-0.00,0.00,122.79,2.099,2.025,1.990,2.007,2.007,0,0,RETURNING,0.000,0.000,0.000,0.000
19:11:16.930,RETURNING,21.338,-7.892,1.000,-0.00,0.00,122.99,2.080,2.007,1.990,2.007,2.007,0,0,RETURNING,0.000,0.000,0.000,0.000
19:11:17.079,RETURNING,21.270,-7.788,1.000,-0.00,0.00,123.49,1.831,1.760,1.956,1.760,1.760,0,0,RETURNING,0.000,0.000,0.000,0.000
19:11:17.255,RETURNING,21.159,-7.621,1.000,-0.00,0.00,123.27,1.658,1.623,1.876,1.634,1.623,0,0,RETURNING,0.000,0.000,0.000,0.000
19:11:17.456,RETURNING,21.105,-7.537,1.000,-0.00,0.00,122.62,1.557,1.546,1.860,1.546,1.546,0,0,RETURNING,0.000,0.000,0.000,0.000
19:11:17.656,RETURNING,21.051,-7.453,1.000,-0.00,0.00,121.68,1.439,1.448,1.802,1.448,1.439,0,0,RETURNING,0.000,0.000,0.000,0.000
19:11:17.856,RETURNING,21.001,-7.370,1.000,-0.00,0.00,120.47,1.338,1.378,1.720,1.378,1.378,0,0,RETURNING,0.000,0.000,0.000,0.000
19:11:18.056,RETURNING,20.956,-7.290,1.000,-0.00,0.00,118.97,1.237,1.315,1.623,1.315,1.315,0,0,RETURNING,0.000,0.000,0.000,0.000
19:11:18.256,RETURNING,20.914,-7.213,1.000,-0.00,0.00,117.18,1.133,1.271,1.536,1.257,1.271,0,0,RETURNING,0.000,0.000,0.000,0.000
19:11:18.458,RETURNING,20.877,-7.137,1.000,-0.00,0.00,115.03,1.022,1.211,1.457,1.217,1.211,0,0,RETURNING,0.000,0.000,0.000,0.000
19:11:18.658,RETURNING,20.844,-7.064,1.000,-0.00,0.00,112.36,0.938,1.167,1.378,1.179,1.156,0,0,RETURNING,0.000,0.000,0.000,0.000
19:11:18.858,RETURNING,20.817,-6.992,1.000,-0.00,0.00,109.27,0.894,1.939,1.278,1.939,1.939,0,0,RETURNING,0.000,0.000,0.000,0.000
19:11:19.060,RETURNING,20.788,-6.903,1.000,-0.00,0.00,106.12,0.857,1.747,1.186,1.747,1.733,0,0,RETURNING,0.000,0.000,0.000,0.000
19:11:19.260,RETURNING,20.763,-6.806,1.000,-0.00,0.00,103.17,0.829,1.536,1.079,1.557,1.546,0,0,RETURNING,0.000,0.000,0.000,0.000
19:11:19.460,RETURNING,20.742,-6.709,1.000,-0.00,0.00,100.57,2.025,1.378,0.974,1.370,1.378,0,0,RETURNING,0.000,0.000,0.000,0.000
19:11:19.660,RETURNING,20.725,-6.619,1.000,-0.00,0.00,103.27,4.237,1.338,0.946,1.330,1.338,0,0,RETURNING,0.000,0.000,0.000,0.000
19:11:19.861,RETURNING,20.700,-6.533,1.000,-0.00,0.00,109.79,0.618,1.439,0.974,1.421,1.421,0,0,RETURNING,0.000,0.000,0.000,0.000
19:11:20.062,RETURNING,20.668,-6.443,1.000,-0.00,0.00,106.52,4.767,1.395,0.934,1.387,1.378,0,0,RETURNING,0.000,0.000,0.000,0.000
19:11:20.263,RETURNING,20.642,-6.354,1.000,-0.00,0.00,109.38,4.670,1.338,0.880,1.323,1.330,0,0,RETURNING,0.000,0.000,0.000,0.000
19:11:20.463,RETURNING,20.609,-6.273,1.000,-0.00,0.00,116.26,5.720,1.476,0.930,1.467,1.486,0,0,RETURNING,0.000,0.000,0.000,0.000
19:11:20.663,RETURNING,20.561,-6.189,1.000,-0.00,0.00,123.13,7.627,3.878,1.064,2.571,2.460,0,0,RETURNING,0.000,0.000,0.000,0.000
19:11:20.864,RETURNING,20.502,-6.108,1.000,-0.00,0.00,130.01,5.867,4.576,1.217,2.487,2.460,0,0,RETURNING,0.000,0.000,0.000,0.000
19:11:21.064,RETURNING,20.434,-6.035,1.000,-0.00,0.00,136.02,3.467,5.581,3.134,2.311,2.434,0,0,RETURNING,0.000,0.000,0.000,0.000
19:11:21.265,RETURNING,20.360,-5.967,1.000,-0.00,0.00,137.61,3.365,7.890,3.415,2.288,2.460,0,0,RETURNING,0.000,0.000,0.000,0.000
19:11:21.464,RETURNING,20.287,-5.900,1.000,-0.00,0.00,137.62,3.365,7.627,3.415,2.243,2.434,0,0,RETURNING,0.000,0.000,0.000,0.000
19:11:21.665,RETURNING,20.213,-5.832,1.000,-0.00,0.00,137.59,3.316,7.627,3.365,2.179,2.460,0,0,RETURNING,0.000,0.000,0.000,0.000
19:11:21.866,RETURNING,20.139,-5.765,1.000,-0.00,0.00,137.55,3.316,7.627,3.316,2.099,2.384,0,0,RETURNING,0.000,0.000,0.000,0.000
