timestamp,state,x,z,roll_deg,pitch_deg,yaw_deg,left,center,right,top,bottom,cmd_vx,cmd_vz,cmd_roll,cmd_yaw
2026-05-11 17:08:26.853385,SEARCHING,0.000,0.000,0.00,0.00,0.00,10.000,10.000,10.000,10.000,10.000,0.700,0.000,0.000,0.000
2026-05-11 17:08:27.922280,SEARCHING,0.000,1.000,0.00,0.00,0.00,10.000,10.000,10.000,10.000,10.000,0.700,0.000,0.000,0.000
2026-05-11 17:08:28.129160,SEARCHING,0.105,1.000,0.00,0.00,0.00,10.000,10.000,10.000,10.000,10.000,0.700,0.000,0.000,0.000
2026-05-11 17:08:28.356866,SEARCHING,0.245,1.000,0.00,0.00,0.00,6.730,3.751,2.409,3.691,3.269,0.700,0.021,0.120,0.240
2026-05-11 17:08:28.571723,SEARCHING,0.420,1.000,0.00,0.00,2.56,7.381,3.632,2.222,3.575,3.178,0.700,0.021,0.142,0.283
2026-05-11 17:08:28.763494,SEARCHING,0.525,1.000,0.00,0.00,4.94,7.627,3.751,2.335,3.751,3.316,0.700,0.021,0.134,0.267
2026-05-11 17:08:28.969559,SEARCHING,0.664,1.000,0.00,0.00,8.04,7.627,3.878,2.460,3.814,3.316,0.700,0.024,0.124,0.248
2026-05-11 17:08:29.178970,SEARCHING,0.802,1.000,0.00,0.00,10.91,6.184,4.014,2.514,4.014,3.316,0.700,0.031,0.106,0.212
2026-05-11 17:08:29.380076,SEARCHING,0.939,1.000,0.00,0.00,13.35,5.581,4.317,2.757,4.317,3.467,0.700,0.034,0.083,0.165
2026-05-11 17:08:29.578460,SEARCHING,1.075,1.000,0.00,0.00,15.31,4.576,5.200,2.790,4.487,3.415,0.700,0.042,0.063,0.126
2026-05-11 17:08:29.775101,SEARCHING,1.209,1.000,0.00,0.00,16.79,4.400,5.581,2.790,4.767,4.086,0.700,0.021,0.059,0.118
2026-05-11 17:08:29.984795,SEARCHING,1.343,1.000,0.00,0.00,18.10,4.160,5.867,2.724,4.868,4.160,0.700,0.021,0.057,0.114
2026-05-11 17:08:30.195985,SEARCHING,1.508,1.000,0.00,0.00,19.76,3.945,5.720,2.757,4.868,4.400,0.700,0.013,0.049,0.098
2026-05-11 17:08:30.421386,SEARCHING,1.607,1.000,0.00,0.00,20.60,3.814,6.022,2.757,4.974,4.400,0.700,0.016,0.045,0.090
2026-05-11 17:08:30.627766,SEARCHING,1.738,1.000,0.00,0.00,21.61,3.632,6.730,2.825,4.868,5.085,0.700,-0.005,0.035,0.071
2026-05-11 17:08:30.833560,SEARCHING,1.867,1.000,0.00,0.00,22.45,3.575,6.730,2.825,4.974,4.576,0.700,0.010,0.033,0.067
2026-05-11 17:08:31.046650,SEARCHING,1.996,1.000,0.00,0.00,23.21,3.467,7.151,2.790,4.868,5.581,0.700,-0.016,0.031,0.063
2026-05-11 17:08:31.269187,SEARCHING,2.125,1.000,0.00,0.00,23.91,3.365,7.151,2.860,4.868,4.400,0.700,0.013,0.024,0.047
2026-05-11 17:08:31.470804,SEARCHING,2.253,1.000,0.00,0.00,24.49,3.269,8.172,2.860,4.868,4.670,0.700,0.005,0.020,0.039
2026-05-11 17:08:31.682709,SEARCHING,2.380,1.000,0.00,0.00,24.98,3.223,7.381,3.011,4.868,4.400,0.700,0.013,0.010,0.020
2026-05-11 17:08:31.893843,SEARCHING,2.506,1.000,0.00,0.00,25.24,3.134,7.627,3.178,4.868,4.487,0.700,0.010,-0.002,-0.004
2026-05-11 17:08:32.085718,SEARCHING,2.633,1.000,0.00,0.00,25.20,3.092,7.151,3.316,4.868,4.487,0.700,0.010,-0.010,-0.020
2026-05-11 17:08:32.303037,SEARCHING,2.760,1.000,0.00,0.00,24.96,3.092,4.487,3.415,4.868,4.767,0.700,0.003,-0.014,-0.028
2026-05-11 17:08:32.516258,SEARCHING,2.887,1.000,0.00,0.00,24.64,3.134,8.172,3.575,4.868,4.767,0.700,0.003,-0.018,-0.035
2026-05-11 17:08:32.723864,SEARCHING,3.014,1.000,0.00,0.00,24.32,3.178,8.475,3.365,4.868,4.576,0.700,0.008,-0.008,-0.016
2026-05-11 17:08:32.926637,SEARCHING,3.142,1.000,0.00,0.00,24.13,3.134,4.487,3.365,4.868,4.767,0.700,0.003,-0.010,-0.020
2026-05-11 17:08:33.124730,SEARCHING,3.270,1.000,0.00,0.00,23.89,3.178,8.172,3.269,4.868,4.670,0.700,0.005,-0.004,-0.008
2026-05-11 17:08:33.351199,SEARCHING,3.398,1.000,0.00,0.00,23.75,3.269,8.172,3.092,4.767,3.467,0.700,0.047,0.008,0.016
2026-05-11 17:08:33.573948,SEARCHING,3.558,1.000,0.00,0.00,23.84,3.467,7.890,3.092,4.767,5.200,0.700,-0.010,0.016,0.031
2026-05-11 17:08:33.772956,SEARCHING,3.654,1.000,0.00,0.00,24.11,3.691,8.172,3.011,4.868,5.867,0.700,-0.021,0.028,0.055
2026-05-11 17:08:33.981562,SEARCHING,3.782,1.000,0.00,0.00,24.68,3.575,8.172,3.011,4.868,4.237,0.700,0.018,0.024,0.047
2026-05-11 17:08:34.184551,SEARCHING,3.909,1.000,0.00,0.00,25.21,3.575,8.801,3.011,4.868,5.720,0.700,-0.018,0.024,0.047
2026-05-11 17:08:34.386129,SEARCHING,4.035,1.000,0.00,0.00,25.72,3.467,8.172,3.051,4.868,5.200,0.700,-0.008,0.018,0.035
2026-05-11 17:08:34.608341,SEARCHING,4.161,1.000,0.00,0.00,26.11,3.467,7.890,3.092,4.767,4.400,0.700,0.010,0.016,0.031
2026-05-11 17:08:34.817972,SEARCHING,4.286,1.000,0.00,0.00,26.44,3.316,7.890,3.092,4.868,4.974,0.700,-0.003,0.010,0.020
2026-05-11 17:08:35.035929,SEARCHING,4.412,1.000,0.00,0.00,26.68,3.316,7.381,3.092,4.868,5.448,0.700,-0.013,0.010,0.020
2026-05-11 17:08:35.245152,SEARCHING,4.537,1.000,0.00,0.00,26.91,3.415,7.627,3.134,4.868,5.448,0.700,-0.013,0.012,0.024
2026-05-11 17:08:35.455686,SEARCHING,4.661,1.000,0.00,0.00,27.18,3.316,7.381,3.134,4.868,5.720,0.700,-0.018,0.008,0.016
2026-05-11 17:08:35.655818,SEARCHING,4.786,1.000,0.00,0.00,27.38,3.134,7.151,3.316,4.868,5.200,0.700,-0.008,-0.008,-0.016
2026-05-11 17:08:35.884403,SEARCHING,4.941,1.000,0.00,0.00,27.18,3.092,7.627,3.365,4.868,5.321,0.700,-0.010,-0.012,-0.024
2026-05-11 17:08:36.075098,SEARCHING,5.035,1.000,0.00,0.00,26.92,2.972,7.627,3.751,4.868,4.767,0.700,0.003,-0.031,-0.063
2026-05-11 17:08:36.287477,SEARCHING,5.160,1.000,0.00,0.00,26.28,2.972,8.172,3.691,4.868,5.085,0.700,-0.005,-0.029,-0.059
2026-05-11 17:08:36.481133,SEARCHING,5.286,1.000,0.00,0.00,25.57,2.972,7.151,3.632,4.868,4.974,0.700,-0.003,-0.028,-0.055
2026-05-11 17:08:36.691910,SEARCHING,5.412,1.000,0.00,0.00,24.94,3.051,7.890,3.575,4.868,5.867,0.700,-0.021,-0.022,-0.043
2026-05-11 17:08:36.903958,SEARCHING,5.571,1.000,0.00,0.00,24.31,3.011,8.801,3.467,4.868,4.767,0.700,0.003,-0.020,-0.039
2026-05-11 17:08:37.118618,SEARCHING,5.667,1.000,0.00,0.00,23.98,3.051,8.475,3.415,4.767,4.767,0.700,0.000,-0.016,-0.031
2026-05-11 17:08:37.325223,SEARCHING,5.795,1.000,0.00,0.00,23.61,3.092,7.627,3.365,4.974,5.720,0.700,-0.016,-0.012,-0.024
2026-05-11 17:08:37.531186,SEARCHING,5.924,1.000,0.00,0.00,23.32,3.051,7.381,3.316,4.974,4.868,0.700,0.003,-0.012,-0.024
2026-05-11 17:08:37.731484,SEARCHING,6.052,1.000,0.00,0.00,23.05,3.092,7.381,3.365,4.868,4.400,0.700,0.013,-0.012,-0.024
2026-05-11 17:08:37.934815,SEARCHING,6.181,1.000,0.00,0.00,22.79,3.134,7.627,3.316,4.868,4.400,0.700,0.013,-0.008,-0.016
2026-05-11 17:08:38.153177,SEARCHING,6.310,1.000,0.00,0.00,22.60,3.178,7.151,3.269,4.868,4.487,0.700,0.010,-0.004,-0.008
2026-05-11 17:08:38.355937,SEARCHING,6.440,1.000,0.00,0.00,22.50,3.223,7.151,3.269,4.868,4.974,0.700,-0.003,-0.002,-0.004
2026-05-11 17:08:38.590560,SEARCHING,6.569,1.000,0.00,0.00,22.44,3.223,7.381,3.223,4.767,4.160,0.700,0.018,0.000,0.000
2026-05-11 17:08:38.789422,SEARCHING,6.699,1.000,0.00,0.00,22.42,3.269,6.934,3.269,4.767,4.767,0.700,0.000,0.000,0.000
2026-05-11 17:08:38.996338,SEARCHING,6.828,1.000,0.00,0.00,22.42,3.223,7.381,3.269,4.868,4.160,0.700,0.021,-0.002,-0.004
2026-05-11 17:08:39.186453,SEARCHING,6.957,1.000,0.00,0.00,22.38,3.269,6.934,3.269,4.868,5.581,0.700,-0.016,0.000,0.000
2026-05-11 17:08:39.387820,SEARCHING,7.087,1.000,0.00,0.00,22.40,3.223,7.627,3.269,4.868,4.400,0.700,0.013,-0.002,-0.004
2026-05-11 17:08:39.603748,SEARCHING,7.216,1.000,0.00,0.00,22.37,3.269,6.730,3.316,4.868,5.448,0.700,-0.013,-0.002,-0.004
2026-05-11 17:08:39.832285,SEARCHING,7.346,1.000,0.00,0.00,22.34,3.467,6.934,3.269,4.868,4.400,0.700,0.013,0.008,0.016
2026-05-11 17:08:40.054188,SEARCHING,7.475,1.000,0.00,0.00,22.57,4.014,7.151,3.178,4.868,4.576,0.700,0.008,0.029,0.059
2026-05-11 17:08:40.260259,SEARCHING,7.604,1.000,0.00,0.00,23.23,3.945,6.934,3.092,4.868,4.014,0.700,0.026,0.031,0.063
2026-05-11 17:08:40.509778,SEARCHING,7.765,1.000,0.00,0.00,24.08,3.878,7.627,3.092,4.868,5.321,0.700,-0.010,0.029,0.059
2026-05-11 17:08:40.694381,SEARCHING,7.860,1.000,0.00,0.00,24.58,3.878,7.627,3.092,4.868,5.321,0.700,-0.010,0.029,0.059
2026-05-11 17:08:40.886944,SEARCHING,7.987,1.000,0.00,0.00,25.26,3.575,6.730,3.051,4.868,4.767,0.700,0.003,0.022,0.043
2026-05-11 17:08:41.103189,SEARCHING,8.145,1.000,0.00,0.00,25.94,3.467,7.381,3.092,4.868,4.086,0.700,0.024,0.016,0.031
2026-05-11 17:08:41.308002,SEARCHING,8.239,1.000,0.00,0.00,26.23,3.467,7.381,3.134,4.868,5.720,0.700,-0.018,0.014,0.028
2026-05-11 17:08:41.515179,SEARCHING,8.365,1.000,0.00,0.00,26.55,3.415,7.627,3.134,4.974,5.200,0.700,-0.005,0.012,0.024
2026-05-11 17:08:41.709878,SEARCHING,8.490,1.000,0.00,0.00,26.83,3.415,7.627,3.092,4.868,5.200,0.700,-0.008,0.014,0.028
2026-05-11 17:08:41.915553,SEARCHING,8.615,1.000,0.00,0.00,27.13,3.316,7.381,3.092,4.868,4.400,0.700,0.013,0.010,0.020
2026-05-11 17:08:42.116254,SEARCHING,8.739,1.000,0.00,0.00,27.36,3.223,7.381,3.092,4.868,4.487,0.700,0.010,0.006,0.012
2026-05-11 17:08:42.323595,SEARCHING,8.863,1.000,0.00,0.00,27.49,3.134,7.381,3.223,4.868,4.767,0.700,0.003,-0.004,-0.008
2026-05-11 17:08:42.532603,SEARCHING,8.988,1.000,0.00,0.00,27.44,3.092,7.381,3.223,4.868,5.321,0.700,-0.010,-0.006,-0.012
2026-05-11 17:08:42.740443,SEARCHING,9.143,1.000,0.00,0.00,27.20,3.051,7.381,3.467,4.868,6.022,0.700,-0.024,-0.018,-0.035
2026-05-11 17:08:42.948540,SEARCHING,9.237,1.000,0.00,0.00,26.89,3.011,6.730,3.467,4.868,3.814,0.700,0.034,-0.020,-0.039
2026-05-11 17:08:43.147691,SEARCHING,9.362,1.000,0.00,0.00,26.44,3.051,7.151,3.467,4.868,5.448,0.700,-0.013,-0.018,-0.035
2026-05-11 17:08:43.340892,SEARCHING,9.487,1.000,0.00,0.00,26.04,3.051,6.730,3.415,4.868,5.720,0.700,-0.018,-0.016,-0.031
2026-05-11 17:08:43.543757,SEARCHING,9.613,1.000,0.00,0.00,25.69,3.092,6.538,3.415,4.868,5.720,0.700,-0.018,-0.014,-0.028
2026-05-11 17:08:43.780726,SEARCHING,9.739,1.000,0.00,0.00,25.38,3.178,6.538,3.316,4.974,4.317,0.700,0.018,-0.006,-0.012
2026-05-11 17:08:43.975741,SEARCHING,9.866,1.000,0.00,0.00,25.19,3.134,6.356,3.316,4.868,5.200,0.700,-0.008,-0.008,-0.016
2026-05-11 17:08:44.169765,SEARCHING,9.993,1.000,0.00,0.00,25.02,3.178,5.720,3.269,4.868,4.767,0.700,0.003,-0.004,-0.008
2026-05-11 17:08:44.371054,SEARCHING,10.120,1.000,0.00,0.00,24.93,3.269,6.022,3.223,4.868,5.085,0.700,-0.005,0.002,0.004
2026-05-11 17:08:44.590760,SEARCHING,10.247,1.000,0.00,0.00,24.96,3.316,6.184,3.178,4.974,4.767,0.700,0.005,0.006,0.012
2026-05-11 17:08:44.786960,SEARCHING,10.374,1.000,0.00,0.00,25.10,3.316,6.184,3.178,4.974,4.767,0.700,0.005,0.006,0.012
2026-05-11 17:08:45.016519,SEARCHING,10.500,1.000,0.00,0.00,25.23,3.365,5.867,3.134,4.868,4.400,0.700,0.013,0.010,0.020
2026-05-11 17:08:45.218512,SEARCHING,10.627,1.000,0.00,0.00,25.43,3.316,5.867,3.178,4.868,4.487,0.700,0.010,0.006,0.012
2026-05-11 17:08:45.861788,SEARCHING,10.753,1.000,0.00,0.00,25.58,3.365,5.867,3.178,4.868,4.487,0.700,0.010,0.008,0.016
2026-05-11 17:08:45.973236,SEARCHING,10.911,1.000,0.00,0.00,25.77,3.365,5.867,3.178,4.868,4.487,0.700,0.010,0.008,0.016
2026-05-11 17:08:46.752367,SEARCHING,11.005,1.000,0.00,0.00,25.91,3.365,5.720,3.223,4.868,4.400,0.700,0.013,0.006,0.012
2026-05-11 17:08:46.827787,SEARCHING,11.131,1.000,0.00,0.00,26.04,3.365,5.720,3.223,4.868,4.400,0.700,0.013,0.006,0.012
2026-05-11 17:08:47.022659,SEARCHING,11.257,1.000,0.00,0.00,26.18,3.269,5.581,3.223,4.868,4.317,0.700,0.016,0.002,0.004
2026-05-11 17:08:47.228162,SEARCHING,11.383,1.000,0.00,0.00,26.30,3.751,5.448,3.178,4.767,4.400,0.700,0.010,0.022,0.043
2026-05-11 17:08:47.430722,SEARCHING,11.508,1.000,0.00,0.00,26.75,3.814,5.448,3.134,4.974,4.317,0.700,0.018,0.026,0.051
2026-05-11 17:08:47.638412,SEARCHING,11.633,1.000,0.00,0.00,27.30,3.878,5.581,3.269,4.868,4.400,0.700,0.013,0.022,0.043
2026-05-11 17:08:47.842925,SEARCHING,11.757,1.000,0.00,0.00,27.82,3.878,5.720,3.178,4.868,4.237,0.700,0.018,0.026,0.051
2026-05-11 17:08:48.055713,SEARCHING,11.880,1.000,0.00,0.00,28.44,3.814,5.581,3.011,4.868,4.487,0.700,0.010,0.031,0.063
2026-05-11 17:08:48.283179,SEARCHING,12.003,1.000,0.00,0.00,29.13,3.751,5.321,3.051,4.868,4.487,0.700,0.010,0.028,0.055
2026-05-11 17:08:48.492667,SEARCHING,12.155,1.000,0.00,0.00,29.91,3.691,6.022,3.051,4.868,4.237,0.700,0.018,0.026,0.051
2026-05-11 17:08:48.698379,SEARCHING,12.246,1.000,0.00,0.00,30.33,3.632,6.184,3.092,4.767,4.487,0.700,0.008,0.022,0.043
2026-05-11 17:08:48.909134,SEARCHING,12.367,1.000,0.00,0.00,30.82,3.575,6.184,3.092,4.868,5.200,0.700,-0.008,0.020,0.039
2026-05-11 17:08:49.124452,SEARCHING,12.487,1.000,0.00,0.00,31.27,3.575,6.184,3.092,4.868,4.767,0.700,0.003,0.020,0.039
2026-05-11 17:08:49.350153,SEARCHING,12.606,1.000,0.00,0.00,31.71,3.575,6.022,3.134,4.868,4.487,0.700,0.010,0.018,0.035
2026-05-11 17:08:49.559248,SEARCHING,12.725,1.000,0.00,0.00,32.13,3.520,6.022,3.134,4.868,4.487,0.700,0.010,0.016,0.031
2026-05-11 17:08:49.765670,SEARCHING,12.843,1.000,0.00,0.00,32.51,3.520,6.022,3.134,4.868,5.720,0.700,-0.018,0.016,0.031
2026-05-11 17:08:49.989881,SEARCHING,12.961,1.000,0.00,0.00,32.87,3.520,6.022,3.092,4.868,5.321,0.700,-0.010,0.018,0.035
2026-05-11 17:08:50.186916,SEARCHING,13.079,1.000,0.00,0.00,33.23,3.467,5.867,3.092,4.767,4.767,0.700,0.000,0.016,0.031
2026-05-11 17:08:50.396120,SEARCHING,13.195,1.000,0.00,0.00,33.57,3.415,5.720,3.092,4.868,4.400,0.700,0.013,0.014,0.028
2026-05-11 17:08:50.601125,SEARCHING,13.312,1.000,0.00,0.00,33.89,3.467,5.867,3.092,4.868,4.576,0.700,0.008,0.016,0.031
2026-05-11 17:08:50.813232,SEARCHING,13.428,1.000,0.00,0.00,34.23,3.467,5.720,3.134,4.868,4.237,0.700,0.018,0.014,0.028
2026-05-11 17:08:51.033198,SEARCHING,13.544,1.000,0.00,0.00,34.54,3.467,5.867,3.134,4.576,5.720,0.700,-0.026,0.014,0.028
2026-05-11 17:08:51.240178,SEARCHING,13.659,1.000,0.00,0.00,34.85,3.415,5.867,3.134,4.868,5.581,0.700,-0.016,0.012,0.024
2026-05-11 17:08:51.439282,SEARCHING,13.773,1.000,0.00,0.00,35.14,3.415,5.448,3.092,4.868,4.576,0.700,0.008,0.014,0.028
2026-05-11 17:08:51.635594,SEARCHING,13.888,1.000,0.00,0.00,35.43,3.415,5.448,3.011,4.974,5.321,0.700,-0.008,0.018,0.035
2026-05-11 17:08:51.852542,SEARCHING,14.002,1.000,0.00,0.00,35.77,3.415,5.720,3.134,4.868,4.400,0.700,0.013,0.012,0.024
2026-05-11 17:08:52.062977,SEARCHING,14.115,1.000,0.00,0.00,36.03,3.365,6.934,3.011,4.868,6.022,0.700,-0.024,0.016,0.031
2026-05-11 17:08:52.274547,SEARCHING,14.228,1.000,0.00,0.00,36.32,3.365,7.151,3.178,4.868,5.321,0.700,-0.010,0.008,0.016
2026-05-11 17:08:52.481587,SEARCHING,14.341,1.000,0.00,0.00,36.49,3.316,6.184,3.178,4.868,4.974,0.700,-0.003,0.006,0.012
2026-05-11 17:08:52.694151,SEARCHING,14.453,1.000,0.00,0.00,36.64,3.316,5.085,3.178,4.868,4.400,0.700,0.013,0.006,0.012
2026-05-11 17:08:52.900364,SEARCHING,14.565,1.000,0.00,0.00,36.77,3.316,4.868,3.178,4.868,4.400,0.700,0.013,0.006,0.012
2026-05-11 17:08:53.106397,SEARCHING,14.677,1.000,0.00,0.00,36.91,3.316,7.151,3.223,4.868,4.767,0.700,0.003,0.004,0.008
2026-05-11 17:08:53.323793,SEARCHING,14.789,1.000,0.00,0.00,37.04,3.316,6.934,3.178,4.868,5.867,0.700,-0.021,0.006,0.012
2026-05-11 17:08:53.525526,SEARCHING,14.901,1.000,0.00,0.00,37.18,3.316,6.730,3.223,4.767,5.448,0.700,-0.016,0.004,0.008
2026-05-11 17:08:53.724028,SEARCHING,15.040,1.000,0.00,0.00,37.31,3.223,6.730,3.223,4.868,4.576,0.700,0.008,0.000,0.000
2026-05-11 17:08:53.924479,SEARCHING,15.124,1.000,0.00,0.00,37.32,3.269,6.730,3.223,4.868,3.878,0.700,0.031,0.002,0.004
2026-05-11 17:08:54.129217,SEARCHING,15.235,1.000,0.00,0.00,37.35,3.178,6.730,3.178,4.868,6.538,0.700,-0.031,0.000,0.000
2026-05-11 17:08:54.331120,SEARCHING,15.346,1.000,0.00,0.00,37.36,3.178,6.538,3.223,4.868,6.356,0.700,-0.029,-0.002,-0.004
2026-05-11 17:08:54.540056,SEARCHING,15.458,1.000,0.00,0.00,37.34,3.269,6.538,3.316,4.868,4.767,0.700,0.003,-0.002,-0.004
2026-05-11 17:08:54.745390,SEARCHING,15.569,1.000,0.00,0.00,37.29,3.223,6.356,3.269,4.868,4.160,0.700,0.021,-0.002,-0.004
2026-05-11 17:08:54.958777,SEARCHING,15.680,1.000,0.00,0.00,37.25,3.223,6.356,3.223,4.868,5.867,0.700,-0.021,0.000,0.000
2026-05-11 17:08:55.166357,SEARCHING,15.792,1.000,0.00,0.00,37.23,3.223,6.356,3.269,4.767,5.581,0.700,-0.018,-0.002,-0.004
2026-05-11 17:08:55.383043,SEARCHING,15.903,1.000,0.00,0.00,37.21,3.223,6.184,3.223,4.868,5.581,0.700,-0.016,0.000,0.000
2026-05-11 17:08:55.583439,SEARCHING,16.015,1.000,0.00,0.00,37.22,3.223,6.184,3.269,4.868,5.720,0.700,-0.018,-0.002,-0.004
2026-05-11 17:08:55.785890,SEARCHING,16.126,1.000,0.00,0.00,37.20,3.223,6.022,3.269,4.868,5.581,0.700,-0.016,-0.002,-0.004
2026-05-11 17:08:55.994676,SEARCHING,16.238,1.000,0.00,0.00,37.16,3.178,5.867,3.269,4.868,5.581,0.700,-0.016,-0.004,-0.008
2026-05-11 17:08:56.201136,SEARCHING,16.349,1.000,0.00,0.00,37.05,3.178,5.867,3.316,4.767,5.448,0.700,-0.016,-0.006,-0.012
2026-05-11 17:08:56.424325,SEARCHING,16.461,1.000,0.00,0.00,36.90,3.134,5.581,3.365,4.868,5.448,0.700,-0.013,-0.010,-0.020
2026-05-11 17:08:56.624062,SEARCHING,16.573,1.000,0.00,0.00,36.71,3.092,5.448,3.415,4.868,5.581,0.700,-0.016,-0.014,-0.028
2026-05-11 17:08:56.833917,SEARCHING,16.686,1.000,0.00,0.00,36.46,3.051,5.867,3.415,4.868,5.448,0.700,-0.013,-0.016,-0.031
2026-05-11 17:08:57.062548,SEARCHING,16.799,1.000,0.00,0.00,36.15,3.134,5.867,3.365,4.868,5.448,0.700,-0.013,-0.010,-0.020
2026-05-11 17:08:57.262022,SEARCHING,16.912,1.000,0.00,0.00,35.91,3.178,5.867,3.365,4.868,5.321,0.700,-0.010,-0.008,-0.016
2026-05-11 17:08:57.472267,SEARCHING,17.025,1.000,0.00,0.00,35.70,3.178,5.867,3.415,4.868,5.200,0.700,-0.008,-0.010,-0.020
2026-05-11 17:08:57.672733,SEARCHING,17.139,1.000,0.00,0.00,35.48,3.134,5.321,3.415,4.868,5.321,0.700,-0.010,-0.012,-0.024
2026-05-11 17:08:57.884201,SEARCHING,17.253,1.000,0.00,0.00,35.23,3.178,5.581,3.415,4.974,4.974,0.700,0.000,-0.010,-0.020
2026-05-11 17:08:58.105338,SEARCHING,17.368,1.000,0.00,0.00,34.99,3.178,5.581,3.316,4.974,5.200,0.700,-0.005,-0.006,-0.012
2026-05-11 17:08:58.316052,SEARCHING,17.483,1.000,0.00,0.00,34.78,3.134,5.321,3.316,4.974,5.085,0.700,-0.003,-0.008,-0.016
2026-05-11 17:08:58.542618,SEARCHING,17.598,1.000,0.00,0.00,34.47,3.223,5.085,3.814,4.868,4.974,0.700,-0.003,-0.022,-0.043
2026-05-11 17:08:58.745527,SEARCHING,17.714,1.000,0.00,0.00,33.94,3.223,5.085,4.237,4.868,4.868,0.700,0.000,-0.033,-0.067
2026-05-11 17:08:58.958277,SEARCHING,17.830,1.000,0.00,0.00,33.24,3.092,5.085,4.317,4.868,4.868,0.700,0.000,-0.041,-0.083
2026-05-11 17:08:59.180328,SEARCHING,17.977,1.000,0.00,0.00,32.17,3.011,5.085,4.086,4.868,4.868,0.700,0.000,-0.039,-0.079
2026-05-11 17:08:59.386396,SEARCHING,18.096,1.000,0.00,0.00,31.26,3.011,5.085,3.878,4.868,4.868,0.700,0.000,-0.033,-0.067
2026-05-11 17:08:59.589832,SEARCHING,18.186,1.000,0.00,0.00,30.67,3.051,5.085,3.945,4.868,5.085,0.700,-0.005,-0.033,-0.067
2026-05-11 17:08:59.790462,SEARCHING,18.307,1.000,0.00,0.00,29.92,3.092,5.200,4.086,4.868,4.974,0.700,-0.003,-0.035,-0.071
2026-05-11 17:09:00.013748,SEARCHING,18.429,1.000,0.00,0.00,29.13,3.092,5.321,4.160,4.868,4.974,0.700,-0.003,-0.037,-0.075
2026-05-11 17:09:00.215718,SEARCHING,18.552,1.000,0.00,0.00,28.30,3.134,5.321,4.086,4.868,4.868,0.700,0.000,-0.033,-0.067
2026-05-11 17:09:00.429653,SEARCHING,18.675,1.000,0.00,0.00,27.55,3.178,5.581,4.086,4.868,5.321,0.700,-0.010,-0.031,-0.063
2026-05-11 17:09:00.636888,SEARCHING,18.800,1.000,0.00,0.00,26.86,3.223,6.022,3.878,4.868,4.868,0.700,0.000,-0.024,-0.047
2026-05-11 17:09:00.835569,SEARCHING,18.925,1.000,0.00,0.00,26.32,3.365,6.538,3.945,4.868,5.581,0.700,-0.016,-0.020,-0.039
2026-05-11 17:09:01.046073,SEARCHING,19.051,1.000,0.00,0.00,25.83,3.178,6.538,3.878,4.868,5.581,0.700,-0.016,-0.026,-0.051
2026-05-11 17:09:01.253722,SEARCHING,19.177,1.000,0.00,0.00,25.25,3.178,6.934,3.878,4.868,5.581,0.700,-0.016,-0.026,-0.051
2026-05-11 17:09:01.454088,SEARCHING,19.304,1.000,0.00,0.00,24.65,3.051,6.934,3.751,4.767,5.448,0.700,-0.016,-0.028,-0.055
2026-05-11 17:09:01.673196,SEARCHING,19.431,1.000,0.00,0.00,24.02,3.011,6.934,3.691,4.868,6.538,0.700,-0.031,-0.028,-0.055
2026-05-11 17:09:01.885634,SEARCHING,19.560,1.000,0.00,0.00,23.41,3.051,7.151,3.632,4.868,6.934,0.700,-0.037,-0.024,-0.047
2026-05-11 17:09:02.092222,SEARCHING,19.688,1.000,0.00,0.00,22.87,3.051,6.934,3.520,4.868,6.934,0.700,-0.037,-0.020,-0.039
2026-05-11 17:09:02.284589,SEARCHING,19.817,1.000,0.00,0.00,22.40,3.051,7.151,3.467,4.974,6.934,0.700,-0.034,-0.018,-0.035
2026-05-11 17:09:02.518188,SEARCHING,19.947,1.000,0.00,0.00,22.00,3.051,7.151,3.365,4.868,7.151,0.700,-0.039,-0.014,-0.028
2026-05-11 17:09:02.710182,SEARCHING,20.077,1.000,0.00,0.00,21.68,3.051,6.184,3.365,4.868,6.022,0.700,-0.024,-0.014,-0.028
2026-05-11 17:09:02.917963,SEARCHING,20.207,1.000,0.00,0.00,21.35,3.011,6.730,3.365,4.868,5.867,0.700,-0.021,-0.016,-0.031
2026-05-11 17:09:03.124581,SEARCHING,20.338,1.000,0.00,0.00,21.01,2.972,6.356,3.316,4.868,6.184,0.700,-0.026,-0.016,-0.031
2026-05-11 17:09:03.345009,SEARCHING,20.469,1.000,0.00,0.00,20.68,3.092,6.538,3.223,4.868,6.356,0.700,-0.029,-0.006,-0.012
2026-05-11 17:09:03.543509,SEARCHING,20.600,1.000,0.00,0.00,20.49,3.134,6.356,3.269,4.868,6.184,0.700,-0.026,-0.006,-0.012
2026-05-11 17:09:03.753949,SEARCHING,20.731,1.000,0.00,0.00,20.35,3.223,6.356,3.269,4.767,5.867,0.700,-0.024,-0.002,-0.004
2026-05-11 17:09:03.981537,SEARCHING,20.895,1.000,0.00,0.00,20.33,3.223,6.022,3.269,4.767,5.867,0.700,-0.024,-0.002,-0.004
2026-05-11 17:09:04.191320,SEARCHING,20.993,1.000,0.00,0.00,20.33,3.223,6.538,3.223,4.868,6.356,0.700,-0.029,0.000,0.000
2026-05-11 17:09:04.394035,SEARCHING,21.125,1.000,0.00,0.00,20.34,3.223,6.184,3.269,4.868,6.022,0.700,-0.024,-0.002,-0.004
2026-05-11 17:09:04.597011,SEARCHING,21.256,1.000,0.00,0.00,20.31,3.223,6.730,3.269,4.868,6.184,0.700,-0.026,-0.002,-0.004
2026-05-11 17:09:04.824664,SEARCHING,21.420,1.000,0.00,0.00,20.25,3.269,7.381,3.269,4.868,6.184,0.700,-0.026,0.000,0.000
2026-05-11 17:09:05.033847,SEARCHING,21.519,1.000,0.00,0.00,20.26,3.269,7.381,3.223,4.868,6.356,0.700,-0.029,0.002,0.004
2026-05-11 17:09:05.241091,SEARCHING,21.650,1.000,0.00,0.00,20.31,3.365,7.381,3.134,4.767,7.151,0.700,-0.042,0.010,0.020
2026-05-11 17:09:05.442375,SEARCHING,21.781,1.000,0.00,0.00,20.51,3.316,7.151,3.134,4.868,7.151,0.700,-0.039,0.008,0.016
2026-05-11 17:09:05.664737,SEARCHING,21.912,1.000,0.00,0.00,20.70,3.365,6.934,3.092,4.868,6.934,0.700,-0.037,0.012,0.024
2026-05-11 17:09:05.868911,SEARCHING,22.043,1.000,0.00,0.00,20.93,3.365,6.934,3.178,4.868,6.184,0.700,-0.026,0.008,0.016
2026-05-11 17:09:06.087193,SEARCHING,22.174,1.000,0.00,0.00,21.11,3.269,6.730,3.134,4.868,6.538,0.700,-0.031,0.006,0.012
2026-05-11 17:09:06.306485,SEARCHING,22.304,1.000,0.00,0.00,21.27,3.365,6.538,3.134,4.868,5.448,0.700,-0.013,0.010,0.020
2026-05-11 17:09:06.514202,SEARCHING,22.467,1.000,0.00,0.00,21.53,3.316,6.730,3.178,4.868,6.022,0.700,-0.024,0.006,0.012
2026-05-11 17:09:06.718836,SEARCHING,22.565,1.000,0.00,0.00,21.64,3.269,6.538,3.223,4.868,5.448,0.700,-0.013,0.002,0.004
2026-05-11 17:09:06.938367,SEARCHING,22.695,1.000,0.00,0.00,21.73,3.316,6.538,3.178,4.868,6.022,0.700,-0.024,0.006,0.012
2026-05-11 17:09:07.130997,SEARCHING,22.825,1.000,0.00,0.00,21.82,3.223,6.356,3.178,4.868,5.321,0.700,-0.010,0.002,0.004
2026-05-11 17:09:07.358160,SEARCHING,22.955,1.000,0.00,0.00,21.82,3.316,6.356,3.316,4.868,5.581,0.700,-0.016,0.000,0.000
2026-05-11 17:09:07.566936,SEARCHING,23.085,1.000,0.00,0.00,21.81,3.223,6.184,3.223,4.868,5.448,0.700,-0.013,0.000,0.000
2026-05-11 17:09:07.763425,SEARCHING,23.215,1.000,0.00,0.00,21.76,3.134,6.184,3.632,4.868,5.581,0.700,-0.016,-0.020,-0.039
2026-05-11 17:09:07.988089,SEARCHING,23.345,1.000,0.00,0.00,21.27,2.972,6.184,3.814,4.868,4.767,0.700,0.003,-0.033,-0.067
2026-05-11 17:09:08.187251,SEARCHING,23.476,1.000,0.00,0.00,20.52,2.934,6.356,3.751,4.868,5.581,0.700,-0.016,-0.033,-0.067
2026-05-11 17:09:08.401269,SEARCHING,23.607,1.000,0.00,0.00,19.77,2.972,6.538,3.691,4.767,6.022,0.700,-0.026,-0.029,-0.059
2026-05-11 17:09:08.610633,SEARCHING,23.739,1.000,0.00,0.00,19.11,3.011,6.730,3.632,4.868,5.581,0.700,-0.016,-0.026,-0.051
2026-05-11 17:09:08.813496,SEARCHING,23.872,1.000,0.00,0.00,18.54,3.011,6.538,3.575,4.868,6.538,0.700,-0.031,-0.024,-0.047
2026-05-11 17:09:09.029026,SEARCHING,24.005,1.000,0.00,0.00,18.03,3.011,6.934,3.467,4.868,6.934,0.700,-0.037,-0.020,-0.039
2026-05-11 17:09:09.227889,SEARCHING,24.138,1.000,0.00,0.00,17.62,3.051,6.730,3.415,4.868,6.730,0.700,-0.034,-0.016,-0.031
2026-05-11 17:09:09.436048,SEARCHING,24.271,1.000,0.00,0.00,17.26,3.051,6.934,3.365,4.868,6.184,0.700,-0.026,-0.014,-0.028
2026-05-11 17:09:09.642806,SEARCHING,24.405,1.000,0.00,0.00,16.92,3.051,7.151,3.365,4.868,6.356,0.700,-0.029,-0.014,-0.028
2026-05-11 17:09:09.860434,SEARCHING,24.539,1.000,0.00,0.00,16.59,3.092,6.934,3.365,4.868,6.934,0.700,-0.037,-0.012,-0.024
2026-05-11 17:09:10.060154,SEARCHING,24.674,1.000,0.00,0.00,16.35,3.134,6.934,3.365,4.868,6.730,0.700,-0.034,-0.010,-0.020
2026-05-11 17:09:10.265841,SEARCHING,24.808,1.000,0.00,0.00,16.15,3.178,7.151,3.316,4.868,4.400,0.700,0.013,-0.006,-0.012
2026-05-11 17:09:10.490528,SEARCHING,24.976,1.000,0.00,0.00,15.97,3.178,7.151,3.269,4.868,6.934,0.700,-0.037,-0.004,-0.008
2026-05-11 17:09:10.686692,SEARCHING,25.077,1.000,0.00,0.00,15.89,3.178,6.934,3.269,4.767,6.730,0.700,-0.037,-0.004,-0.008
2026-05-11 17:09:10.896841,SEARCHING,25.212,1.000,0.00,0.00,15.79,3.223,6.934,3.316,4.868,6.934,0.700,-0.037,-0.004,-0.008
2026-05-11 17:09:11.111163,SEARCHING,25.347,1.000,0.00,0.00,15.70,3.223,7.151,3.316,4.868,6.356,0.700,-0.029,-0.004,-0.008
2026-05-11 17:09:11.312168,SEARCHING,25.481,1.000,0.00,0.00,15.62,3.223,6.934,3.316,4.868,6.538,0.700,-0.031,-0.004,-0.008
2026-05-11 17:09:11.512106,SEARCHING,25.616,1.000,0.00,0.00,15.55,3.223,6.730,3.269,4.868,6.934,0.700,-0.037,-0.002,-0.004
2026-05-11 17:09:11.725756,SEARCHING,25.751,1.000,0.00,0.00,15.52,3.223,6.730,3.269,4.767,6.356,0.700,-0.031,-0.002,-0.004
2026-05-11 17:09:11.926918,SEARCHING,25.886,1.000,0.00,0.00,15.48,3.223,6.538,3.269,4.868,6.538,0.700,-0.031,-0.002,-0.004
2026-05-11 17:09:12.132763,SEARCHING,26.021,1.000,0.00,0.00,15.43,3.223,6.538,3.316,4.868,6.184,0.700,-0.026,-0.004,-0.008
2026-05-11 17:09:12.345832,SEARCHING,26.156,1.000,0.00,0.00,15.36,3.223,6.538,3.269,4.868,5.581,0.700,-0.016,-0.002,-0.004
2026-05-11 17:09:12.555345,SEARCHING,26.291,1.000,0.00,0.00,15.31,3.178,6.356,3.269,4.868,6.022,0.700,-0.024,-0.004,-0.008
2026-05-11 17:09:12.764894,SEARCHING,26.460,1.000,0.00,0.00,15.18,3.223,6.356,3.269,4.868,5.581,0.700,-0.016,-0.002,-0.004
2026-05-11 17:09:12.957937,SEARCHING,26.561,1.000,0.00,0.00,15.13,3.223,6.356,3.223,4.868,5.720,0.700,-0.018,0.000,0.000
2026-05-11 17:09:13.160076,SEARCHING,26.696,1.000,0.00,0.00,15.13,3.269,6.356,3.223,4.868,5.581,0.700,-0.016,0.002,0.004
2026-05-11 17:09:13.377615,SEARCHING,26.831,1.000,0.00,0.00,15.15,3.223,6.356,3.316,4.868,5.448,0.700,-0.013,-0.004,-0.008
2026-05-11 17:09:13.591832,SEARCHING,26.967,1.000,0.00,0.00,15.09,3.178,6.356,3.316,4.868,5.581,0.700,-0.016,-0.006,-0.012
2026-05-11 17:09:13.798801,SEARCHING,27.102,1.000,0.00,0.00,14.98,3.178,6.356,3.365,4.868,5.448,0.700,-0.013,-0.008,-0.016
2026-05-11 17:09:14.003988,SEARCHING,27.237,1.000,0.00,0.00,14.82,3.178,6.356,3.365,4.868,5.581,0.700,-0.016,-0.008,-0.016
2026-05-11 17:09:14.210243,SEARCHING,27.372,1.000,0.00,0.00,14.64,3.178,6.356,3.415,4.868,5.321,0.700,-0.010,-0.010,-0.020
2026-05-11 17:09:14.416088,SEARCHING,27.508,1.000,0.00,0.00,14.38,3.051,6.184,3.520,4.868,4.237,0.700,0.018,-0.020,-0.039
2026-05-11 17:09:14.628579,SEARCHING,27.644,1.000,0.00,0.00,13.98,3.051,6.356,3.520,4.868,4.767,0.700,0.003,-0.020,-0.039
2026-05-11 17:09:14.825469,SEARCHING,27.780,1.000,0.00,0.00,13.55,3.092,6.538,3.467,4.868,5.448,0.700,-0.013,-0.016,-0.031
2026-05-11 17:09:15.025559,SEARCHING,27.916,1.000,0.00,0.00,13.18,3.092,6.730,3.467,4.868,6.022,0.700,-0.024,-0.016,-0.031
2026-05-11 17:09:15.249784,SEARCHING,28.052,1.000,0.00,0.00,12.80,3.092,6.730,3.415,4.868,4.400,0.700,0.013,-0.014,-0.028
2026-05-11 17:09:15.468357,SEARCHING,28.189,1.000,0.00,0.00,12.48,3.092,6.730,3.415,4.868,6.184,0.700,-0.026,-0.014,-0.028
2026-05-11 17:09:15.658188,SEARCHING,28.326,1.000,0.00,0.00,12.19,3.178,6.730,3.415,4.868,6.184,0.700,-0.026,-0.010,-0.020
2026-05-11 17:09:15.870290,SEARCHING,28.497,1.000,0.00,0.00,11.88,3.178,6.730,3.415,4.868,5.720,0.700,-0.018,-0.010,-0.020
2026-05-11 17:09:16.081835,SEARCHING,28.600,1.000,0.00,0.00,11.70,3.178,6.730,3.467,4.767,6.022,0.700,-0.026,-0.012,-0.024
2026-05-11 17:09:16.274765,SEARCHING,28.737,1.000,0.00,0.00,11.42,3.134,6.730,3.520,4.767,6.356,0.700,-0.031,-0.016,-0.031
2026-05-11 17:09:16.500033,SEARCHING,28.908,1.000,0.00,0.00,10.98,3.178,6.538,3.520,4.868,6.022,0.700,-0.024,-0.014,-0.028
2026-05-11 17:09:17.161857,SEARCHING,29.046,1.000,0.00,0.00,10.64,3.092,6.538,3.520,4.868,6.022,0.700,-0.024,-0.018,-0.035
2026-05-11 17:09:17.258123,SEARCHING,29.149,1.000,0.00,0.00,10.33,3.092,6.538,3.520,4.868,6.022,0.700,-0.024,-0.018,-0.035
2026-05-11 17:09:18.166142,SEARCHING,29.287,1.000,0.00,0.00,9.93,3.051,6.184,3.467,4.868,6.184,0.700,-0.026,-0.018,-0.035
2026-05-11 17:09:18.381120,SEARCHING,29.425,1.000,0.00,0.00,9.54,3.134,6.022,3.467,4.868,5.720,0.700,-0.018,-0.014,-0.028
2026-05-11 17:09:18.580982,SEARCHING,29.563,1.000,0.00,0.00,9.24,3.092,5.867,3.415,4.868,5.581,0.700,-0.016,-0.014,-0.028
2026-05-11 17:09:18.787415,SEARCHING,29.701,1.000,0.00,0.00,8.95,3.178,5.720,3.316,4.868,5.720,0.700,-0.018,-0.006,-0.012
2026-05-11 17:09:18.995104,SEARCHING,29.874,1.000,0.00,0.00,8.72,3.178,5.581,3.365,4.868,5.448,0.700,-0.013,-0.008,-0.016
2026-05-11 17:09:19.215512,SEARCHING,29.978,1.000,0.00,0.00,8.59,3.134,5.321,3.269,4.974,5.321,0.700,-0.008,-0.006,-0.012
2026-05-11 17:09:19.426443,SEARCHING,30.116,1.000,0.00,0.00,8.43,3.134,5.321,3.269,4.974,4.767,0.700,0.005,-0.006,-0.012
2026-05-11 17:09:19.632857,SEARCHING,30.255,1.000,0.00,0.00,8.28,3.134,5.200,3.269,4.974,4.576,0.700,0.010,-0.006,-0.012
2026-05-11 17:09:19.852411,SEARCHING,30.393,1.000,0.00,0.00,8.16,3.178,5.085,3.269,4.868,4.670,0.700,0.005,-0.004,-0.008
2026-05-11 17:09:20.044489,SEARCHING,30.532,1.000,0.00,0.00,8.08,3.223,4.868,3.269,4.868,4.670,0.700,0.005,-0.002,-0.004
2026-05-11 17:09:20.251067,SEARCHING,30.671,1.000,0.00,0.00,8.03,3.269,4.868,3.223,4.767,4.487,0.700,0.008,0.002,0.004
2026-05-11 17:09:20.463090,SEARCHING,30.809,1.000,0.00,0.00,8.05,3.223,4.670,3.223,4.670,4.487,0.700,0.005,0.000,0.000
2026-05-11 17:09:20.660100,SEARCHING,30.948,1.000,0.00,0.00,8.06,3.269,4.670,3.269,4.670,4.487,0.700,0.005,0.000,0.000
2026-05-11 17:09:20.879173,SEARCHING,31.087,1.000,0.00,0.00,8.05,3.223,4.487,3.269,4.400,4.086,0.700,0.010,-0.002,-0.004
2026-05-11 17:09:21.086126,SEARCHING,31.225,1.000,0.00,0.00,8.00,3.223,4.317,3.269,4.317,4.160,0.700,0.005,-0.002,-0.004
2026-05-11 17:09:21.282267,SEARCHING,31.364,1.000,0.00,0.00,7.95,3.223,4.160,3.316,4.160,4.014,0.700,0.005,-0.004,-0.008
2026-05-11 17:09:21.506247,SEARCHING,31.537,1.000,0.00,0.00,7.88,3.223,4.086,3.269,4.086,3.691,0.700,0.016,-0.002,-0.004
2026-05-11 17:09:21.718113,SEARCHING,31.641,1.000,0.00,0.00,7.84,3.223,3.945,3.269,3.945,3.814,0.700,0.005,-0.002,-0.004
2026-05-11 17:09:21.922878,SEARCHING,31.780,1.000,0.00,0.00,7.79,3.223,3.751,3.269,3.691,3.467,0.700,0.010,-0.002,-0.004
2026-05-11 17:09:22.136787,SEARCHING,31.919,1.000,0.00,0.00,7.74,3.269,3.632,3.316,3.575,3.467,0.700,0.005,-0.002,-0.004
2026-05-11 17:09:22.350629,SEARCHING,32.092,1.000,0.00,0.00,7.70,3.223,3.520,3.269,3.467,3.415,0.700,0.003,-0.002,-0.004
2026-05-11 17:09:22.548311,SEARCHING,32.196,1.000,0.00,0.00,7.70,3.223,3.415,3.223,3.415,3.316,0.700,0.005,0.000,0.000
2026-05-11 17:09:22.761246,SEARCHING,32.335,1.000,0.00,0.00,7.72,3.178,3.269,3.178,3.269,3.223,0.700,0.003,0.000,0.000
2026-05-11 17:09:22.966528,SEARCHING,32.508,1.000,0.00,0.00,7.73,3.092,3.134,3.092,3.134,3.092,0.700,0.003,0.000,0.000
2026-05-11 17:09:23.174394,SEARCHING,32.612,1.000,0.00,0.00,7.74,2.972,2.972,2.934,3.011,2.934,0.700,0.005,0.002,0.004
2026-05-11 17:09:23.391531,SEARCHING,32.751,1.000,0.00,0.00,7.79,2.825,2.825,2.790,2.825,2.825,0.700,0.000,0.002,0.004
2026-05-11 17:09:23.599236,SEARCHING,32.890,1.000,0.00,0.00,7.85,2.724,2.692,2.692,2.724,2.692,0.700,0.003,0.002,0.004
2026-05-11 17:09:23.805793,SEARCHING,33.028,1.000,0.00,0.00,7.91,2.600,2.571,2.542,2.600,2.571,0.700,0.003,0.004,0.008
2026-05-11 17:09:24.018077,SEARCHING,33.167,1.000,0.00,0.00,7.99,2.409,2.409,2.384,2.384,2.384,0.700,0.000,0.002,0.004
2026-05-11 17:09:24.227543,SEARCHING,33.306,1.000,0.00,0.00,8.03,2.335,2.335,2.311,2.335,2.335,0.700,0.000,0.002,0.004
2026-05-11 17:09:24.430494,SEARCHING,33.479,1.000,0.00,0.00,8.09,2.179,2.159,2.138,2.159,2.159,0.700,0.000,0.004,0.008
2026-05-11 17:09:24.642988,SEARCHING,33.583,1.000,0.00,0.00,8.15,2.043,2.043,2.025,2.043,2.043,0.700,0.000,0.002,0.004
2026-05-11 17:09:24.845827,SEARCHING,33.721,1.000,0.00,0.00,8.21,1.939,1.923,1.907,1.923,1.923,0.673,0.000,0.004,0.008
2026-05-11 17:09:25.058039,SEARCHING,33.855,1.000,0.00,0.00,8.27,1.774,1.760,1.733,1.760,1.760,0.616,0.000,0.006,0.012
2026-05-11 17:09:25.279192,SEARCHING,33.978,1.000,0.00,0.00,8.38,1.670,1.658,1.646,1.658,1.658,0.580,0.000,0.004,0.008
2026-05-11 17:09:25.484388,SEARCHING,34.092,1.000,0.00,0.00,8.47,1.525,1.505,1.496,1.505,1.505,0.527,0.000,0.006,0.012
2026-05-11 17:09:25.685201,SEARCHING,34.197,1.000,0.00,0.00,8.59,1.439,1.430,1.412,1.421,1.421,0.501,0.000,0.006,0.012
2026-05-11 17:09:25.906294,SEARCHING,34.296,1.000,0.00,0.00,8.74,1.338,1.330,1.308,1.323,1.323,0.466,0.000,0.008,0.016
2026-05-11 17:09:26.112179,SEARCHING,34.388,1.000,0.00,0.00,8.92,1.264,1.250,1.230,1.250,1.250,0.438,0.000,0.010,0.020
2026-05-11 17:09:26.326106,SEARCHING,34.473,1.000,0.00,0.00,9.12,1.179,1.167,1.150,1.167,1.167,0.409,0.000,0.010,0.020
2026-05-11 17:09:26.536755,SEARCHING,34.554,1.000,0.00,0.00,9.34,1.069,1.050,1.035,1.050,1.050,0.367,0.000,0.014,0.028
2026-05-11 17:09:26.779072,INSPECTING,34.627,1.000,0.00,0.00,9.61,0.999,0.982,0.965,0.982,0.982,0.000,0.000,0.000,0.000
2026-05-11 17:09:27.024394,INSPECTING,34.676,1.000,0.00,0.00,12.17,0.938,0.919,0.901,0.919,0.919,0.350,0.550,0.552,0.850
2026-05-11 17:09:27.220335,INSPECTING,34.743,1.000,0.00,0.00,21.91,0.926,0.883,0.847,0.883,0.887,0.350,-0.550,0.552,0.850
2026-05-11 17:09:27.413542,INSPECTING,34.806,1.000,0.00,0.00,31.65,0.938,0.820,0.731,0.820,0.820,0.350,0.550,0.552,0.850
2026-05-11 17:09:27.625766,INSPECTING,34.863,1.000,0.00,0.00,41.39,0.999,0.809,0.683,0.811,0.811,0.350,0.550,0.552,0.850
2026-05-11 17:09:27.838523,INSPECTING,34.911,1.000,0.00,0.00,51.13,1.105,0.826,0.663,0.826,0.832,0.350,-0.550,0.552,0.850
2026-05-11 17:09:28.150225,INSPECTING,34.951,1.000,0.00,0.00,60.87,1.300,0.894,0.669,0.890,0.887,0.350,0.550,-0.552,-0.850
2026-05-11 17:09:28.445255,INSPECTING,34.968,1.000,0.00,0.00,58.92,1.250,0.946,0.687,0.949,0.957,0.350,0.550,-0.552,-0.850
2026-05-11 17:09:28.615204,INSPECTING,34.987,1.000,0.00,0.00,54.05,1.167,0.803,0.607,0.803,0.803,0.350,0.550,-0.552,-0.850
2026-05-11 17:09:28.936941,INSPECTING,35.045,1.000,0.00,0.00,41.87,0.545,0.468,0.411,0.469,0.470,0.000,0.000,0.000,0.000
2026-05-11 17:09:29.246838,TURNING,35.115,1.000,0.00,0.00,29.70,0.450,0.406,0.368,0.404,0.406,0.000,0.000,0.000,-0.800
2026-05-11 17:09:29.462969,TURNING,35.149,1.000,0.00,0.00,24.34,0.433,0.398,0.369,0.399,0.399,0.000,0.000,0.000,-0.800
2026-05-11 17:09:29.682955,TURNING,35.149,1.000,0.00,0.00,18.38,0.402,0.391,0.381,0.391,0.392,0.000,0.000,0.000,-0.800
2026-05-11 17:09:29.887678,TURNING,35.149,1.000,0.00,0.00,4.63,0.371,0.386,0.401,0.385,0.386,0.000,0.000,0.000,-0.800
2026-05-11 17:09:30.071025,TURNING,35.149,1.000,0.00,0.00,-9.12,0.357,0.385,0.416,0.385,0.384,0.000,0.000,0.000,-0.800
2026-05-11 17:09:30.271377,TURNING,35.149,1.000,0.00,0.00,-18.29,0.349,0.393,0.450,0.392,0.392,0.000,0.000,0.000,-0.800
2026-05-11 17:09:30.462852,TURNING,35.149,1.000,0.00,0.00,-27.45,0.350,0.412,0.508,0.413,0.412,0.000,0.000,0.000,-0.800
2026-05-11 17:09:30.680272,TURNING,35.149,1.000,0.00,0.00,-36.62,0.366,0.455,0.605,0.453,0.455,0.000,0.000,0.000,-0.800
2026-05-11 17:09:30.886848,TURNING,35.149,1.000,0.00,0.00,-45.79,0.388,0.510,0.745,0.508,0.506,0.000,0.000,0.000,-0.800
2026-05-11 17:09:31.078765,TURNING,35.149,1.000,0.00,0.00,-54.96,0.388,0.510,0.745,0.508,0.506,0.000,0.000,0.000,-0.800
2026-05-11 17:09:31.297556,TURNING,35.149,1.000,0.00,0.00,-64.12,0.472,0.720,1.439,0.720,0.717,0.000,0.000,0.000,-0.800
2026-05-11 17:09:31.522316,TURNING,35.149,1.000,0.00,0.00,-73.29,0.591,1.050,1.708,1.050,1.045,0.000,0.000,0.000,-0.800
2026-05-11 17:09:31.699470,TURNING,35.149,1.000,0.00,0.00,-82.46,0.768,1.733,1.774,1.747,1.720,0.000,0.000,0.000,-0.800
2026-05-11 17:09:31.892932,TURNING,35.149,1.000,0.00,0.00,-91.63,1.167,1.816,1.891,1.831,1.816,0.000,0.000,0.000,-0.800
2026-05-11 17:09:32.152236,TURNING,35.149,1.000,0.00,0.00,-103.08,1.682,1.831,2.007,1.831,1.816,0.000,0.000,0.000,-0.739
2026-05-11 17:09:32.312653,TURNING,35.149,1.000,0.00,0.00,-109.65,1.646,1.891,2.200,1.891,1.891,0.000,0.000,0.000,-0.625
2026-05-11 17:09:32.532896,TURNING,35.149,1.000,0.00,0.00,-118.67,1.670,1.956,2.384,1.939,1.956,0.000,0.000,0.000,-0.467
2026-05-11 17:09:32.742530,TURNING,35.149,1.000,0.00,0.00,-122.87,1.682,2.061,2.692,2.061,2.061,0.000,0.000,0.000,-0.394
2026-05-11 17:09:32.988210,TURNING,35.149,1.000,0.00,0.00,-127.50,1.720,2.179,2.972,2.200,2.200,0.000,0.000,0.000,-0.313
2026-05-11 17:09:33.189307,TURNING,35.149,1.000,0.00,0.00,-131.24,1.760,2.311,3.316,2.311,2.288,0.000,0.000,0.000,-0.300
2026-05-11 17:09:33.426616,TURNING,35.149,1.000,0.00,0.00,-134.67,1.802,2.384,3.520,2.384,2.409,0.000,0.000,0.000,-0.300
2026-05-11 17:09:33.637732,TURNING,35.149,1.000,0.00,0.00,-138.97,1.860,2.600,3.814,2.571,2.542,0.000,0.000,0.000,-0.300
2026-05-11 17:09:33.840336,RETURNING,35.149,1.000,0.00,0.00,-141.55,1.923,2.790,4.487,2.790,2.790,0.500,0.000,0.000,-0.238
2026-05-11 17:09:34.027381,RETURNING,35.097,1.000,0.00,0.00,-144.15,1.990,2.896,4.974,2.896,2.724,0.500,0.011,0.000,-0.241
2026-05-11 17:09:34.237422,RETURNING,35.015,1.000,0.00,0.00,-146.88,2.007,2.972,5.581,2.972,2.896,0.500,0.004,0.000,-0.255
2026-05-11 17:09:34.444627,RETURNING,34.930,1.000,0.00,0.00,-149.73,2.043,3.134,7.381,3.134,2.896,0.500,0.013,0.000,-0.283
2026-05-11 17:09:34.656032,RETURNING,34.843,1.000,0.00,0.00,-152.80,2.099,3.223,8.475,3.223,2.972,0.500,0.013,0.000,-0.287
2026-05-11 17:09:34.839294,RETURNING,34.753,1.000,0.00,0.00,-156.05,2.159,3.365,7.151,3.316,2.571,0.500,0.044,0.000,-0.259
2026-05-11 17:09:35.052530,RETURNING,34.660,1.000,0.00,0.00,-159.05,2.266,3.691,6.538,3.751,3.365,0.500,0.015,0.000,-0.231
2026-05-11 17:09:35.267734,RETURNING,34.566,1.000,0.00,0.00,-161.82,2.359,4.160,5.321,4.160,3.178,0.500,0.037,0.000,-0.189
2026-05-11 17:09:35.481385,RETURNING,34.471,1.000,0.00,0.00,-164.02,2.434,4.400,4.868,4.487,3.691,0.500,0.024,0.000,-0.164
2026-05-11 17:09:35.658977,RETURNING,34.374,1.000,0.00,0.00,-165.99,2.514,5.581,4.576,4.868,4.086,0.500,0.020,0.000,-0.143
2026-05-11 17:09:35.888064,RETURNING,34.277,1.000,0.00,0.00,-167.69,2.542,6.538,4.317,4.868,4.237,0.500,0.015,0.000,-0.129
2026-05-11 17:09:36.084188,RETURNING,34.179,1.000,0.00,0.00,-169.17,2.571,7.151,4.237,4.868,4.576,0.500,0.007,0.000,-0.122
2026-05-11 17:09:36.287096,RETURNING,34.080,1.000,0.00,0.00,-170.57,2.571,7.151,4.237,4.868,4.576,0.500,0.007,0.000,-0.122
2026-05-11 17:09:36.505205,RETURNING,33.982,1.000,0.00,0.00,-171.97,2.860,7.627,3.691,4.868,4.767,0.500,0.002,0.000,-0.063
2026-05-11 17:09:36.752602,RETURNING,33.858,1.000,0.00,0.00,-173.12,3.051,7.627,3.467,4.868,6.184,0.500,-0.022,0.000,-0.031
2026-05-11 17:09:36.936540,RETURNING,33.783,1.000,0.00,0.00,-173.45,2.972,7.381,3.415,4.868,6.022,0.500,-0.020,0.000,-0.035
2026-05-11 17:09:37.154581,RETURNING,33.684,1.000,0.00,0.00,-173.85,3.011,6.934,3.316,4.868,5.867,0.500,-0.017,0.000,-0.024
2026-05-11 17:09:37.351978,RETURNING,33.584,1.000,0.00,0.00,-174.08,3.092,6.934,3.316,4.868,6.022,0.500,-0.020,0.000,-0.017
2026-05-11 17:09:37.556708,RETURNING,33.485,1.000,0.00,0.00,-174.28,3.178,6.538,3.269,4.868,5.720,0.500,-0.015,0.000,-0.007
2026-05-11 17:09:37.776937,RETURNING,33.385,1.000,0.00,0.00,-174.41,3.223,6.538,3.269,4.868,4.868,0.500,0.000,0.000,-0.003
2026-05-11 17:09:37.989410,RETURNING,33.261,1.000,0.00,0.00,-174.47,3.269,6.356,3.316,4.974,5.867,0.500,-0.015,0.000,-0.003
2026-05-11 17:09:38.214029,RETURNING,33.186,1.000,0.00,0.00,-174.49,3.316,6.538,3.269,4.868,5.720,0.500,-0.015,0.000,0.003
2026-05-11 17:09:38.405943,RETURNING,33.087,1.000,0.00,0.00,-174.47,3.365,6.538,3.223,4.868,5.720,0.500,-0.015,0.000,0.010
2026-05-11 17:09:38.603009,RETURNING,32.962,1.000,0.00,0.00,-174.32,3.365,6.538,3.223,4.868,5.581,0.500,-0.013,0.000,0.010
2026-05-11 17:09:38.808404,RETURNING,32.888,1.000,0.00,0.00,-174.22,3.415,6.538,3.223,4.868,5.720,0.500,-0.015,0.000,0.014
2026-05-11 17:09:39.045313,RETURNING,32.788,1.000,0.00,0.00,-174.04,3.415,6.730,3.178,4.868,5.448,0.500,-0.011,0.000,0.017
2026-05-11 17:09:39.240788,RETURNING,32.664,1.000,0.00,0.00,-173.79,3.467,6.730,3.223,4.868,5.448,0.500,-0.011,0.000,0.017
2026-05-11 17:09:39.434273,RETURNING,32.589,1.000,0.00,0.00,-173.64,3.467,6.730,3.178,4.868,5.720,0.500,-0.015,0.000,0.021
2026-05-11 17:09:39.674604,RETURNING,32.490,1.000,0.00,0.00,-173.40,3.415,6.730,3.092,4.868,5.867,0.500,-0.017,0.000,0.024
2026-05-11 17:09:39.853899,RETURNING,32.391,1.000,0.00,0.00,-173.15,3.365,6.934,3.134,4.868,5.720,0.500,-0.015,0.000,0.017
2026-05-11 17:09:40.090921,RETURNING,32.291,1.000,0.00,0.00,-172.93,3.365,6.730,3.178,4.868,5.867,0.500,-0.017,0.000,0.014
2026-05-11 17:09:40.264323,RETURNING,32.192,1.000,0.00,0.00,-172.77,3.415,6.934,3.178,4.767,6.022,0.500,-0.022,0.000,0.017
2026-05-11 17:09:40.471242,RETURNING,32.093,1.000,0.00,0.00,-172.57,3.415,6.934,3.134,4.868,5.720,0.500,-0.015,0.000,0.021
2026-05-11 17:09:40.681440,RETURNING,31.994,1.000,0.00,0.00,-172.33,3.415,6.934,3.134,4.868,5.581,0.500,-0.013,0.000,0.021
2026-05-11 17:09:40.923995,RETURNING,31.895,1.000,0.00,0.00,-172.09,3.365,7.151,3.178,4.868,5.720,0.500,-0.015,0.000,0.014
2026-05-11 17:09:41.135863,RETURNING,31.796,1.000,0.00,0.00,-171.90,3.365,6.934,3.223,4.868,5.720,0.500,-0.015,0.000,0.010
2026-05-11 17:09:41.308467,RETURNING,31.697,1.000,0.00,0.00,-171.71,3.365,7.151,3.223,4.868,6.022,0.500,-0.020,0.000,0.010
2026-05-11 17:09:41.515479,RETURNING,31.598,1.000,0.00,0.00,-171.56,3.365,6.934,3.134,4.868,5.867,0.500,-0.017,0.000,0.017
2026-05-11 17:09:41.707303,RETURNING,31.499,1.000,0.00,0.00,-171.35,3.365,6.934,3.134,4.868,5.867,0.500,-0.017,0.000,0.017
2026-05-11 17:09:41.955857,RETURNING,31.400,1.000,0.00,0.00,-171.15,3.316,7.151,3.178,4.868,6.356,0.500,-0.024,0.000,0.010
2026-05-11 17:09:42.154172,RETURNING,31.277,1.000,0.00,0.00,-170.93,3.365,6.934,3.223,4.868,5.867,0.500,-0.017,0.000,0.010
2026-05-11 17:09:42.368810,RETURNING,31.203,1.000,0.00,0.00,-170.82,3.415,6.934,3.134,4.868,6.356,0.500,-0.024,0.000,0.021
2026-05-11 17:09:42.570426,RETURNING,31.079,1.000,0.00,0.00,-170.57,3.415,6.730,3.134,4.868,6.184,0.500,-0.022,0.000,0.021
2026-05-11 17:09:42.777991,RETURNING,31.005,1.000,0.00,0.00,-170.39,3.365,6.730,3.134,4.868,6.022,0.500,-0.020,0.000,0.017
2026-05-11 17:09:42.979608,RETURNING,30.907,1.000,0.00,0.00,-170.18,3.365,6.538,3.178,4.868,6.022,0.500,-0.020,0.000,0.014
2026-05-11 17:09:43.215908,RETURNING,30.808,1.000,0.00,0.00,-170.02,3.365,6.730,3.178,4.868,6.184,0.500,-0.022,0.000,0.014
2026-05-11 17:09:43.433028,RETURNING,30.710,1.000,0.00,0.00,-169.86,3.316,6.538,3.178,4.974,6.022,0.500,-0.017,0.000,0.010
2026-05-11 17:09:43.595712,RETURNING,30.611,1.000,0.00,0.00,-169.71,3.316,6.730,3.134,4.868,6.022,0.500,-0.020,0.000,0.014
2026-05-11 17:09:43.808600,RETURNING,30.513,1.000,0.00,0.00,-169.55,3.316,7.151,3.092,4.868,6.022,0.500,-0.020,0.000,0.017
2026-05-11 17:09:44.011816,RETURNING,30.415,1.000,0.00,0.00,-169.37,3.316,7.151,3.223,4.868,5.448,0.500,-0.011,0.000,0.007
2026-05-11 17:09:44.216951,RETURNING,30.316,1.000,0.00,0.00,-169.23,3.316,7.151,3.178,4.868,4.868,0.500,0.000,0.000,0.010
2026-05-11 17:09:44.421840,RETURNING,30.218,1.000,0.00,0.00,-169.11,3.269,6.934,3.223,4.868,5.448,0.500,-0.011,0.000,0.003
2026-05-11 17:09:44.619780,RETURNING,30.120,1.000,0.00,0.00,-169.04,3.269,6.934,3.223,4.868,4.767,0.500,0.002,0.000,0.003
2026-05-11 17:09:44.831140,RETURNING,30.022,1.000,0.00,0.00,-168.98,3.316,6.934,3.223,4.868,5.867,0.500,-0.017,0.000,0.007
2026-05-11 17:09:45.048998,RETURNING,29.924,1.000,0.00,0.00,-168.92,3.223,6.730,3.269,4.868,4.767,0.500,0.002,0.000,-0.003
2026-05-11 17:09:45.228457,RETURNING,29.826,1.000,0.00,0.00,-168.89,3.269,6.730,3.223,4.868,5.581,0.500,-0.013,0.000,0.003
2026-05-11 17:09:45.456981,RETURNING,29.727,1.000,0.00,0.00,-168.89,3.223,6.730,3.223,4.868,5.448,0.500,-0.011,0.000,0.000
2026-05-11 17:09:45.656050,RETURNING,29.629,1.000,0.00,0.00,-168.89,3.223,6.730,3.223,4.868,5.867,0.500,-0.017,0.000,0.000
2026-05-11 17:09:45.876749,RETURNING,29.531,1.000,0.00,0.00,-168.88,3.092,6.730,3.223,4.868,5.867,0.500,-0.017,0.000,-0.010
2026-05-11 17:09:46.084349,RETURNING,29.433,1.000,0.00,0.00,-168.95,3.011,6.538,3.269,4.868,5.200,0.500,-0.007,0.000,-0.021
2026-05-11 17:09:46.287299,RETURNING,29.335,1.000,0.00,0.00,-169.12,3.011,6.538,3.269,4.868,5.200,0.500,-0.007,0.000,-0.021
2026-05-11 17:09:46.485281,RETURNING,29.237,1.000,0.00,0.00,-169.36,2.972,6.356,3.223,4.868,5.581,0.500,-0.013,0.000,-0.021
2026-05-11 17:09:46.690581,RETURNING,29.138,1.000,0.00,0.00,-169.57,3.051,6.356,3.269,4.868,4.237,0.500,0.015,0.000,-0.017
2026-05-11 17:09:46.912011,RETURNING,29.040,1.000,0.00,0.00,-169.76,3.092,6.356,3.223,4.974,4.487,0.500,0.011,0.000,-0.010
2026-05-11 17:09:47.139127,RETURNING,28.942,1.000,0.00,0.00,-169.88,3.223,6.184,3.223,4.868,5.085,0.500,-0.004,0.000,0.000
2026-05-11 17:09:47.324500,RETURNING,28.843,1.000,0.00,0.00,-169.91,3.316,6.184,3.178,4.868,4.237,0.500,0.015,0.000,0.010
2026-05-11 17:09:47.518292,RETURNING,28.745,1.000,0.00,0.00,-169.82,3.520,6.022,3.269,4.868,4.400,0.500,0.011,0.000,0.017
2026-05-11 17:09:47.744848,RETURNING,28.646,1.000,0.00,0.00,-169.64,3.632,6.022,3.269,4.868,4.487,0.500,0.009,0.000,0.024
2026-05-11 17:09:48.507580,RETURNING,28.548,1.000,0.00,0.00,-169.37,3.632,6.184,3.223,4.868,4.487,0.500,0.009,0.000,0.028
2026-05-11 17:09:48.604057,RETURNING,28.499,1.000,0.00,0.00,-169.23,3.632,6.184,3.223,4.868,4.487,0.500,0.009,0.000,0.028
2026-05-11 17:09:49.403404,RETURNING,28.425,1.000,0.00,0.00,-169.02,3.632,6.184,3.223,4.868,4.487,0.500,0.009,0.000,0.028
2026-05-11 17:09:49.473925,RETURNING,28.376,1.000,0.00,0.00,-168.88,3.632,6.184,3.223,4.868,4.160,0.500,0.017,0.000,0.028
2026-05-11 17:09:49.658679,RETURNING,28.082,1.000,0.00,0.00,-167.91,3.632,6.934,3.134,4.868,4.767,0.500,0.002,0.000,0.035
2026-05-11 17:09:49.870022,RETURNING,28.009,1.000,0.00,0.00,-167.63,3.575,6.934,3.134,4.868,4.974,0.500,-0.002,0.000,0.031
2026-05-11 17:09:50.065140,RETURNING,27.911,1.000,0.00,0.00,-167.24,3.632,7.151,3.178,4.767,5.720,0.500,-0.017,0.000,0.031
2026-05-11 17:09:50.291330,RETURNING,27.789,1.000,0.00,0.00,-166.78,3.575,7.381,3.134,4.868,4.576,0.500,0.007,0.000,0.031
2026-05-11 17:09:50.485319,RETURNING,27.716,1.000,0.00,0.00,-166.53,3.520,7.381,3.134,4.868,2.724,0.500,0.081,0.000,0.028
2026-05-11 17:09:50.703771,RETURNING,27.619,1.000,0.00,0.00,-166.21,3.467,7.381,3.134,4.868,6.356,0.500,-0.024,0.000,0.024
2026-05-11 17:09:50.914537,RETURNING,27.522,1.000,0.00,0.00,-165.90,3.467,7.627,3.092,4.868,5.200,0.500,-0.007,0.000,0.028
2026-05-11 17:09:51.125536,RETURNING,27.425,1.000,0.00,0.00,-165.58,3.467,7.627,3.051,4.868,6.184,0.500,-0.022,0.000,0.031
2026-05-11 17:09:51.320994,RETURNING,27.328,1.000,0.00,0.00,-165.22,3.467,7.627,3.134,4.868,5.867,0.500,-0.017,0.000,0.024
2026-05-11 17:09:51.546644,RETURNING,27.232,1.000,0.00,0.00,-164.95,3.415,7.890,3.134,4.868,2.311,0.500,0.114,0.000,0.021
2026-05-11 17:09:51.751818,RETURNING,27.135,1.000,0.00,0.00,-164.70,3.415,7.890,3.134,4.868,2.311,0.500,0.114,0.000,0.021
2026-05-11 17:09:51.950215,RETURNING,27.039,1.000,0.00,0.00,-164.46,3.365,7.627,3.134,4.767,5.867,0.500,-0.020,0.000,0.017
2026-05-11 17:09:52.175329,RETURNING,26.943,1.000,0.00,0.00,-164.28,3.316,7.627,3.134,4.868,5.200,0.500,-0.007,0.000,0.014
2026-05-11 17:09:52.362091,RETURNING,26.846,1.000,0.00,0.00,-164.10,3.316,7.890,3.178,4.767,5.448,0.500,-0.013,0.000,0.010
2026-05-11 17:09:52.571473,RETURNING,26.750,1.000,0.00,0.00,-163.95,3.316,7.890,3.223,4.767,4.576,0.500,0.004,0.000,0.007
2026-05-11 17:09:52.775520,RETURNING,26.654,1.000,0.00,0.00,-163.85,3.365,7.627,3.223,4.868,2.724,0.500,0.081,0.000,0.010
2026-05-11 17:09:52.987725,RETURNING,26.558,1.000,0.00,0.00,-163.73,3.365,7.627,3.178,4.868,4.400,0.500,0.011,0.000,0.014
2026-05-11 17:09:53.197644,RETURNING,26.462,1.000,0.00,0.00,-163.59,3.365,7.627,3.178,4.868,4.400,0.500,0.011,0.000,0.014
2026-05-11 17:09:53.418617,RETURNING,26.366,1.000,0.00,0.00,-163.43,3.316,7.151,3.051,4.868,3.365,0.500,0.046,0.000,0.021
2026-05-11 17:09:53.638309,RETURNING,26.270,1.000,0.00,0.00,-163.21,3.316,6.934,3.051,4.868,4.160,0.500,0.017,0.000,0.021
2026-05-11 17:09:53.833517,RETURNING,26.175,1.000,0.00,0.00,-162.97,3.316,6.934,3.092,4.868,3.575,0.500,0.037,0.000,0.017
2026-05-11 17:09:54.033791,RETURNING,26.079,1.000,0.00,0.00,-162.76,3.316,6.356,3.134,4.974,3.365,0.500,0.048,0.000,0.014
2026-05-11 17:09:54.258853,RETURNING,25.984,1.000,0.00,0.00,-162.58,3.316,7.151,3.223,4.868,4.487,0.500,0.009,0.000,0.007
2026-05-11 17:09:54.458115,RETURNING,25.888,1.000,0.00,0.00,-162.48,3.269,6.356,3.269,4.767,2.692,0.500,0.081,0.000,0.000
2026-05-11 17:09:54.656650,RETURNING,25.793,1.000,0.00,0.00,-162.43,3.269,6.934,3.316,4.868,4.400,0.500,0.011,0.000,-0.003
2026-05-11 17:09:54.875581,RETURNING,25.674,1.000,0.00,0.00,-162.45,3.223,6.356,3.316,4.868,4.317,0.500,0.013,0.000,-0.007
2026-05-11 17:09:55.083994,RETURNING,25.626,1.000,0.00,0.00,-162.48,3.269,6.730,3.365,4.868,2.724,0.500,0.081,0.000,-0.007
2026-05-11 17:09:55.285841,RETURNING,25.507,1.000,0.00,0.00,-162.60,3.223,7.151,3.365,4.868,3.178,0.500,0.055,0.000,-0.010
2026-05-11 17:09:55.497602,RETURNING,25.412,1.000,0.00,0.00,-162.71,3.178,7.381,3.365,4.868,3.178,0.500,0.055,0.000,-0.014
2026-05-11 17:09:55.693269,RETURNING,25.292,1.000,0.00,0.00,-162.86,3.223,6.538,3.365,4.868,4.160,0.500,0.017,0.000,-0.010
2026-05-11 17:09:55.916074,RETURNING,25.220,1.000,0.00,0.00,-162.95,3.178,6.538,3.415,4.767,2.692,0.500,0.081,0.000,-0.017
2026-05-11 17:09:56.118344,RETURNING,25.125,1.000,0.00,0.00,-163.14,3.134,6.538,3.415,4.868,2.487,0.500,0.098,0.000,-0.021
2026-05-11 17:09:56.325894,RETURNING,25.029,1.000,0.00,0.00,-163.36,3.092,6.934,3.467,4.974,3.467,0.500,0.044,0.000,-0.028
2026-05-11 17:09:56.540235,RETURNING,24.933,1.000,0.00,0.00,-163.66,3.092,6.934,3.415,4.868,2.630,0.500,0.087,0.000,-0.024
2026-05-11 17:09:56.764206,RETURNING,24.837,1.000,0.00,0.00,-163.95,3.011,6.934,3.415,4.868,4.868,0.500,0.000,0.000,-0.031
2026-05-11 17:09:56.961063,RETURNING,24.741,1.000,0.00,0.00,-164.30,3.011,6.730,3.467,4.868,2.934,0.500,0.068,0.000,-0.035
2026-05-11 17:09:57.178964,RETURNING,24.645,1.000,0.00,0.00,-164.67,3.051,6.538,3.415,4.868,5.720,0.500,-0.015,0.000,-0.028
2026-05-11 17:09:57.387405,RETURNING,24.548,1.000,0.00,0.00,-165.00,3.178,6.538,3.365,4.868,5.448,0.500,-0.011,0.000,-0.014
2026-05-11 17:09:57.620366,RETURNING,24.427,1.000,0.00,0.00,-165.24,3.178,6.538,3.269,4.868,4.974,0.500,-0.002,0.000,-0.007
2026-05-11 17:09:57.817935,RETURNING,24.355,1.000,0.00,0.00,-165.32,3.269,6.356,3.269,4.974,5.321,0.500,-0.007,0.000,0.000
2026-05-11 17:09:58.014114,RETURNING,24.258,1.000,0.00,0.00,-165.37,3.269,6.356,3.223,4.767,5.581,0.500,-0.015,0.000,0.003
2026-05-11 17:09:58.219207,RETURNING,24.161,1.000,0.00,0.00,-165.34,3.269,6.356,3.269,4.868,5.321,0.500,-0.009,0.000,0.000
2026-05-11 17:09:58.447196,RETURNING,24.040,1.000,0.00,0.00,-165.33,3.269,6.184,3.223,4.868,4.767,0.500,0.002,0.000,0.003
2026-05-11 17:09:58.649281,RETURNING,23.944,1.000,0.00,0.00,-165.30,3.223,6.184,3.223,4.868,4.237,0.500,0.015,0.000,0.000
2026-05-11 17:09:58.857079,RETURNING,23.871,1.000,0.00,0.00,-165.30,3.178,6.022,3.134,4.868,4.767,0.500,0.002,0.000,0.003
2026-05-11 17:09:59.061448,RETURNING,23.774,1.000,0.00,0.00,-165.28,3.092,6.022,3.134,4.767,4.487,0.500,0.007,0.000,-0.003
2026-05-11 17:09:59.283744,RETURNING,23.678,1.000,0.00,0.00,-165.32,3.092,6.022,3.092,4.868,5.321,0.500,-0.009,0.000,0.000
2026-05-11 17:09:59.455617,RETURNING,23.581,1.000,0.00,0.00,-165.34,3.178,5.867,3.092,4.868,4.974,0.500,-0.002,0.000,0.007
2026-05-11 17:09:59.677989,RETURNING,23.484,1.000,0.00,0.00,-165.32,3.223,5.867,3.092,4.868,4.868,0.500,0.000,0.000,0.010
2026-05-11 17:09:59.866268,RETURNING,23.387,1.000,0.00,0.00,-165.23,3.365,5.720,3.092,4.868,4.767,0.500,0.002,0.000,0.021
2026-05-11 17:10:00.085794,RETURNING,23.291,1.000,0.00,0.00,-164.95,3.691,5.720,3.134,4.868,4.487,0.500,0.009,0.000,0.038
2026-05-11 17:10:00.300836,RETURNING,23.194,1.000,0.00,0.00,-164.62,3.575,5.581,3.178,4.868,4.670,0.500,0.004,0.000,0.028
2026-05-11 17:10:00.480313,RETURNING,23.098,1.000,0.00,0.00,-164.30,3.632,5.581,3.223,4.868,4.487,0.500,0.009,0.000,0.028
2026-05-11 17:10:00.713727,RETURNING,23.002,1.000,0.00,0.00,-163.98,3.575,5.581,3.316,4.868,4.487,0.500,0.009,0.000,0.017
2026-05-11 17:10:00.908459,RETURNING,22.906,1.000,0.00,0.00,-163.72,3.632,5.581,3.269,4.868,5.200,0.500,-0.007,0.000,0.024
2026-05-11 17:10:01.120564,RETURNING,22.810,1.000,0.00,0.00,-163.46,3.751,5.581,3.269,4.868,4.576,0.500,0.007,0.000,0.031
2026-05-11 17:10:01.331118,RETURNING,22.714,1.000,0.00,0.00,-163.08,3.814,5.581,3.269,4.974,4.400,0.500,0.013,0.000,0.035
2026-05-11 17:10:01.574778,RETURNING,22.595,1.000,0.00,0.00,-162.54,3.751,5.581,3.223,4.868,4.400,0.500,0.011,0.000,0.035
2026-05-11 17:10:01.784938,RETURNING,22.523,1.000,0.00,0.00,-162.22,3.751,5.581,3.223,4.868,4.400,0.500,0.011,0.000,0.035
2026-05-11 17:10:01.949408,RETURNING,22.428,1.000,0.00,0.00,-161.81,3.751,5.581,3.223,4.868,4.400,0.500,0.011,0.000,0.035
2026-05-11 17:10:02.156701,RETURNING,22.333,1.000,0.00,0.00,-161.38,3.751,5.581,3.223,4.868,4.400,0.500,0.011,0.000,0.035
2026-05-11 17:10:02.378594,RETURNING,22.238,1.000,0.00,0.00,-160.97,3.575,5.581,3.178,4.868,4.487,0.500,0.009,0.000,0.028
2026-05-11 17:10:02.597354,RETURNING,22.144,1.000,0.00,0.00,-160.68,3.751,5.581,3.178,4.974,4.400,0.500,0.013,0.000,0.038
2026-05-11 17:10:02.821590,RETURNING,22.026,1.000,0.00,0.00,-160.18,3.751,5.720,3.178,4.868,4.400,0.500,0.011,0.000,0.038
2026-05-11 17:10:03.030024,RETURNING,21.956,1.000,0.00,0.00,-159.85,3.691,5.581,3.178,4.868,4.400,0.500,0.011,0.000,0.035
2026-05-11 17:10:03.211511,RETURNING,21.862,1.000,0.00,0.00,-159.43,3.691,5.581,3.178,4.868,4.670,0.500,0.004,0.000,0.035
2026-05-11 17:10:03.431383,RETURNING,21.768,1.000,0.00,0.00,-159.11,3.751,5.581,3.269,4.974,4.487,0.500,0.011,0.000,0.031
2026-05-11 17:10:03.646444,RETURNING,21.675,1.000,0.00,0.00,-158.79,3.632,5.581,3.223,4.974,4.400,0.500,0.013,0.000,0.028
2026-05-11 17:10:03.838082,RETURNING,21.582,1.000,0.00,0.00,-158.45,3.632,5.581,3.223,4.868,4.576,0.500,0.007,0.000,0.028
2026-05-11 17:10:04.058859,RETURNING,21.489,1.000,0.00,0.00,-158.13,3.632,5.321,3.269,4.868,4.400,0.500,0.011,0.000,0.024
2026-05-11 17:10:04.255336,RETURNING,21.396,1.000,0.00,0.00,-157.83,3.632,5.581,3.223,4.974,4.487,0.500,0.011,0.000,0.028
2026-05-11 17:10:04.452755,RETURNING,21.304,1.000,0.00,0.00,-157.51,3.575,5.448,3.134,4.868,4.400,0.500,0.011,0.000,0.031
2026-05-11 17:10:04.636777,RETURNING,21.211,1.000,0.00,0.00,-157.19,3.575,5.720,3.178,4.868,4.576,0.500,0.007,0.000,0.028
2026-05-11 17:10:04.854726,RETURNING,21.119,1.000,0.00,0.00,-156.89,3.632,5.448,3.178,4.868,4.487,0.500,0.009,0.000,0.031
2026-05-11 17:10:05.068093,RETURNING,21.027,1.000,0.00,0.00,-156.55,3.691,5.581,3.223,4.868,4.576,0.500,0.007,0.000,0.031
2026-05-11 17:10:05.301843,RETURNING,20.936,1.000,0.00,0.00,-156.18,3.691,5.581,3.178,4.868,4.487,0.500,0.009,0.000,0.035
2026-05-11 17:10:05.512253,RETURNING,20.844,1.000,0.00,0.00,-155.78,3.751,5.581,3.134,4.868,4.868,0.500,0.000,0.000,0.042
2026-05-11 17:10:05.711967,RETURNING,20.731,1.000,0.00,0.00,-155.21,3.691,5.720,3.134,4.868,4.767,0.500,0.002,0.000,0.038
2026-05-11 17:10:05.926621,RETURNING,20.663,1.000,0.00,0.00,-154.86,3.751,5.720,3.178,4.868,3.878,0.500,0.026,0.000,0.038
2026-05-11 17:10:06.132547,RETURNING,20.550,1.000,0.00,0.00,-154.38,3.691,5.720,3.178,4.868,3.751,0.500,0.031,0.000,0.035
2026-05-11 17:10:06.346032,RETURNING,20.482,1.000,0.00,0.00,-154.09,3.691,5.867,3.178,4.868,3.134,0.500,0.057,0.000,0.035
2026-05-11 17:10:06.568988,RETURNING,20.392,1.000,0.00,0.00,-153.69,3.632,5.720,3.178,4.868,3.011,0.500,0.063,0.000,0.031
2026-05-11 17:10:06.772380,RETURNING,20.303,1.000,0.00,0.00,-153.30,3.632,5.867,3.223,4.868,3.011,0.500,0.063,0.000,0.028
2026-05-11 17:10:06.966664,RETURNING,20.214,1.000,0.00,0.00,-152.93,3.520,5.867,3.223,4.868,3.011,0.500,0.063,0.000,0.021
2026-05-11 17:10:07.169906,RETURNING,20.125,1.000,0.00,0.00,-152.64,3.632,5.867,3.269,4.868,3.092,0.500,0.059,0.000,0.024
2026-05-11 17:10:07.387285,RETURNING,20.036,1.000,0.00,0.00,-152.36,3.632,5.867,3.223,4.868,3.011,0.500,0.063,0.000,0.028
2026-05-11 17:10:07.583408,RETURNING,19.948,1.000,0.00,0.00,-152.06,3.575,5.867,3.178,4.868,3.575,0.500,0.037,0.000,0.028
2026-05-11 17:10:07.803866,RETURNING,19.859,1.000,0.00,0.00,-151.74,3.520,5.867,3.134,4.974,3.092,0.500,0.061,0.000,0.028
2026-05-11 17:10:07.992333,RETURNING,19.771,1.000,0.00,0.00,-151.44,3.632,5.867,3.178,4.974,3.011,0.500,0.066,0.000,0.031
2026-05-11 17:10:08.206273,RETURNING,19.662,1.000,0.00,0.00,-151.04,3.575,5.867,3.223,4.868,2.860,0.500,0.072,0.000,0.024
2026-05-11 17:10:08.409306,RETURNING,19.596,1.000,0.00,0.00,-150.83,3.467,6.022,3.092,4.868,2.860,0.500,0.072,0.000,0.028
2026-05-11 17:10:08.633366,RETURNING,19.487,1.000,0.00,0.00,-150.46,3.520,5.867,3.178,4.670,2.860,0.500,0.068,0.000,0.024
2026-05-11 17:10:08.836956,RETURNING,19.422,1.000,0.00,0.00,-150.25,3.520,6.184,3.092,4.868,2.661,0.500,0.085,0.000,0.031
2026-05-11 17:10:09.022902,RETURNING,19.335,1.000,0.00,0.00,-149.93,3.520,6.022,3.178,4.868,2.934,0.500,0.068,0.000,0.024
2026-05-11 17:10:09.242345,RETURNING,19.249,1.000,0.00,0.00,-149.63,3.467,6.184,3.178,4.868,2.934,0.500,0.068,0.000,0.021
2026-05-11 17:10:09.429833,RETURNING,19.141,1.000,0.00,0.00,-149.29,3.467,6.356,3.134,4.868,2.896,0.500,0.070,0.000,0.024
2026-05-11 17:10:09.649029,RETURNING,19.077,1.000,0.00,0.00,-149.08,3.520,6.538,3.092,4.868,2.692,0.500,0.083,0.000,0.031
2026-05-11 17:10:09.864037,RETURNING,18.991,1.000,0.00,0.00,-148.77,3.467,6.538,3.092,4.868,2.934,0.500,0.068,0.000,0.028
2026-05-11 17:10:10.057331,RETURNING,18.906,1.000,0.00,0.00,-148.43,3.467,6.730,3.134,4.868,2.896,0.500,0.070,0.000,0.024
2026-05-11 17:10:10.270689,RETURNING,18.821,1.000,0.00,0.00,-148.17,3.520,6.730,3.178,4.868,2.896,0.500,0.070,0.000,0.024
2026-05-11 17:10:10.466723,RETURNING,18.736,1.000,0.00,0.00,-147.91,3.520,7.151,3.178,4.868,2.896,0.500,0.070,0.000,0.024
2026-05-11 17:10:10.694448,RETURNING,18.651,1.000,0.00,0.00,-147.62,3.520,7.151,3.178,4.868,2.757,0.500,0.079,0.000,0.024
2026-05-11 17:10:10.879939,RETURNING,18.567,1.000,0.00,0.00,-147.34,3.467,4.767,3.178,4.868,2.724,0.500,0.081,0.000,0.021
2026-05-11 17:10:11.082962,RETURNING,18.483,1.000,0.00,0.00,-147.08,3.467,7.151,3.178,4.868,2.934,0.500,0.068,0.000,0.021
2026-05-11 17:10:11.320085,RETURNING,18.399,1.000,0.00,0.00,-146.84,3.467,7.890,3.134,4.868,2.790,0.500,0.076,0.000,0.024
2026-05-11 17:10:11.537587,RETURNING,18.315,1.000,0.00,0.00,-146.58,3.415,8.172,3.134,4.868,2.757,0.500,0.079,0.000,0.021
2026-05-11 17:10:11.720165,RETURNING,18.211,1.000,0.00,0.00,-146.28,3.415,7.890,3.134,4.868,2.757,0.500,0.079,0.000,0.021
2026-05-11 17:10:11.916462,RETURNING,18.149,1.000,0.00,0.00,-146.10,3.415,7.627,3.178,4.868,2.661,0.500,0.085,0.000,0.017
2026-05-11 17:10:12.121019,RETURNING,18.066,1.000,0.00,0.00,-145.90,3.365,7.627,3.134,4.767,2.692,0.500,0.081,0.000,0.017
2026-05-11 17:10:12.336695,RETURNING,17.983,1.000,0.00,0.00,-145.69,3.415,7.890,3.134,4.868,2.724,0.500,0.081,0.000,0.021
2026-05-11 17:10:12.563914,RETURNING,17.880,1.000,0.00,0.00,-145.40,3.365,7.890,3.134,4.868,2.661,0.500,0.085,0.000,0.017
2026-05-11 17:10:12.769400,RETURNING,17.818,1.000,0.00,0.00,-145.25,3.365,7.627,3.178,4.868,2.757,0.500,0.079,0.000,0.014
2026-05-11 17:10:12.959682,RETURNING,17.716,1.000,0.00,0.00,-145.05,3.365,7.627,3.178,4.868,2.661,0.500,0.085,0.000,0.014
2026-05-11 17:10:13.153901,RETURNING,17.654,1.000,0.00,0.00,-144.93,3.316,7.381,3.178,4.868,2.661,0.500,0.085,0.000,0.010
