timestamp,state,x,y,z,roll_deg,pitch_deg,yaw_deg,dist_left,dist_center,dist_right,dist_top,dist_bottom,dtof_alert,collision_event,best_dir,max_space,cmd_vx,cmd_vz,cmd_yaw
19:35:02.957,SEARCHING,0.000,0.000,1.000,0.00,0.00,0.00,1.816,2.692,1.338,2.692,2.460,0,0,SEARCHING,1.338,0.800,0.077,0.197
19:35:03.165,SEARCHING,0.128,0.002,1.000,0.00,0.00,1.79,1.760,2.514,1.271,2.542,2.460,0,0,SEARCHING,1.271,0.800,0.029,0.219
19:35:03.353,SEARCHING,0.286,0.009,1.000,0.00,0.00,2.05,1.623,2.266,5.200,2.266,2.288,0,0,SEARCHING,1.623,0.725,-0.010,-0.424
19:35:03.562,SEARCHING,0.433,0.009,1.000,0.00,0.00,-2.70,1.695,2.514,4.670,2.487,2.434,0,0,SEARCHING,1.695,0.800,0.019,-0.376
19:35:03.750,SEARCHING,0.590,-0.004,1.000,0.00,0.00,-7.00,1.695,2.790,4.160,2.825,2.460,0,0,SEARCHING,1.695,0.800,0.115,-0.350
19:35:03.959,SEARCHING,0.748,-0.029,1.000,0.00,0.00,-10.98,1.733,2.934,3.751,3.011,2.460,0,0,SEARCHING,1.733,0.800,0.163,-0.310
19:35:04.170,SEARCHING,0.904,-0.064,1.000,0.00,0.00,-14.60,1.860,5.321,3.467,5.321,2.460,0,0,SEARCHING,1.860,0.800,0.481,-0.249
19:35:04.363,SEARCHING,1.058,-0.108,1.000,0.00,0.00,-17.54,1.939,4.868,3.092,4.974,2.434,0,0,SEARCHING,1.939,0.800,0.462,-0.192
19:35:04.565,SEARCHING,1.209,-0.159,1.000,0.00,0.00,-19.75,2.080,4.576,2.896,4.670,2.460,0,0,SEARCHING,2.080,0.800,0.423,-0.135
19:35:04.760,SEARCHING,1.359,-0.215,1.000,0.00,0.00,-21.32,2.222,4.400,2.724,4.400,2.460,0,0,SEARCHING,2.222,0.800,0.394,-0.083
19:35:04.967,SEARCHING,1.508,-0.274,1.000,0.00,0.00,-22.37,2.266,4.237,2.692,4.237,2.460,0,0,SEARCHING,2.266,0.800,0.375,-0.070
19:35:05.159,SEARCHING,1.655,-0.336,1.000,0.00,0.00,-23.22,5.448,3.945,2.542,4.014,2.460,0,0,SEARCHING,2.460,0.800,0.346,0.210
19:35:05.366,SEARCHING,1.803,-0.398,1.000,0.00,0.00,-21.44,5.448,3.814,2.487,3.878,2.460,0,0,SEARCHING,2.460,0.800,0.327,0.219
19:35:05.565,SEARCHING,1.953,-0.454,1.000,0.00,0.00,-19.01,5.448,3.878,2.542,3.878,2.434,0,0,SEARCHING,2.434,0.800,0.337,0.210
19:35:05.765,SEARCHING,2.105,-0.503,1.000,0.00,0.00,-16.66,5.448,3.945,2.661,3.945,2.460,0,0,SEARCHING,2.460,0.800,0.337,0.192
19:35:05.968,SEARCHING,2.259,-0.546,1.000,0.00,0.00,-15.29,1.760,4.014,2.692,3.945,2.460,0,0,SEARCHING,1.760,0.800,0.337,-0.197
19:35:06.163,SEARCHING,2.413,-0.591,1.000,0.00,0.00,-16.60,4.974,3.691,2.542,3.691,2.288,0,0,SEARCHING,2.288,0.800,0.365,0.192
19:35:06.374,SEARCHING,2.567,-0.634,1.000,0.00,0.00,-14.47,4.868,3.751,2.600,3.751,2.434,0,0,SEARCHING,2.434,0.800,0.317,0.179
19:35:06.570,SEARCHING,2.722,-0.671,1.000,0.00,0.00,-12.45,4.868,3.751,2.661,3.814,2.460,0,0,SEARCHING,2.460,0.800,0.317,0.170
19:35:06.769,SEARCHING,2.879,-0.704,1.000,0.00,0.00,-10.50,4.868,3.878,2.571,3.878,2.487,0,0,SEARCHING,2.487,0.800,0.317,0.184
19:35:06.964,SEARCHING,3.037,-0.730,1.000,0.00,0.00,-8.46,4.974,3.878,2.571,3.878,2.460,0,0,SEARCHING,2.460,0.800,0.327,0.188
19:35:07.181,SEARCHING,3.195,-0.751,1.000,0.00,0.00,-6.26,4.974,3.751,2.600,3.751,2.434,0,0,SEARCHING,2.434,0.800,0.317,0.184
19:35:07.370,SEARCHING,3.355,-0.766,1.000,0.00,0.00,-4.19,3.878,3.751,2.630,3.751,2.434,0,0,SEARCHING,2.434,0.800,0.317,0.122
19:35:07.568,SEARCHING,3.514,-0.776,1.000,0.00,0.00,-2.74,3.751,3.751,2.661,3.751,2.460,0,0,SEARCHING,2.460,0.800,0.308,0.109
19:35:07.771,SEARCHING,3.674,-0.782,1.000,0.00,0.00,-1.49,3.575,3.751,2.630,3.691,2.460,0,0,SEARCHING,2.460,0.800,0.298,0.101
19:35:07.969,SEARCHING,3.834,-0.784,1.000,0.00,0.00,-0.36,3.467,3.691,2.571,3.751,2.434,0,0,SEARCHING,2.434,0.800,0.317,0.101
19:35:08.178,SEARCHING,3.994,-0.784,1.000,0.00,0.00,0.69,3.316,3.691,2.630,3.691,2.434,0,0,SEARCHING,2.434,0.800,0.308,0.079
19:35:08.370,SEARCHING,4.154,-0.781,1.000,0.00,0.00,1.57,3.178,3.520,2.600,3.575,2.460,0,0,SEARCHING,2.460,0.800,0.279,0.070
19:35:08.568,SEARCHING,4.314,-0.776,1.000,0.00,0.00,2.39,3.051,3.415,2.409,3.415,2.487,0,0,SEARCHING,2.409,0.800,0.240,0.087
19:35:08.776,SEARCHING,4.474,-0.768,1.000,0.00,0.00,3.37,2.972,3.269,2.335,3.269,2.460,0,0,SEARCHING,2.335,0.800,0.221,0.092
19:35:08.978,SEARCHING,4.634,-0.757,1.000,0.00,0.00,4.41,2.896,3.051,2.311,3.051,2.434,0,0,SEARCHING,2.311,0.800,0.183,0.087
19:35:09.171,SEARCHING,4.793,-0.743,1.000,0.00,0.00,5.38,2.757,2.934,2.288,2.934,2.434,0,0,SEARCHING,2.288,0.800,0.154,0.074
19:35:09.373,SEARCHING,4.952,-0.727,1.000,0.00,0.00,6.23,2.661,2.790,2.266,2.825,2.487,0,0,SEARCHING,2.266,0.800,0.106,0.066
19:35:09.570,SEARCHING,5.111,-0.709,1.000,0.00,0.00,7.01,2.571,2.692,2.200,2.724,2.460,0,0,SEARCHING,2.200,0.800,0.087,0.066
19:35:09.773,SEARCHING,5.270,-0.688,1.000,0.00,0.00,7.75,2.571,2.661,2.200,2.692,2.460,0,0,SEARCHING,2.200,0.800,0.077,0.066
19:35:09.981,SEARCHING,5.428,-0.666,1.000,0.00,0.00,8.46,2.514,2.724,2.119,2.692,2.434,0,0,SEARCHING,2.119,0.800,0.087,0.074
19:35:10.184,SEARCHING,5.586,-0.642,1.000,0.00,0.00,9.24,2.487,2.860,2.080,2.790,2.460,0,0,SEARCHING,2.080,0.800,0.106,0.079
19:35:10.393,SEARCHING,5.744,-0.615,1.000,0.00,0.00,10.14,2.409,2.934,1.939,2.934,2.514,0,0,SEARCHING,1.939,0.800,0.125,0.101
19:35:10.577,SEARCHING,5.901,-0.585,1.000,0.00,0.00,11.32,2.311,3.178,1.733,3.134,2.460,0,0,SEARCHING,1.733,0.800,0.192,0.144
19:35:10.782,SEARCHING,6.058,-0.552,1.000,0.00,0.00,12.94,2.200,3.269,1.578,3.269,2.460,0,0,SEARCHING,1.578,0.800,0.221,0.179
19:35:10.983,SEARCHING,6.213,-0.514,1.000,0.00,0.00,14.97,2.061,3.223,1.439,3.316,2.460,0,0,SEARCHING,1.439,0.800,0.231,0.210
19:35:11.191,SEARCHING,6.367,-0.470,1.000,0.00,0.00,17.18,1.923,3.415,1.525,3.415,2.487,0,0,SEARCHING,1.525,0.800,0.240,0.135
19:35:11.386,SEARCHING,6.519,-0.420,1.000,0.00,0.00,18.73,1.802,3.467,1.682,3.520,2.460,0,0,SEARCHING,1.682,0.800,0.269,0.000
19:35:11.589,SEARCHING,6.670,-0.368,1.000,0.00,0.00,19.07,1.720,3.520,1.816,3.467,2.460,0,0,SEARCHING,1.720,0.800,0.260,0.000
19:35:11.789,SEARCHING,6.822,-0.316,1.000,0.00,0.00,19.07,1.708,3.415,1.747,3.365,2.460,0,0,SEARCHING,1.708,0.800,0.240,0.000
19:35:11.988,SEARCHING,6.973,-0.264,1.000,0.00,0.00,19.07,1.670,3.316,1.816,3.316,2.460,0,0,SEARCHING,1.670,0.800,0.231,0.000
19:35:12.182,SEARCHING,7.124,-0.211,1.000,0.00,0.00,19.07,1.658,3.223,1.860,3.223,2.460,0,0,SEARCHING,1.658,0.800,0.212,-0.066
19:35:12.384,SEARCHING,7.276,-0.160,1.000,0.00,0.00,18.46,1.658,3.051,1.831,3.051,2.460,0,0,SEARCHING,1.658,0.800,0.173,-0.057
19:35:12.576,SEARCHING,7.428,-0.110,1.000,0.00,0.00,17.81,1.695,2.896,1.788,2.896,2.460,0,0,SEARCHING,1.695,0.800,0.135,0.000
19:35:12.783,SEARCHING,7.580,-0.061,1.000,0.00,0.00,17.69,1.670,2.757,1.720,2.757,2.460,0,0,SEARCHING,1.670,0.800,0.096,0.000
19:35:13.005,SEARCHING,7.732,-0.013,1.000,0.00,0.00,17.69,1.646,2.661,1.578,2.630,2.460,0,0,SEARCHING,1.578,0.800,0.058,0.000
19:35:13.193,SEARCHING,7.885,0.036,1.000,0.00,0.00,17.69,1.557,2.571,1.467,2.571,2.434,0,0,SEARCHING,1.467,0.800,0.048,0.000
19:35:13.394,SEARCHING,8.037,0.085,1.000,0.00,0.00,18.52,2.825,2.434,1.412,2.434,2.409,0,0,SEARCHING,1.412,0.779,0.010,0.354
19:35:13.589,SEARCHING,8.185,0.140,1.000,0.00,0.00,22.59,1.395,2.542,1.496,2.825,2.460,0,0,SEARCHING,1.395,0.800,0.115,0.000
19:35:13.793,SEARCHING,8.332,0.203,1.000,0.00,0.00,23.41,2.384,2.514,1.496,2.757,2.460,0,0,SEARCHING,1.496,0.800,0.096,0.249
19:35:14.004,SEARCHING,8.478,0.268,1.000,0.00,0.00,25.16,2.335,2.514,1.476,2.661,2.600,0,0,SEARCHING,1.476,0.800,0.019,0.249
19:35:14.189,SEARCHING,8.621,0.339,1.000,0.00,0.00,27.98,2.099,2.335,1.578,2.434,2.487,0,0,SEARCHING,1.578,0.747,-0.019,0.157
19:35:14.391,SEARCHING,8.753,0.412,1.000,0.00,0.00,29.84,1.973,2.311,1.634,2.335,2.460,0,0,SEARCHING,1.634,0.740,-0.048,0.105
19:35:14.591,SEARCHING,8.880,0.487,1.000,0.00,0.00,31.06,1.860,2.159,1.695,2.179,2.460,0,0,SEARCHING,1.695,0.691,-0.115,0.052
19:35:14.803,SEARCHING,8.998,0.558,1.000,0.00,0.00,31.51,1.816,1.973,1.733,2.043,2.460,0,0,SEARCHING,1.733,0.631,-0.183,0.000
19:35:14.994,SEARCHING,9.106,0.625,1.000,0.00,0.00,31.51,1.774,1.891,1.658,1.907,2.460,0,0,SEARCHING,1.658,0.605,-0.260,0.000
19:35:15.206,SEARCHING,9.209,0.688,1.000,0.00,0.00,31.51,1.747,1.747,1.788,1.788,2.460,0,0,SEARCHING,1.747,0.559,-0.337,0.000
19:35:15.397,SEARCHING,9.305,0.747,1.000,0.00,0.00,31.51,1.720,1.682,1.682,1.682,2.460,0,0,SEARCHING,1.682,0.538,-0.413,0.000
19:35:15.602,SEARCHING,9.396,0.803,1.000,0.00,0.00,31.51,1.708,1.557,1.546,1.567,2.434,0,0,SEARCHING,1.546,0.498,-0.500,0.061
19:35:15.799,SEARCHING,9.481,0.855,1.000,0.00,0.00,32.02,1.670,1.476,1.467,1.467,2.460,0,0,SEARCHING,1.467,0.472,-0.606,0.083
19:35:16.000,SEARCHING,9.561,0.906,1.000,0.00,0.00,32.92,1.611,1.448,1.378,1.395,2.460,0,0,SEARCHING,1.378,0.463,-0.683,0.105
19:35:16.197,SEARCHING,9.638,0.957,1.000,0.00,0.00,34.12,1.525,1.412,1.264,1.404,2.460,0,0,SEARCHING,1.264,0.452,-0.673,0.135
19:35:16.407,SEARCHING,9.713,1.008,1.000,0.00,0.00,35.67,1.467,1.378,1.179,1.378,2.460,0,0,SEARCHING,1.179,0.441,-0.702,0.166
19:35:16.606,SEARCHING,9.784,1.061,1.000,0.00,0.00,37.56,1.370,2.434,1.054,1.387,2.384,0,0,SEARCHING,1.054,0.779,-0.663,0.219
19:35:16.792,SEARCHING,9.888,1.145,1.000,0.00,0.00,40.05,1.257,2.119,0.897,2.119,2.138,0,0,SEARCHING,0.897,0.678,-0.010,0.319
19:35:16.997,SEARCHING,9.990,1.234,1.000,0.00,0.00,43.61,1.122,1.816,5.085,1.816,1.802,0,0,SEARCHING,1.122,0.581,0.010,-0.695
19:35:17.194,SEARCHING,10.077,1.313,1.000,0.00,0.00,38.02,1.144,1.923,6.184,1.907,1.923,0,0,SEARCHING,1.144,0.615,-0.010,-0.712
19:35:17.443,SEARCHING,10.180,1.383,1.000,0.00,0.00,30.00,1.370,3.178,3.011,0.897,2.460,0,0,SEARCHING,0.897,0.800,-1.000,-0.199
19:35:17.779,SEARCHING,10.315,1.452,1.000,0.00,0.00,25.08,1.557,4.086,2.514,0.760,2.460,0,0,SEARCHING,0.760,0.800,-1.000,-0.122
19:35:17.948,SEARCHING,10.388,1.486,1.000,0.00,0.00,24.03,1.557,4.317,2.434,0.702,2.487,0,0,SEARCHING,0.702,0.800,-1.000,-0.116
19:35:18.251,SEARCHING,10.572,1.564,1.000,0.00,0.00,22.09,1.891,5.448,2.222,0.472,2.460,0,0,SEARCHING,0.472,0.800,-1.000,-0.039
19:35:18.580,SEARCHING,10.758,1.637,1.000,0.00,0.00,20.56,2.119,6.022,2.061,0.313,2.288,0,0,SEARCHING,0.313,0.800,-1.000,0.000
19:35:18.742,SEARCHING,10.946,1.706,1.000,0.00,0.00,19.95,2.179,5.581,1.973,3.575,2.460,0,0,SEARCHING,1.973,0.800,0.279,0.000
19:35:18.927,SEARCHING,11.172,1.788,1.000,0.00,0.00,19.98,2.179,5.448,1.907,3.467,2.460,0,0,SEARCHING,1.907,0.800,0.260,0.066
19:35:19.117,SEARCHING,11.397,1.871,1.000,0.00,0.00,20.63,2.243,5.200,1.939,3.316,2.460,0,0,SEARCHING,1.939,0.800,0.231,0.070
19:35:19.301,SEARCHING,11.584,1.942,1.000,0.00,0.00,21.49,2.159,4.767,2.080,2.860,2.434,0,0,SEARCHING,2.080,0.800,0.135,0.000
19:35:19.502,SEARCHING,11.732,2.001,1.000,0.00,0.00,21.49,2.080,4.670,2.460,2.825,2.460,0,0,SEARCHING,2.080,0.800,0.115,-0.074
19:35:19.702,SEARCHING,11.882,2.059,1.000,0.00,0.00,20.72,2.119,4.487,2.384,2.724,2.460,0,0,SEARCHING,2.119,0.800,0.087,-0.052
19:35:19.903,SEARCHING,12.032,2.115,1.000,0.00,0.00,20.29,2.179,4.237,2.409,2.661,2.409,0,0,SEARCHING,2.179,0.800,0.087,0.000
19:35:20.103,SEARCHING,12.182,2.170,1.000,0.00,0.00,20.29,2.179,3.575,2.384,2.600,2.409,0,0,SEARCHING,2.179,0.800,0.067,0.000
19:35:20.313,SEARCHING,12.332,2.226,1.000,0.00,0.00,20.29,2.138,3.520,2.409,2.600,2.434,0,0,SEARCHING,2.138,0.800,0.058,-0.052
19:35:20.513,SEARCHING,12.482,2.281,1.000,0.00,0.00,19.99,2.138,3.415,2.335,2.630,2.460,0,0,SEARCHING,2.138,0.800,0.058,0.000
19:35:20.713,SEARCHING,12.632,2.336,1.000,0.00,0.00,19.99,2.179,3.316,3.178,2.600,2.434,0,0,SEARCHING,2.179,0.800,0.058,-0.144
19:35:20.908,SEARCHING,12.783,2.390,1.000,0.00,0.00,18.81,2.514,3.223,3.051,2.630,2.460,0,0,SEARCHING,2.460,0.800,0.058,-0.070
19:35:21.114,SEARCHING,12.935,2.440,1.000,0.00,0.00,18.30,2.790,2.972,2.934,2.630,2.434,0,0,SEARCHING,2.434,0.800,0.067,0.000
19:35:21.314,SEARCHING,13.087,2.490,1.000,0.00,0.00,18.30,2.661,2.825,2.896,2.600,2.460,0,0,SEARCHING,2.460,0.800,0.048,0.000
19:35:21.515,SEARCHING,13.239,2.541,1.000,0.00,0.00,18.30,2.571,2.630,2.790,2.630,2.487,0,0,SEARCHING,2.487,0.800,0.048,0.000
19:35:21.715,SEARCHING,13.390,2.591,1.000,0.00,0.00,18.30,2.288,2.514,2.600,2.542,2.460,0,0,SEARCHING,2.288,0.800,0.029,-0.052
19:35:21.922,SEARCHING,13.540,2.640,1.000,0.00,0.00,18.18,2.200,2.359,2.359,2.571,2.335,0,0,SEARCHING,2.200,0.755,0.087,0.000
19:35:22.110,SEARCHING,13.682,2.687,1.000,0.00,0.00,18.18,1.939,2.159,2.266,2.514,2.159,0,0,SEARCHING,1.939,0.691,0.144,-0.074
19:35:22.311,SEARCHING,13.814,2.729,1.000,0.00,0.00,17.55,1.939,2.043,2.099,4.974,2.007,0,0,SEARCHING,1.939,0.654,0.654,0.000
19:35:22.506,SEARCHING,13.938,2.768,1.000,0.00,0.00,17.43,1.733,1.923,1.956,4.974,1.907,0,0,SEARCHING,1.733,0.615,0.711,-0.066
19:35:22.723,SEARCHING,14.055,2.805,1.000,0.00,0.00,16.80,1.708,1.802,1.733,4.868,1.788,0,0,SEARCHING,1.708,0.577,0.779,0.000
19:35:22.924,SEARCHING,14.165,2.838,1.000,0.00,0.00,16.53,1.623,1.747,1.747,4.767,1.670,0,0,SEARCHING,1.623,0.559,0.856,0.000
19:35:23.112,SEARCHING,14.271,2.869,1.000,0.00,0.00,16.41,1.505,1.611,1.634,4.670,1.557,0,0,SEARCHING,1.505,0.516,0.942,-0.052
19:35:23.314,SEARCHING,14.369,2.897,1.000,0.00,0.00,15.91,1.421,1.486,1.567,4.487,1.430,0,0,SEARCHING,1.421,0.475,1.000,-0.066
19:35:23.517,SEARCHING,14.462,2.923,1.000,0.00,0.00,15.46,1.323,1.448,1.476,4.400,1.354,0,0,SEARCHING,1.323,0.463,1.000,-0.079
19:35:23.713,SEARCHING,14.551,2.948,1.000,0.00,0.00,14.88,1.315,1.370,1.421,4.237,1.271,0,0,SEARCHING,1.271,0.438,1.000,-0.057
19:35:23.919,SEARCHING,14.636,2.970,1.000,0.00,0.00,14.20,1.308,1.271,1.330,4.160,1.186,0,0,SEARCHING,1.186,0.407,1.000,0.000
19:35:24.115,SEARCHING,14.716,2.990,1.000,0.00,0.00,13.84,1.224,1.217,1.338,3.945,1.100,0,0,SEARCHING,1.100,0.389,1.000,-0.070
19:35:24.341,SEARCHING,14.792,3.008,1.000,0.00,0.00,13.12,1.167,1.224,1.362,3.814,1.040,0,0,SEARCHING,1.040,0.392,1.000,-0.122
19:35:24.577,SEARCHING,14.849,3.021,1.000,0.00,0.00,12.39,1.323,1.300,1.330,3.691,0.978,0,0,SEARCHING,0.978,0.416,1.000,0.000
19:35:24.879,SEARCHING,14.948,3.042,1.000,0.00,0.00,11.87,1.278,1.230,1.278,3.575,0.915,0,0,SEARCHING,0.915,0.394,1.000,0.000
19:35:25.203,SEARCHING,15.046,3.063,1.000,0.00,0.00,11.87,1.250,1.237,1.315,3.575,0.835,0,0,SEARCHING,0.835,0.396,1.000,0.000
19:35:25.391,SEARCHING,15.084,3.071,1.000,0.00,0.00,11.87,1.293,1.330,1.338,3.467,0.763,0,0,SEARCHING,0.763,0.426,1.000,0.000
19:35:25.729,SEARCHING,15.161,3.087,1.000,0.00,0.00,11.87,1.285,1.257,1.323,3.415,0.639,0,0,SEARCHING,0.639,0.402,1.000,0.000
19:35:25.893,SEARCHING,15.200,3.095,1.000,0.00,0.00,11.87,1.257,1.346,1.250,3.365,0.558,0,0,SEARCHING,0.558,0.431,1.000,0.000
19:35:26.214,SEARCHING,15.343,3.125,1.000,0.00,0.00,11.87,1.244,1.285,1.244,3.269,0.486,0,0,SEARCHING,0.486,0.411,1.000,0.000
19:35:26.379,SEARCHING,15.403,3.138,1.000,0.00,0.00,11.87,1.237,1.250,1.300,3.178,0.467,0,0,SEARCHING,0.467,0.400,1.000,0.000
19:35:26.755,SEARCHING,15.547,3.168,1.000,0.00,0.00,11.99,1.278,3.051,1.211,3.134,0.470,0,0,SEARCHING,0.470,0.800,1.000,0.000
19:35:26.915,SEARCHING,15.608,3.181,1.000,0.00,0.00,11.99,1.257,1.362,1.257,3.051,0.465,0,0,SEARCHING,0.465,0.436,1.000,0.000
19:35:27.080,SEARCHING,15.686,3.198,1.000,0.00,0.00,11.99,1.338,1.362,1.244,3.051,0.456,0,0,SEARCHING,0.456,0.436,1.000,0.028
19:35:27.395,SEARCHING,15.833,3.229,1.000,0.00,0.00,11.99,1.264,1.224,1.257,2.934,0.479,0,0,SEARCHING,0.479,0.392,1.000,0.000
19:35:27.711,SEARCHING,15.963,3.257,1.000,0.00,0.00,12.07,4.670,1.257,1.217,2.896,0.474,0,0,SEARCHING,0.474,0.402,1.000,0.304
19:35:28.054,SEARCHING,16.101,3.287,1.000,0.00,0.00,12.49,1.257,1.173,1.760,2.825,0.507,0,0,SEARCHING,0.507,0.375,1.000,-0.114
19:35:28.220,SEARCHING,16.180,3.304,1.000,0.00,0.00,12.80,5.085,1.278,1.774,2.860,0.469,0,0,SEARCHING,0.469,0.409,1.000,0.184
19:35:28.375,SEARCHING,16.238,3.318,1.000,0.00,0.00,13.91,5.085,1.244,1.733,2.825,0.470,0,0,SEARCHING,0.470,0.398,1.000,0.190
19:35:28.708,SEARCHING,16.349,3.345,1.000,0.00,0.00,13.07,4.487,2.630,1.658,2.630,0.467,0,0,SEARCHING,0.467,0.800,1.000,0.190
19:35:29.025,SEARCHING,16.483,3.378,1.000,0.00,0.00,15.25,4.670,2.757,1.733,2.757,0.472,0,0,SEARCHING,0.472,0.800,1.000,0.181
19:35:29.184,SEARCHING,16.541,3.394,1.000,0.00,0.00,16.87,4.400,2.724,1.733,2.724,0.480,0,0,SEARCHING,0.480,0.800,1.000,0.175
19:35:29.519,SEARCHING,16.743,3.462,1.000,0.00,0.00,20.17,3.945,2.661,1.774,2.661,0.481,0,0,SEARCHING,0.481,0.800,1.000,0.155
19:35:29.678,SEARCHING,16.893,3.520,1.000,0.00,0.00,22.36,3.878,2.724,1.788,2.757,0.486,0,0,SEARCHING,0.486,0.800,1.000,0.151
19:35:29.999,SEARCHING,17.112,3.617,1.000,0.00,0.00,25.29,3.691,2.860,1.876,2.825,0.497,0,0,SEARCHING,0.497,0.800,1.000,0.131
19:35:30.223,SEARCHING,17.291,3.705,1.000,0.00,0.00,27.51,3.520,2.934,1.760,2.934,1.476,0,0,SEARCHING,1.476,0.800,0.740,0.284
19:35:30.393,SEARCHING,17.432,3.781,1.000,0.00,0.00,29.15,3.178,3.011,1.658,3.051,1.457,0,0,SEARCHING,1.457,0.800,0.788,0.288
19:35:30.558,SEARCHING,17.640,3.902,1.000,0.00,0.00,31.68,0.685,2.934,1.670,2.972,1.476,0,0,SEARCHING,0.685,0.800,0.750,-0.861
19:35:30.739,SEARCHING,17.974,4.121,1.000,0.00,0.00,29.12,2.972,2.757,1.505,2.724,1.939,0,0,SEARCHING,1.505,0.800,0.327,0.328
19:35:30.939,SEARCHING,18.115,4.194,1.000,0.00,0.00,28.82,2.896,2.460,1.395,2.434,1.939,0,0,SEARCHING,1.395,0.787,0.231,0.371
19:35:31.140,SEARCHING,18.251,4.275,1.000,0.00,0.00,32.94,2.724,5.867,1.505,2.600,1.956,0,0,SEARCHING,1.505,0.800,0.279,0.297
19:35:31.345,SEARCHING,18.383,4.366,1.000,0.00,0.00,36.40,2.661,7.151,1.589,6.022,1.939,0,0,SEARCHING,1.589,0.800,0.769,0.253
19:35:32.812,SEARCHING,18.509,4.463,1.000,0.00,0.00,39.27,2.571,7.627,1.670,5.867,1.923,0,0,SEARCHING,1.670,0.800,0.769,0.210
19:35:33.001,SEARCHING,18.631,4.567,1.000,0.00,0.00,41.56,2.460,7.381,1.845,5.867,1.907,0,0,SEARCHING,1.845,0.800,0.779,0.135
19:35:33.212,SEARCHING,18.749,4.675,1.000,0.00,0.00,43.20,2.061,7.627,1.788,5.867,1.876,0,0,SEARCHING,1.788,0.800,0.798,0.074
19:35:33.409,SEARCHING,18.865,4.785,1.000,0.00,0.00,43.48,2.179,7.381,4.767,5.867,2.179,0,0,SEARCHING,2.179,0.800,0.635,-0.249
19:35:33.603,SEARCHING,18.984,4.893,1.000,0.00,0.00,40.48,1.939,7.151,4.974,6.022,2.159,0,0,SEARCHING,1.939,0.800,0.654,-0.315
19:35:33.808,SEARCHING,19.108,4.993,1.000,0.00,0.00,36.93,1.845,7.151,4.487,6.184,2.179,0,0,SEARCHING,1.845,0.800,0.654,-0.319
19:35:34.011,SEARCHING,19.239,5.085,1.000,0.00,0.00,24.42,1.831,6.538,4.014,6.022,2.159,0,0,SEARCHING,1.831,0.800,0.654,-0.297
19:35:34.212,SEARCHING,19.381,5.116,1.000,0.00,0.00,10.39,5.720,1.192,0.857,1.192,1.186,0,0,SEARCHING,0.857,0.381,0.010,0.992
19:35:34.404,SEARCHING,19.456,5.137,1.000,0.00,0.00,21.57,6.730,4.317,0.926,4.317,2.138,0,0,SEARCHING,0.926,0.800,0.519,0.931
19:35:34.613,SEARCHING,19.577,5.199,1.000,0.00,0.00,32.12,7.381,5.581,1.079,5.581,2.179,0,0,SEARCHING,1.079,0.800,0.615,0.791
19:35:34.802,SEARCHING,19.706,5.294,1.000,0.00,0.00,39.82,7.627,6.934,4.400,6.022,2.179,0,0,SEARCHING,2.179,0.800,0.644,0.096
19:35:35.007,SEARCHING,19.828,5.397,1.000,0.00,0.00,41.01,7.627,7.381,4.400,6.022,2.179,0,0,SEARCHING,2.179,0.800,0.644,0.096
19:35:35.205,SEARCHING,19.948,5.503,1.000,0.00,0.00,42.16,7.627,7.627,4.767,5.867,2.200,0,0,SEARCHING,2.200,0.800,0.625,0.079
19:35:35.417,SEARCHING,20.065,5.612,1.000,0.00,0.00,43.20,7.890,7.627,4.868,6.184,2.266,0,0,SEARCHING,2.266,0.800,0.615,0.079
19:35:35.604,SEARCHING,20.181,5.722,1.000,0.00,0.00,44.12,7.627,8.172,4.670,6.184,2.266,0,0,SEARCHING,2.266,0.800,0.615,0.083
19:35:35.805,SEARCHING,20.295,5.834,1.000,0.00,0.00,45.07,7.627,8.172,4.576,6.022,2.311,0,0,SEARCHING,2.311,0.800,0.586,0.087
19:35:36.013,SEARCHING,20.407,5.949,1.000,0.00,0.00,46.06,7.381,8.172,4.487,6.022,2.288,0,0,SEARCHING,2.288,0.800,0.596,0.087
19:35:36.214,SEARCHING,20.517,6.065,1.000,0.00,0.00,47.03,7.151,8.801,4.487,5.867,2.288,0,0,SEARCHING,2.288,0.800,0.586,0.083
19:35:36.413,SEARCHING,20.626,6.182,1.000,0.00,0.00,47.96,7.151,8.801,4.576,6.022,2.335,0,0,SEARCHING,2.335,0.800,0.577,0.079
19:35:36.611,SEARCHING,20.732,6.302,1.000,0.00,0.00,48.85,6.730,8.801,4.767,6.184,2.311,0,0,SEARCHING,2.311,0.800,0.596,0.061
19:35:36.822,SEARCHING,20.837,6.423,1.000,0.00,0.00,49.59,6.730,8.475,4.670,6.022,2.288,0,0,SEARCHING,2.288,0.800,0.596,0.066
19:35:37.013,SEARCHING,20.940,6.546,1.000,0.00,0.00,50.34,6.538,8.801,4.670,6.022,2.288,0,0,SEARCHING,2.288,0.800,0.596,0.061
19:35:37.222,SEARCHING,21.041,6.669,1.000,0.00,0.00,51.05,6.356,8.801,4.767,5.867,2.335,0,0,SEARCHING,2.335,0.800,0.567,0.052
19:35:37.410,SEARCHING,21.141,6.794,1.000,0.00,0.00,51.54,6.184,8.475,4.868,6.022,2.359,0,0,SEARCHING,2.359,0.800,0.567,0.000
19:35:37.618,SEARCHING,21.240,6.920,1.000,0.00,0.00,51.54,6.184,8.801,4.767,6.022,2.384,0,0,SEARCHING,2.384,0.800,0.558,0.000
19:35:37.821,SEARCHING,21.315,7.014,1.000,0.00,0.00,51.54,6.184,8.801,4.868,6.022,2.359,0,0,SEARCHING,2.359,0.800,0.567,0.000
19:35:38.016,SEARCHING,21.439,7.170,1.000,0.00,0.00,51.54,6.184,8.801,4.868,6.022,2.384,0,0,SEARCHING,2.384,0.800,0.558,0.000
19:35:38.211,SEARCHING,21.539,7.295,1.000,0.00,0.00,51.54,6.184,8.801,4.868,6.022,2.384,0,0,SEARCHING,2.384,0.800,0.558,0.000
19:35:38.416,SEARCHING,21.638,7.421,1.000,0.00,0.00,51.54,6.184,8.801,4.767,6.022,2.335,0,0,SEARCHING,2.335,0.800,0.577,0.000
19:35:38.628,SEARCHING,21.738,7.546,1.000,0.00,0.00,51.54,6.184,8.801,4.868,6.184,2.384,0,0,SEARCHING,2.384,0.800,0.567,0.000
19:35:38.819,SEARCHING,21.838,7.671,1.000,0.00,0.00,51.54,6.022,8.475,4.974,6.022,2.409,0,0,SEARCHING,2.409,0.800,0.548,0.000
19:35:39.037,SEARCHING,21.937,7.797,1.000,0.00,0.00,51.54,6.022,8.475,4.974,6.022,2.384,0,0,SEARCHING,2.384,0.800,0.558,0.000
19:35:39.224,SEARCHING,22.037,7.922,1.000,0.00,0.00,51.54,5.867,8.475,4.974,6.184,2.409,0,0,SEARCHING,2.409,0.800,0.558,0.000
19:35:39.431,SEARCHING,22.136,8.047,1.000,0.00,0.00,51.54,6.022,8.172,5.085,6.184,2.460,0,0,SEARCHING,2.460,0.800,0.538,0.000
19:35:39.623,SEARCHING,22.236,8.172,1.000,0.00,0.00,51.54,5.867,8.172,5.085,6.022,2.409,0,0,SEARCHING,2.409,0.800,0.548,0.000
19:35:39.820,SEARCHING,22.335,8.298,1.000,0.00,0.00,51.54,5.867,7.890,5.085,6.184,2.409,0,0,SEARCHING,2.409,0.800,0.558,0.000
19:35:40.021,SEARCHING,22.435,8.423,1.000,0.00,0.00,51.54,5.720,8.172,5.321,6.022,2.434,0,0,SEARCHING,2.434,0.800,0.538,0.000
19:35:40.232,SEARCHING,22.534,8.548,1.000,0.00,0.00,51.54,5.448,8.172,5.448,6.022,2.359,0,0,SEARCHING,2.359,0.800,0.567,0.000
19:35:40.434,SEARCHING,22.634,8.674,1.000,0.00,0.00,51.54,5.448,7.890,5.321,6.022,2.460,0,0,SEARCHING,2.460,0.800,0.529,0.000
19:35:40.627,SEARCHING,22.733,8.799,1.000,0.00,0.00,51.54,5.448,7.627,5.720,6.022,2.384,0,0,SEARCHING,2.384,0.800,0.558,0.000
19:35:40.829,SEARCHING,22.833,8.924,1.000,0.00,0.00,51.54,5.200,7.381,6.022,6.022,2.384,0,0,SEARCHING,2.384,0.800,0.558,0.000
19:35:41.033,SEARCHING,22.932,9.049,1.000,0.00,0.00,51.54,5.200,7.381,6.184,6.022,2.409,0,0,SEARCHING,2.409,0.800,0.548,0.000
19:35:41.234,SEARCHING,23.032,9.175,1.000,0.00,0.00,51.54,5.200,7.381,6.730,6.022,2.460,0,0,SEARCHING,2.460,0.800,0.529,0.000
19:35:41.421,SEARCHING,23.131,9.300,1.000,0.00,0.00,51.40,5.200,6.934,7.627,6.022,2.460,0,0,SEARCHING,2.460,0.800,0.529,-0.061
19:35:41.629,SEARCHING,23.232,9.425,1.000,0.00,0.00,50.70,5.200,6.730,7.627,6.184,2.460,0,0,SEARCHING,2.460,0.800,0.538,-0.061
19:35:41.842,SEARCHING,23.334,9.548,1.000,0.00,0.00,50.01,5.321,6.730,7.381,6.022,2.434,0,0,SEARCHING,2.434,0.800,0.538,-0.052
19:35:42.026,SEARCHING,23.437,9.670,1.000,0.00,0.00,49.39,5.321,6.538,7.627,5.867,2.384,0,0,SEARCHING,2.384,0.800,0.548,-0.057
19:35:42.228,SEARCHING,23.542,9.791,1.000,0.00,0.00,48.75,5.321,6.356,7.627,6.022,2.434,0,0,SEARCHING,2.434,0.800,0.538,-0.057
19:35:42.430,SEARCHING,23.648,9.911,1.000,0.00,0.00,48.09,5.321,6.356,7.627,5.867,2.409,0,0,SEARCHING,2.409,0.800,0.538,-0.057
19:35:42.628,SEARCHING,23.755,10.029,1.000,0.00,0.00,47.43,5.448,6.356,7.627,5.867,2.434,0,0,SEARCHING,2.434,0.800,0.529,-0.052
19:35:42.841,SEARCHING,23.864,10.146,1.000,0.00,0.00,46.79,5.200,5.867,7.381,5.720,2.434,0,0,SEARCHING,2.434,0.800,0.519,-0.057
19:35:43.044,SEARCHING,23.974,10.262,1.000,0.00,0.00,46.13,5.200,6.184,7.381,5.720,2.460,0,0,SEARCHING,2.460,0.800,0.510,-0.057
19:35:43.238,SEARCHING,24.086,10.377,1.000,0.00,0.00,45.47,5.085,5.321,7.151,5.200,2.460,0,0,SEARCHING,2.460,0.800,0.471,-0.057
19:35:43.436,SEARCHING,24.199,10.491,1.000,0.00,0.00,44.82,5.200,5.581,7.151,5.448,2.434,0,0,SEARCHING,2.434,0.800,0.500,-0.052
19:35:43.634,SEARCHING,24.313,10.603,1.000,0.00,0.00,44.20,5.085,5.448,7.151,5.321,2.460,0,0,SEARCHING,2.460,0.800,0.481,-0.057
19:35:43.826,SEARCHING,24.428,10.714,1.000,0.00,0.00,43.56,5.085,5.581,6.934,5.200,2.384,0,0,SEARCHING,2.384,0.800,0.500,-0.052
19:35:44.037,SEARCHING,24.544,10.824,1.000,0.00,0.00,42.96,4.974,5.720,6.730,4.974,2.460,0,0,SEARCHING,2.460,0.800,0.452,-0.052
19:35:44.240,SEARCHING,24.662,10.932,1.000,0.00,0.00,42.36,4.868,6.538,6.538,5.321,2.409,0,0,SEARCHING,2.409,0.800,0.500,-0.052
19:35:44.439,SEARCHING,24.781,11.039,1.000,0.00,0.00,41.72,4.868,7.627,6.538,4.974,2.460,0,0,SEARCHING,2.460,0.800,0.452,-0.052
19:35:44.652,SEARCHING,24.901,11.145,1.000,0.00,0.00,41.22,4.974,7.890,6.356,5.581,2.409,0,0,SEARCHING,2.409,0.800,0.519,0.000
19:35:44.837,SEARCHING,25.021,11.251,1.000,0.00,0.00,41.16,4.974,8.172,6.356,6.022,2.434,0,0,SEARCHING,2.434,0.800,0.538,0.000
19:35:45.048,SEARCHING,25.142,11.356,1.000,0.00,0.00,40.98,4.974,8.172,6.356,6.022,2.460,0,0,SEARCHING,2.460,0.800,0.529,0.000
19:35:45.243,SEARCHING,25.263,11.461,1.000,0.00,0.00,40.98,4.974,7.890,6.356,6.184,2.460,0,0,SEARCHING,2.460,0.800,0.538,0.000
19:35:45.437,SEARCHING,25.383,11.565,1.000,0.00,0.00,40.98,4.767,7.890,6.356,6.022,2.434,0,0,SEARCHING,2.434,0.800,0.538,-0.052
19:35:45.642,SEARCHING,25.504,11.670,1.000,0.00,0.00,40.68,4.868,7.890,6.184,6.022,2.460,0,0,SEARCHING,2.460,0.800,0.529,0.000
19:35:45.837,SEARCHING,25.626,11.774,1.000,0.00,0.00,40.68,4.868,7.890,6.184,6.022,2.409,0,0,SEARCHING,2.409,0.800,0.548,0.000
19:35:46.040,SEARCHING,25.747,11.879,1.000,0.00,0.00,40.68,4.767,7.627,6.184,6.022,2.409,0,0,SEARCHING,2.409,0.800,0.548,0.000
19:35:46.235,SEARCHING,25.868,11.983,1.000,0.00,0.00,40.68,4.767,7.627,6.022,6.022,2.409,0,0,SEARCHING,2.409,0.800,0.548,0.000
19:35:46.447,SEARCHING,25.990,12.087,1.000,0.00,0.00,40.50,4.670,7.627,6.022,5.867,2.434,0,0,SEARCHING,2.434,0.800,0.529,0.000
19:35:46.653,SEARCHING,26.112,12.191,1.000,0.00,0.00,40.32,4.670,7.627,6.022,5.867,2.460,0,0,SEARCHING,2.460,0.800,0.519,0.000
19:35:46.846,SEARCHING,26.234,12.294,1.000,0.00,0.00,40.20,4.576,7.381,6.184,6.184,2.460,0,0,SEARCHING,2.460,0.800,0.538,-0.057
19:35:47.036,SEARCHING,26.356,12.397,1.000,0.00,0.00,39.76,4.670,7.381,6.022,6.022,2.434,0,0,SEARCHING,2.434,0.800,0.538,0.000
19:35:47.245,SEARCHING,26.479,12.499,1.000,0.00,0.00,39.76,4.576,7.151,5.867,6.022,2.434,0,0,SEARCHING,2.434,0.800,0.538,0.000
19:35:47.446,SEARCHING,26.602,12.602,1.000,0.00,0.00,39.64,4.576,7.151,6.022,6.022,2.460,0,0,SEARCHING,2.460,0.800,0.529,-0.052
19:35:47.644,SEARCHING,26.726,12.703,1.000,0.00,0.00,39.16,4.576,6.730,5.867,6.022,2.460,0,0,SEARCHING,2.460,0.800,0.529,0.000
19:35:47.850,SEARCHING,26.819,12.779,1.000,0.00,0.00,39.16,4.670,6.934,5.867,6.022,2.434,0,0,SEARCHING,2.434,0.800,0.538,0.000
19:35:48.047,SEARCHING,26.974,12.905,1.000,0.00,0.00,39.16,4.767,6.730,5.720,6.022,2.409,0,0,SEARCHING,2.409,0.800,0.548,0.000
19:35:48.246,SEARCHING,27.098,13.006,1.000,0.00,0.00,39.16,4.767,6.538,5.867,6.022,2.460,0,0,SEARCHING,2.460,0.800,0.529,0.000
19:35:48.448,SEARCHING,27.222,13.107,1.000,0.00,0.00,39.16,4.767,6.356,5.720,6.184,2.434,0,0,SEARCHING,2.434,0.800,0.548,0.000
19:35:48.638,SEARCHING,27.346,13.208,1.000,0.00,0.00,39.16,4.767,6.356,5.720,6.022,2.460,0,0,SEARCHING,2.460,0.800,0.529,0.000
19:35:48.857,SEARCHING,27.471,13.309,1.000,0.00,0.00,39.16,4.767,6.184,5.581,6.022,2.434,0,0,SEARCHING,2.434,0.800,0.538,0.000
19:35:49.046,SEARCHING,27.595,13.410,1.000,0.00,0.00,39.16,4.767,6.022,5.720,6.022,2.409,0,0,SEARCHING,2.409,0.800,0.548,0.000
19:35:49.269,SEARCHING,27.719,13.511,1.000,0.00,0.00,39.16,4.868,5.867,5.720,5.867,2.434,0,0,SEARCHING,2.434,0.800,0.529,0.000
19:35:49.463,SEARCHING,27.843,13.613,1.000,0.00,0.00,39.16,4.868,5.867,5.581,5.867,2.434,0,0,SEARCHING,2.434,0.800,0.529,0.000
19:35:49.665,SEARCHING,27.967,13.714,1.000,0.00,0.00,39.16,4.868,5.581,5.581,5.581,2.460,0,0,SEARCHING,2.460,0.800,0.500,0.000
19:35:49.854,SEARCHING,28.091,13.815,1.000,0.00,0.00,39.16,4.767,5.448,5.581,5.448,2.384,0,0,SEARCHING,2.384,0.800,0.519,0.000
19:35:50.055,SEARCHING,28.215,13.916,1.000,0.00,0.00,39.16,4.767,5.200,5.321,5.200,2.434,0,0,SEARCHING,2.434,0.800,0.481,0.000
19:35:50.255,SEARCHING,28.339,14.017,1.000,0.00,0.00,39.16,4.767,5.085,5.200,5.085,2.434,0,0,SEARCHING,2.434,0.800,0.471,0.000
19:35:50.457,SEARCHING,28.463,14.118,1.000,0.00,0.00,39.16,4.767,4.974,4.974,4.868,2.460,0,0,SEARCHING,2.460,0.800,0.442,0.000
19:35:50.677,SEARCHING,28.587,14.219,1.000,0.00,0.00,39.16,4.767,4.767,4.868,4.868,2.434,0,0,SEARCHING,2.434,0.800,0.452,0.000
19:35:50.856,SEARCHING,28.711,14.320,1.000,0.00,0.00,39.16,4.576,4.670,4.670,4.670,2.384,0,0,SEARCHING,2.384,0.800,0.452,0.000
19:35:51.060,SEARCHING,28.835,14.421,1.000,0.00,0.00,39.16,4.487,4.487,4.576,4.487,2.487,0,0,SEARCHING,2.487,0.800,0.394,0.000
19:35:51.252,SEARCHING,28.959,14.522,1.000,0.00,0.00,39.16,4.317,4.400,4.487,4.400,2.460,0,0,SEARCHING,2.460,0.800,0.394,0.000
19:35:51.459,SEARCHING,29.083,14.623,1.000,0.00,0.00,39.16,4.160,4.160,4.317,4.160,2.460,0,0,SEARCHING,2.460,0.800,0.365,0.000
19:35:51.655,SEARCHING,29.207,14.724,1.000,0.00,0.00,39.16,4.014,4.086,4.160,4.160,2.434,0,0,SEARCHING,2.434,0.800,0.375,0.000
19:35:51.867,SEARCHING,29.332,14.825,1.000,0.00,0.00,39.16,3.878,3.945,3.945,3.945,2.434,0,0,SEARCHING,2.434,0.800,0.346,0.000
19:35:52.057,SEARCHING,29.456,14.926,1.000,0.00,0.00,39.16,3.691,3.814,3.814,3.751,2.460,0,0,SEARCHING,2.460,0.800,0.308,0.000
19:35:52.263,SEARCHING,29.580,15.027,1.000,0.00,0.00,39.16,3.575,3.632,3.632,3.632,2.460,0,0,SEARCHING,2.460,0.800,0.288,0.000
19:35:52.463,SEARCHING,29.704,15.128,1.000,0.00,0.00,39.16,3.415,3.467,3.520,3.467,2.460,0,0,SEARCHING,2.460,0.800,0.260,0.000
19:35:52.665,SEARCHING,29.828,15.229,1.000,0.00,0.00,39.16,3.269,3.316,3.365,3.316,2.434,0,0,SEARCHING,2.434,0.800,0.240,0.000
19:35:52.867,SEARCHING,29.952,15.330,1.000,0.00,0.00,39.16,3.092,3.178,3.223,3.178,2.434,0,0,SEARCHING,2.434,0.800,0.212,0.000
19:35:53.062,SEARCHING,30.076,15.431,1.000,0.00,0.00,39.16,2.934,2.972,3.051,2.972,2.434,0,0,SEARCHING,2.434,0.800,0.163,0.000
19:35:53.260,SEARCHING,30.200,15.532,1.000,0.00,0.00,39.16,2.825,2.860,2.896,2.860,2.460,0,0,SEARCHING,2.460,0.800,0.125,0.000
19:35:53.461,SEARCHING,30.324,15.633,1.000,0.00,0.00,39.16,2.661,2.724,2.757,2.724,2.460,0,0,SEARCHING,2.460,0.800,0.087,0.000
19:35:53.662,SEARCHING,30.448,15.734,1.000,0.00,0.00,39.16,2.514,2.542,2.600,2.542,2.460,0,0,SEARCHING,2.460,0.800,0.029,0.000
19:35:53.873,SEARCHING,30.572,15.835,1.000,0.00,0.00,39.16,2.359,2.409,2.434,2.409,2.359,0,0,SEARCHING,2.359,0.771,0.019,0.000
19:35:54.078,SEARCHING,30.692,15.933,1.000,0.00,0.00,39.16,2.200,2.243,2.288,2.243,2.243,0,0,SEARCHING,2.200,0.718,0.000,0.000
19:35:54.276,SEARCHING,30.804,16.024,1.000,0.00,0.00,39.16,2.061,2.099,2.138,2.099,2.119,0,0,SEARCHING,2.061,0.672,-0.010,0.000
19:35:54.468,SEARCHING,30.909,16.110,1.000,0.00,0.00,39.16,1.956,1.990,2.025,1.973,1.973,0,0,SEARCHING,1.956,0.637,0.000,0.000
19:35:54.662,SEARCHING,31.008,16.190,1.000,0.00,0.00,39.16,1.816,1.845,1.891,1.845,1.845,0,0,SEARCHING,1.816,0.590,0.000,0.000
19:35:54.868,SEARCHING,31.100,16.265,1.000,0.00,0.00,39.16,1.708,1.733,1.774,1.733,1.733,0,0,SEARCHING,1.708,0.555,0.000,0.000
19:35:55.069,SEARCHING,31.185,16.335,1.000,0.00,0.00,39.16,1.600,1.611,1.658,1.611,1.623,0,0,SEARCHING,1.600,0.516,-0.010,0.000
19:35:55.275,SEARCHING,31.266,16.400,1.000,0.00,0.00,39.16,1.496,1.525,1.557,1.525,1.525,0,0,SEARCHING,1.496,0.488,0.000,0.000
19:35:55.476,SEARCHING,31.342,16.462,1.000,0.00,0.00,39.16,1.387,1.412,1.439,1.412,1.412,0,0,SEARCHING,1.387,0.452,0.000,0.000
19:35:55.672,SEARCHING,31.412,16.519,1.000,0.00,0.00,39.16,1.300,1.323,1.346,1.315,1.323,0,0,SEARCHING,1.300,0.423,-0.010,0.000
19:35:55.872,SEARCHING,31.478,16.573,1.000,0.00,0.00,39.16,1.224,1.250,1.278,1.250,1.250,0,0,SEARCHING,1.224,0.400,0.000,0.000
19:35:56.065,SEARCHING,31.541,16.624,1.000,0.00,0.00,39.16,1.138,1.156,1.179,1.162,1.162,0,0,SEARCHING,1.138,0.370,0.000,0.000
19:35:56.266,SEARCHING,31.598,16.670,1.000,0.00,0.00,39.16,1.079,1.095,1.116,1.095,1.095,0,0,SEARCHING,1.079,0.350,0.000,0.000
19:35:56.474,SEARCHING,31.652,16.715,1.000,0.00,0.00,39.16,1.008,1.026,1.045,1.026,1.026,0,0,SEARCHING,1.008,0.328,0.000,0.000
19:35:56.788,SEARCHING,31.703,16.756,1.000,0.00,0.00,39.16,0.942,0.961,0.978,0.961,0.957,0,0,SEARCHING,0.942,0.308,0.010,0.000
19:35:56.954,SEARCHING,31.728,16.776,1.000,0.00,0.00,39.16,0.923,0.938,0.957,0.942,0.938,0,0,SEARCHING,0.923,0.300,0.010,0.000
19:35:57.146,SEARCHING,31.752,16.796,1.000,0.00,0.00,39.16,0.904,0.919,0.938,0.919,0.919,0,0,SEARCHING,0.904,0.294,0.000,0.000
19:35:57.488,SEARCHING,31.799,16.834,1.000,0.00,0.00,39.16,0.803,0.817,0.835,0.817,0.817,0,0,SEARCHING,0.803,0.262,0.000,0.000
19:35:57.649,INSPECTING,31.822,16.853,1.000,0.00,0.00,39.16,0.755,0.770,0.784,0.770,0.768,0,0,RIGHT,0.784,0.150,0.000,-1.100
19:35:57.990,INSPECTING,31.888,16.907,1.000,0.00,0.00,39.16,0.665,0.679,0.691,0.679,0.679,0,0,RIGHT,0.691,0.150,0.000,-1.100
19:35:58.160,INSPECTING,31.917,16.930,1.000,0.00,0.00,39.16,0.620,0.652,0.687,0.652,0.650,0,0,RIGHT,0.687,0.150,0.000,-1.100
19:35:58.326,INSPECTING,31.933,16.942,1.000,0.00,0.00,30.96,0.579,0.637,0.708,0.639,0.639,0,0,RIGHT,0.708,0.150,0.000,-1.100
19:35:58.653,INSPECTING,31.974,16.959,1.000,0.00,0.00,12.06,0.553,0.681,0.883,0.677,0.679,0,0,RIGHT,0.883,0.150,0.000,-1.100
19:35:59.021,SEARCHING,32.026,16.960,1.000,0.00,0.00,-10.00,0.637,0.938,1.788,0.946,0.942,0,0,SEARCHING,0.637,0.300,0.010,-0.505
19:35:59.143,SEARCHING,32.048,16.955,1.000,0.00,0.00,-19.46,0.724,1.156,2.409,1.162,1.162,0,0,SEARCHING,0.724,0.370,0.000,-0.966
19:35:59.322,SEARCHING,32.082,16.938,1.000,0.00,0.00,-32.69,0.687,1.079,2.359,1.084,1.079,0,0,SEARCHING,0.687,0.345,0.010,-1.031
19:35:59.563,SEARCHING,32.139,16.912,1.000,0.00,0.00,-24.71,0.698,1.144,2.311,1.156,1.150,0,0,SEARCHING,0.698,0.366,0.010,-1.001
19:35:59.717,SEARCHING,32.210,16.872,1.000,0.00,0.00,-35.11,0.784,1.467,2.311,1.476,1.476,0,0,SEARCHING,0.784,0.469,0.000,-0.843
19:35:59.903,SEARCHING,32.283,16.805,1.000,0.00,0.00,-49.28,1.012,2.384,2.359,2.384,2.335,0,0,SEARCHING,1.012,0.763,0.019,-0.564
19:36:00.094,SEARCHING,32.407,16.598,1.000,0.00,0.00,-65.33,2.025,2.200,2.409,2.179,2.179,0,0,SEARCHING,2.025,0.704,0.000,-0.079
19:36:00.293,SEARCHING,32.465,16.467,1.000,0.00,0.00,-67.19,1.845,2.043,2.311,2.061,2.061,0,0,SEARCHING,1.845,0.654,0.000,-0.109
19:36:00.500,SEARCHING,32.515,16.344,1.000,0.00,0.00,-68.41,1.760,1.973,2.222,1.973,1.973,0,0,SEARCHING,1.760,0.631,0.000,-0.118
19:36:00.692,SEARCHING,32.560,16.225,1.000,0.00,0.00,-69.76,1.611,1.860,2.080,1.860,1.860,0,0,SEARCHING,1.611,0.595,0.000,-0.140
19:36:00.891,SEARCHING,32.601,16.112,1.000,0.00,0.00,-71.30,1.546,1.774,2.007,1.774,1.774,0,0,SEARCHING,1.546,0.568,0.000,-0.149
19:36:01.082,SEARCHING,32.636,16.005,1.000,0.00,0.00,-73.02,1.430,1.670,1.923,1.670,1.670,0,0,SEARCHING,1.430,0.534,0.000,-0.179
19:36:01.285,SEARCHING,32.665,15.902,1.000,0.00,0.00,-75.03,1.346,1.578,1.831,1.589,1.578,0,0,SEARCHING,1.346,0.505,0.010,-0.197
19:36:01.487,SEARCHING,32.690,15.803,1.000,0.00,0.00,-77.25,1.278,1.505,1.774,1.505,1.505,0,0,SEARCHING,1.278,0.482,0.000,-0.219
19:36:01.694,SEARCHING,32.709,15.708,1.000,0.00,0.00,-79.72,1.244,1.448,1.733,1.448,1.448,0,0,SEARCHING,1.244,0.463,0.000,-0.227
19:36:01.887,SEARCHING,32.721,15.639,1.000,0.00,0.00,-81.62,1.179,1.395,1.695,1.387,1.395,0,0,SEARCHING,1.179,0.446,-0.010,-0.258
19:36:02.097,SEARCHING,32.734,15.528,1.000,0.00,0.00,-85.34,1.111,1.338,1.658,1.338,1.338,0,0,SEARCHING,1.111,0.428,0.000,-0.297
19:36:02.285,SEARCHING,32.739,15.443,1.000,0.00,0.00,-88.77,1.054,1.300,1.682,1.300,1.300,0,0,SEARCHING,1.054,0.416,0.000,-0.354
19:36:02.493,SEARCHING,32.738,15.360,1.000,0.00,0.00,-92.83,1.022,1.278,1.802,1.278,1.271,0,0,SEARCHING,1.022,0.409,0.010,-0.424
19:36:02.692,SEARCHING,32.731,15.278,1.000,0.00,0.00,-97.78,0.991,1.285,2.043,1.285,1.285,0,0,SEARCHING,0.991,0.411,0.000,-0.520
19:36:02.902,SEARCHING,32.716,15.197,1.000,0.00,0.00,-103.66,0.986,1.315,2.200,1.315,1.323,0,0,SEARCHING,0.986,0.421,-0.010,-0.559
19:36:03.096,SEARCHING,32.692,15.116,1.000,0.00,0.00,-110.02,0.999,1.430,2.487,1.430,1.430,0,0,SEARCHING,0.999,0.458,0.000,-0.599
19:36:03.288,SEARCHING,32.655,15.031,1.000,0.00,0.00,-116.85,1.045,1.774,3.223,1.788,1.747,0,0,SEARCHING,1.045,0.568,0.029,-0.647
19:36:03.497,SEARCHING,32.598,14.932,1.000,0.00,0.00,-124.22,1.122,1.990,3.814,1.973,1.990,0,0,SEARCHING,1.122,0.637,-0.010,-0.629
19:36:03.696,SEARCHING,32.520,14.831,1.000,0.00,0.00,-131.24,1.430,2.409,4.868,2.409,2.409,0,0,SEARCHING,1.430,0.771,0.000,-0.494
19:36:03.893,SEARCHING,32.415,14.722,1.000,0.00,0.00,-136.92,1.578,3.051,7.627,3.011,2.434,0,0,SEARCHING,1.578,0.800,0.173,-0.503
19:36:04.088,SEARCHING,32.294,14.618,1.000,0.00,0.00,-142.53,1.760,3.575,7.151,3.575,2.409,0,0,SEARCHING,1.760,0.800,0.298,-0.428
19:36:04.310,SEARCHING,32.163,14.526,1.000,0.00,0.00,-147.39,2.099,4.160,7.151,4.160,2.409,0,0,SEARCHING,2.099,0.800,0.385,-0.337
19:36:04.500,SEARCHING,32.025,14.444,1.000,0.00,0.00,-151.33,2.434,4.974,7.627,4.160,2.460,0,0,SEARCHING,2.434,0.800,0.365,-0.280
19:36:04.692,SEARCHING,31.883,14.371,1.000,0.00,0.00,-154.52,2.757,7.627,7.381,5.867,2.460,0,0,SEARCHING,2.460,0.800,0.519,-0.227
19:36:04.893,SEARCHING,31.737,14.305,1.000,0.00,0.00,-157.19,2.860,7.627,6.934,6.022,2.409,0,0,SEARCHING,2.409,0.800,0.548,-0.205
19:36:05.115,SEARCHING,31.589,14.246,1.000,0.00,0.00,-159.51,3.178,7.890,6.730,6.022,2.434,0,0,SEARCHING,2.434,0.800,0.538,-0.166
19:36:05.299,SEARCHING,31.438,14.192,1.000,0.00,0.00,-161.44,3.051,7.890,6.356,6.022,2.460,0,0,SEARCHING,2.460,0.800,0.529,-0.170
19:36:05.503,SEARCHING,31.286,14.143,1.000,0.00,0.00,-163.33,3.269,8.172,6.022,6.022,2.460,0,0,SEARCHING,2.460,0.800,0.529,-0.140
19:36:05.702,SEARCHING,31.132,14.099,1.000,0.00,0.00,-164.84,5.085,8.172,5.867,6.022,2.460,0,0,SEARCHING,2.460,0.800,0.529,0.000
19:36:05.913,SEARCHING,30.977,14.058,1.000,0.00,0.00,-165.03,7.627,8.172,5.581,5.867,2.434,0,0,SEARCHING,2.434,0.800,0.529,0.000
19:36:06.112,SEARCHING,30.823,14.017,1.000,0.00,0.00,-165.03,7.627,7.890,5.720,6.022,2.384,0,0,SEARCHING,2.384,0.800,0.558,0.000
19:36:06.299,SEARCHING,30.668,13.975,1.000,0.00,0.00,-164.90,7.627,7.890,5.448,6.184,2.409,0,0,SEARCHING,2.409,0.800,0.558,0.052
19:36:06.502,SEARCHING,30.514,13.933,1.000,0.00,0.00,-164.41,7.627,7.890,5.581,6.022,2.434,0,0,SEARCHING,2.434,0.800,0.538,0.000
19:36:06.709,SEARCHING,30.360,13.890,1.000,0.00,0.00,-164.29,7.627,7.890,5.581,6.022,2.460,0,0,SEARCHING,2.460,0.800,0.529,0.000
19:36:06.912,SEARCHING,30.206,13.846,1.000,0.00,0.00,-163.99,7.627,7.890,5.448,6.184,2.434,0,0,SEARCHING,2.434,0.800,0.548,0.052
19:36:07.097,SEARCHING,30.052,13.801,1.000,0.00,0.00,-163.37,7.627,7.890,5.448,6.022,2.460,0,0,SEARCHING,2.460,0.800,0.529,0.052
19:36:07.307,SEARCHING,29.899,13.755,1.000,0.00,0.00,-162.75,7.627,7.627,5.321,6.022,2.434,0,0,SEARCHING,2.434,0.800,0.538,0.057
19:36:07.516,SEARCHING,29.746,13.707,1.000,0.00,0.00,-162.13,7.627,7.890,5.581,6.022,2.434,0,0,SEARCHING,2.434,0.800,0.538,0.000
19:36:07.710,SEARCHING,29.594,13.657,1.000,0.00,0.00,-161.95,7.627,7.627,5.321,6.022,2.434,0,0,SEARCHING,2.434,0.800,0.538,0.057
19:36:07.907,SEARCHING,29.442,13.607,1.000,0.00,0.00,-161.50,7.627,8.172,5.321,6.022,2.434,0,0,SEARCHING,2.434,0.800,0.538,0.057
19:36:08.103,SEARCHING,29.291,13.556,1.000,0.00,0.00,-160.88,7.890,7.627,5.321,6.022,2.460,0,0,SEARCHING,2.460,0.800,0.529,0.061
19:36:08.305,SEARCHING,29.140,13.503,1.000,0.00,0.00,-160.21,7.627,7.381,5.448,6.022,2.434,0,0,SEARCHING,2.434,0.800,0.538,0.052
19:36:08.518,SEARCHING,28.990,13.448,1.000,0.00,0.00,-159.57,7.627,7.381,5.321,6.022,2.409,0,0,SEARCHING,2.409,0.800,0.548,0.057
19:36:08.708,SEARCHING,28.840,13.391,1.000,0.00,0.00,-158.87,7.627,7.627,5.321,6.022,2.434,0,0,SEARCHING,2.434,0.800,0.538,0.057
19:36:08.916,SEARCHING,28.691,13.332,1.000,0.00,0.00,-158.17,7.627,7.627,5.321,6.022,2.460,0,0,SEARCHING,2.460,0.800,0.529,0.057
19:36:09.105,SEARCHING,28.543,13.272,1.000,0.00,0.00,-157.50,7.381,7.627,5.321,6.022,2.434,0,0,SEARCHING,2.434,0.800,0.538,0.052
19:36:09.315,SEARCHING,28.395,13.210,1.000,0.00,0.00,-156.87,7.381,7.381,5.321,5.867,2.434,0,0,SEARCHING,2.434,0.800,0.529,0.052
19:36:09.508,SEARCHING,28.249,13.147,1.000,0.00,0.00,-156.27,7.381,7.890,5.200,5.867,2.409,0,0,SEARCHING,2.409,0.800,0.538,0.057
19:36:09.724,SEARCHING,28.102,13.082,1.000,0.00,0.00,-155.65,7.381,7.627,5.321,5.867,2.384,0,0,SEARCHING,2.384,0.800,0.548,0.052
19:36:09.922,SEARCHING,27.957,13.015,1.000,0.00,0.00,-155.05,7.151,8.172,5.085,5.867,2.460,0,0,SEARCHING,2.460,0.800,0.519,0.057
19:36:10.124,SEARCHING,27.812,12.947,1.000,0.00,0.00,-154.53,7.151,7.890,5.200,5.867,2.434,0,0,SEARCHING,2.434,0.800,0.529,0.052
19:36:10.319,SEARCHING,27.668,12.877,1.000,0.00,0.00,-153.90,7.381,7.627,5.200,5.867,2.409,0,0,SEARCHING,2.409,0.800,0.538,0.057
19:36:10.530,SEARCHING,27.525,12.806,1.000,0.00,0.00,-153.25,7.151,7.627,5.321,6.022,2.434,0,0,SEARCHING,2.434,0.800,0.538,0.000
19:36:10.715,SEARCHING,27.382,12.734,1.000,0.00,0.00,-153.05,7.151,7.627,5.085,6.022,2.409,0,0,SEARCHING,2.409,0.800,0.548,0.057
19:36:10.914,SEARCHING,27.240,12.661,1.000,0.00,0.00,-152.60,6.022,7.381,4.974,6.184,2.434,0,0,SEARCHING,2.434,0.800,0.548,0.000
19:36:11.119,SEARCHING,27.098,12.587,1.000,0.00,0.00,-152.28,5.867,7.627,4.974,6.022,2.384,0,0,SEARCHING,2.384,0.800,0.558,0.000
19:36:11.314,SEARCHING,26.956,12.512,1.000,0.00,0.00,-152.10,5.867,7.381,4.974,5.867,2.409,0,0,SEARCHING,2.409,0.800,0.538,0.000
19:36:11.516,SEARCHING,26.815,12.437,1.000,0.00,0.00,-151.98,6.730,7.381,4.974,6.022,2.434,0,0,SEARCHING,2.434,0.800,0.538,0.052
19:36:11.725,SEARCHING,26.674,12.362,1.000,0.00,0.00,-151.68,6.356,7.381,4.974,6.022,2.409,0,0,SEARCHING,2.409,0.800,0.548,0.000
19:36:11.919,SEARCHING,26.533,12.286,1.000,0.00,0.00,-151.55,6.730,6.934,4.868,5.720,2.434,0,0,SEARCHING,2.434,0.800,0.519,0.057
19:36:12.114,SEARCHING,26.393,12.209,1.000,0.00,0.00,-150.90,6.356,7.151,4.868,5.867,2.409,0,0,SEARCHING,2.409,0.800,0.538,0.000
19:36:12.339,SEARCHING,26.253,12.131,1.000,0.00,0.00,-150.64,6.538,6.934,4.767,6.022,2.434,0,0,SEARCHING,2.434,0.800,0.538,0.057
19:36:12.512,SEARCHING,26.114,12.052,1.000,0.00,0.00,-150.00,6.730,6.730,4.868,5.867,2.409,0,0,SEARCHING,2.409,0.800,0.538,0.057
19:36:12.719,SEARCHING,25.976,11.971,1.000,0.00,0.00,-149.61,6.356,6.934,4.868,5.867,2.384,0,0,SEARCHING,2.384,0.800,0.548,0.000
19:36:12.923,SEARCHING,25.838,11.890,1.000,0.00,0.00,-149.49,6.538,6.934,4.767,5.867,2.409,0,0,SEARCHING,2.409,0.800,0.538,0.057
19:36:13.122,SEARCHING,25.700,11.808,1.000,0.00,0.00,-148.85,6.022,6.730,4.767,6.022,2.384,0,0,SEARCHING,2.384,0.800,0.558,0.000
19:36:13.317,SEARCHING,25.564,11.725,1.000,0.00,0.00,-148.66,6.538,6.538,4.767,5.720,2.409,0,0,SEARCHING,2.409,0.800,0.529,0.057
19:36:13.519,SEARCHING,25.427,11.641,1.000,0.00,0.00,-148.14,6.356,6.184,4.974,5.867,2.409,0,0,SEARCHING,2.409,0.800,0.538,0.000
19:36:13.724,SEARCHING,25.291,11.557,1.000,0.00,0.00,-147.94,6.356,6.184,5.200,5.867,2.409,0,0,SEARCHING,2.409,0.800,0.538,0.000
19:36:13.929,SEARCHING,25.156,11.472,1.000,0.00,0.00,-147.94,6.356,6.184,5.867,5.867,2.434,0,0,SEARCHING,2.434,0.800,0.529,0.000
19:36:14.119,SEARCHING,25.020,11.387,1.000,0.00,0.00,-147.94,6.184,6.022,6.022,5.720,2.409,0,0,SEARCHING,2.409,0.800,0.529,0.000
19:36:14.326,SEARCHING,24.885,11.302,1.000,0.00,0.00,-147.94,5.867,5.867,6.022,5.720,2.335,0,0,SEARCHING,2.335,0.800,0.558,0.000
19:36:14.532,SEARCHING,24.749,11.217,1.000,0.00,0.00,-147.94,5.720,5.720,6.022,5.720,2.335,0,0,SEARCHING,2.335,0.800,0.558,0.000
19:36:14.728,SEARCHING,24.614,11.132,1.000,0.00,0.00,-147.94,5.720,5.720,5.867,5.720,2.384,0,0,SEARCHING,2.384,0.800,0.538,0.000
19:36:14.932,SEARCHING,24.478,11.047,1.000,0.00,0.00,-147.94,5.321,5.448,5.720,5.448,2.409,0,0,SEARCHING,2.409,0.800,0.510,0.000
19:36:15.131,SEARCHING,24.342,10.962,1.000,0.00,0.00,-147.94,4.868,5.200,5.581,5.321,2.335,0,0,SEARCHING,2.335,0.800,0.529,0.000
19:36:15.328,SEARCHING,24.207,10.877,1.000,0.00,0.00,-147.94,4.974,5.085,5.448,5.085,2.359,0,0,SEARCHING,2.359,0.800,0.500,0.000
19:36:15.544,SEARCHING,24.071,10.792,1.000,0.00,0.00,-147.94,4.767,4.974,5.321,4.868,2.359,0,0,SEARCHING,2.359,0.800,0.481,0.000
19:36:15.727,SEARCHING,23.936,10.707,1.000,0.00,0.00,-147.94,4.767,4.868,5.085,4.974,2.335,0,0,SEARCHING,2.335,0.800,0.500,0.000
19:36:15.923,SEARCHING,23.800,10.622,1.000,0.00,0.00,-147.94,4.487,4.487,4.974,4.487,2.335,0,0,SEARCHING,2.335,0.800,0.452,0.000
19:36:16.132,SEARCHING,23.664,10.537,1.000,0.00,0.00,-147.94,4.400,4.400,4.767,4.487,2.359,0,0,SEARCHING,2.359,0.800,0.442,0.000
19:36:16.324,SEARCHING,23.529,10.453,1.000,0.00,0.00,-147.94,4.237,4.237,4.670,4.237,2.359,0,0,SEARCHING,2.359,0.800,0.413,0.000
19:36:16.544,SEARCHING,23.393,10.368,1.000,0.00,0.00,-147.94,4.160,4.160,4.487,4.160,2.335,0,0,SEARCHING,2.335,0.800,0.413,0.000
19:36:16.743,SEARCHING,23.258,10.283,1.000,0.00,0.00,-147.94,4.014,4.014,4.400,4.086,2.335,0,0,SEARCHING,2.335,0.800,0.404,0.000
19:36:16.950,SEARCHING,23.122,10.198,1.000,0.00,0.00,-147.94,3.691,3.520,4.317,3.575,2.266,0,0,SEARCHING,2.266,0.800,0.356,0.000
19:36:17.139,SEARCHING,22.986,10.113,1.000,0.00,0.00,-147.94,3.520,3.691,4.160,3.520,2.288,0,0,SEARCHING,2.288,0.800,0.337,0.000
19:36:17.336,SEARCHING,22.851,10.028,1.000,0.00,0.00,-147.94,3.520,3.751,4.086,3.632,2.288,0,0,SEARCHING,2.288,0.800,0.356,0.000
19:36:17.538,SEARCHING,22.715,9.943,1.000,0.00,0.00,-147.94,3.316,3.691,3.945,3.751,2.266,0,0,SEARCHING,2.266,0.800,0.385,0.000
19:36:17.764,SEARCHING,22.580,9.858,1.000,0.00,0.00,-147.94,3.178,3.316,3.878,3.691,2.288,0,0,SEARCHING,2.288,0.800,0.365,-0.057
19:36:17.953,SEARCHING,22.444,9.773,1.000,0.00,0.00,-148.33,2.896,3.365,3.814,3.751,2.288,0,0,SEARCHING,2.288,0.800,0.375,-0.083
19:36:18.156,SEARCHING,22.307,9.690,1.000,0.00,0.00,-149.16,2.724,3.878,3.751,3.945,2.288,0,0,SEARCHING,2.288,0.800,0.404,-0.101
19:36:18.341,SEARCHING,22.169,9.609,1.000,0.00,0.00,-150.17,2.724,3.814,3.575,3.632,2.288,0,0,SEARCHING,2.288,0.800,0.356,-0.087
19:36:18.538,SEARCHING,22.030,9.531,1.000,0.00,0.00,-151.25,2.542,3.575,3.520,3.751,2.243,0,0,SEARCHING,2.243,0.800,0.394,-0.109
19:36:18.747,SEARCHING,21.889,9.455,1.000,0.00,0.00,-152.53,2.359,3.269,3.415,3.520,2.179,0,0,SEARCHING,2.179,0.800,0.385,-0.131
19:36:18.947,SEARCHING,21.782,9.401,1.000,0.00,0.00,-153.61,2.200,3.223,3.269,3.415,2.179,0,0,SEARCHING,2.179,0.800,0.365,-0.149
19:36:19.143,SEARCHING,21.601,9.315,1.000,0.00,0.00,-155.71,0.326,2.790,3.051,3.223,2.200,0,0,SEARCHING,0.326,0.800,0.317,-2.740
19:36:19.348,SEARCHING,21.450,9.267,1.000,0.00,0.00,-171.95,2.896,3.467,2.896,3.467,2.200,0,0,SEARCHING,2.200,0.800,0.365,0.000
19:36:19.541,SEARCHING,21.291,9.244,1.000,0.00,0.00,-171.95,2.724,3.223,2.790,3.178,2.200,0,0,SEARCHING,2.200,0.800,0.308,0.000
19:36:19.751,SEARCHING,21.133,9.222,1.000,0.00,0.00,-171.95,2.542,3.011,2.571,3.011,2.200,0,0,SEARCHING,2.200,0.800,0.269,0.000
19:36:19.942,SEARCHING,20.974,9.199,1.000,0.00,0.00,-171.95,2.359,2.896,2.434,2.896,2.179,0,0,SEARCHING,2.179,0.800,0.250,0.000
19:36:20.147,SEARCHING,20.816,9.177,1.000,0.00,0.00,-171.95,2.288,2.825,2.311,2.790,2.179,0,0,SEARCHING,2.179,0.800,0.221,0.000
19:36:22.079,SEARCHING,20.697,9.160,1.000,0.00,0.00,-171.95,2.200,2.724,2.200,2.692,2.200,0,0,SEARCHING,2.200,0.800,0.183,0.000
19:36:22.268,SEARCHING,20.459,9.127,1.000,0.00,0.00,-171.95,1.845,2.359,1.802,2.359,2.179,0,0,SEARCHING,1.802,0.755,0.077,0.000
19:36:22.459,SEARCHING,20.223,9.093,1.000,0.00,0.00,-171.95,1.720,2.243,1.708,2.243,2.200,0,0,SEARCHING,1.708,0.718,0.019,0.000
19:36:22.643,SEARCHING,20.002,9.062,1.000,0.00,0.00,-171.75,2.630,2.119,1.589,2.099,2.119,0,0,SEARCHING,1.589,0.678,-0.010,0.249
19:36:22.824,SEARCHING,19.834,9.031,1.000,0.00,0.00,-167.13,4.086,2.119,1.557,2.099,2.099,0,0,SEARCHING,1.557,0.678,0.000,0.398
19:36:23.023,SEARCHING,19.703,8.996,1.000,0.00,0.00,-163.49,1.395,2.200,1.557,2.159,2.179,0,0,SEARCHING,1.395,0.704,-0.010,-0.074
19:36:23.213,SEARCHING,19.570,8.957,1.000,0.00,0.00,-162.85,2.972,2.043,1.467,2.061,2.080,0,0,SEARCHING,1.467,0.654,-0.010,0.345
19:36:23.423,SEARCHING,19.444,8.914,1.000,0.00,0.00,-160.39,1.204,2.159,1.457,2.159,2.007,0,0,SEARCHING,1.204,0.691,0.077,-0.144
19:36:23.625,SEARCHING,19.316,8.870,1.000,0.00,0.00,-160.76,2.692,1.990,1.387,1.990,1.956,0,0,SEARCHING,1.387,0.637,0.019,0.350
19:36:23.829,SEARCHING,19.196,8.824,1.000,0.00,0.00,-156.80,1.567,1.973,1.378,1.973,1.907,0,0,SEARCHING,1.378,0.631,0.038,0.087
19:36:24.027,SEARCHING,19.081,8.772,1.000,0.00,0.00,-155.18,1.330,1.907,1.378,1.956,1.907,0,0,SEARCHING,1.330,0.610,0.029,0.000
19:36:24.221,SEARCHING,18.972,8.722,1.000,0.00,0.00,-155.18,1.623,5.720,1.300,7.381,5.448,0,0,SEARCHING,1.300,0.800,-0.037,0.153
19:36:24.428,SEARCHING,18.841,8.660,1.000,0.00,0.00,-153.88,1.611,7.890,1.264,7.381,5.720,0,0,SEARCHING,1.264,0.800,-0.063,0.170
19:36:24.625,SEARCHING,18.699,8.587,1.000,0.00,0.00,-151.89,1.496,6.538,1.244,5.867,5.200,0,0,SEARCHING,1.244,0.800,-0.101,0.135
19:36:24.826,SEARCHING,18.559,8.510,1.000,0.00,0.00,-150.24,1.536,5.720,1.204,5.321,3.945,0,0,SEARCHING,1.204,0.800,0.144,0.179
19:36:25.028,SEARCHING,18.421,8.429,1.000,0.00,0.00,-148.39,1.476,4.086,1.167,4.670,2.790,0,0,SEARCHING,1.167,0.800,0.317,0.179
19:36:25.230,SEARCHING,18.286,8.342,1.000,0.00,0.00,-143.39,1.346,3.467,8.801,4.086,2.200,0,0,SEARCHING,1.346,0.800,0.462,-0.629
19:36:25.429,SEARCHING,18.165,8.244,1.000,0.00,0.00,-144.51,1.111,2.571,10.000,3.134,1.720,0,0,SEARCHING,1.111,0.800,0.577,-0.800
19:36:25.641,SEARCHING,18.031,8.164,1.000,0.00,0.00,-153.75,1.860,6.538,10.000,6.356,4.487,0,0,SEARCHING,1.860,0.800,0.144,-0.438
19:36:25.826,SEARCHING,17.884,8.100,1.000,0.00,0.00,-159.19,2.222,9.949,0.317,7.890,8.172,0,0,SEARCHING,0.317,0.800,-0.051,2.705
19:36:26.036,SEARCHING,17.741,8.030,1.000,0.00,0.00,-145.77,1.496,2.934,10.000,3.575,2.222,0,0,SEARCHING,1.496,0.800,0.375,-0.569
19:36:26.227,SEARCHING,17.606,7.945,1.000,0.00,0.00,-151.28,1.708,5.321,10.000,4.868,3.814,0,0,SEARCHING,1.708,0.800,0.125,-0.486
19:36:26.429,SEARCHING,17.462,7.875,1.000,0.00,0.00,-156.89,1.939,7.890,10.000,7.151,5.867,0,0,SEARCHING,1.939,0.800,0.114,-0.416
19:36:26.626,SEARCHING,17.313,7.818,1.000,0.00,0.00,-161.60,2.434,10.000,10.000,10.000,10.000,0,0,SEARCHING,2.434,0.800,0.074,-0.311
19:36:26.826,SEARCHING,17.159,7.772,1.000,0.00,0.00,-165.07,4.317,10.000,10.000,10.000,10.000,0,0,SEARCHING,4.317,0.800,0.099,-0.132
19:36:27.021,SEARCHING,17.004,7.733,1.000,0.00,0.00,-166.68,4.868,10.000,10.000,10.000,10.000,0,0,SEARCHING,4.868,0.800,0.119,-0.105
19:36:27.229,SEARCHING,16.848,7.698,1.000,0.00,0.00,-167.86,5.448,10.000,10.000,10.000,10.000,0,0,SEARCHING,5.448,0.800,0.135,-0.084
19:36:27.431,SEARCHING,16.691,7.665,1.000,0.00,0.00,-168.82,6.184,10.000,10.000,10.000,10.000,0,0,SEARCHING,6.184,0.800,0.145,-0.062
19:36:27.643,SEARCHING,16.534,7.635,1.000,0.00,0.00,-169.54,6.730,10.000,10.000,10.000,10.000,0,0,SEARCHING,6.730,0.800,0.150,0.000
19:36:27.846,SEARCHING,16.377,7.607,1.000,0.00,0.00,-169.74,6.934,10.000,10.000,10.000,10.000,0,0,SEARCHING,6.934,0.800,0.148,0.000
19:36:28.032,SEARCHING,16.219,7.578,1.000,0.00,0.00,-169.74,6.934,10.000,10.000,10.000,10.000,0,0,SEARCHING,6.934,0.800,0.141,0.000
19:36:28.237,SEARCHING,16.062,7.550,1.000,0.00,0.00,-169.74,7.151,10.000,10.000,10.000,10.000,0,0,SEARCHING,7.151,0.800,0.128,0.000
19:36:28.430,SEARCHING,15.905,7.521,1.000,0.00,0.00,-169.74,7.151,10.000,10.000,10.000,10.000,0,0,SEARCHING,7.151,0.800,0.110,0.000
19:36:28.655,SEARCHING,15.747,7.493,1.000,0.00,0.00,-169.74,7.381,10.000,10.000,10.000,10.000,0,0,SEARCHING,7.381,0.800,0.088,0.000
19:36:28.834,SEARCHING,15.590,7.464,1.000,0.00,0.00,-169.74,7.381,10.000,10.000,10.000,10.000,0,0,SEARCHING,7.381,0.800,0.062,0.000
19:36:29.033,SEARCHING,15.432,7.436,1.000,0.00,0.00,-169.74,7.627,10.000,10.000,10.000,10.000,0,0,SEARCHING,7.627,0.800,0.033,0.000
19:36:29.240,SEARCHING,15.275,7.407,1.000,0.00,0.00,-169.74,7.627,10.000,10.000,10.000,10.000,0,0,SEARCHING,7.627,0.800,0.003,0.000
19:36:29.484,SEARCHING,15.117,7.379,1.000,0.00,0.00,-169.74,7.627,10.000,10.000,10.000,10.000,0,0,SEARCHING,7.627,0.800,-0.026,0.000
19:36:29.659,SEARCHING,14.960,7.350,1.000,0.00,0.00,-169.74,8.172,10.000,10.000,10.000,10.000,0,0,SEARCHING,8.172,0.800,-0.055,0.000
19:36:29.839,SEARCHING,14.802,7.322,1.000,0.00,0.00,-169.74,8.172,10.000,10.000,10.000,10.000,0,0,SEARCHING,8.172,0.800,-0.082,0.000
19:36:30.037,SEARCHING,14.645,7.293,1.000,0.00,0.00,-169.74,7.627,10.000,10.000,10.000,10.000,0,0,SEARCHING,7.627,0.800,-0.105,0.000
19:36:30.232,SEARCHING,14.488,7.265,1.000,0.00,0.00,-169.74,7.627,10.000,10.000,10.000,10.000,0,0,SEARCHING,7.627,0.800,-0.124,0.000
19:36:30.433,SEARCHING,14.330,7.236,1.000,0.00,0.00,-169.74,7.627,10.000,10.000,10.000,10.000,0,0,SEARCHING,7.627,0.800,-0.139,0.000
19:36:30.638,SEARCHING,14.173,7.208,1.000,0.00,0.00,-169.74,7.890,10.000,10.000,10.000,10.000,0,0,SEARCHING,7.890,0.800,-0.147,0.000
19:36:30.842,SEARCHING,14.015,7.179,1.000,0.00,0.00,-169.74,7.381,10.000,10.000,10.000,10.000,0,0,SEARCHING,7.381,0.800,-0.150,0.000
19:36:31.039,SEARCHING,13.858,7.151,1.000,0.00,0.00,-169.74,7.381,10.000,10.000,10.000,10.000,0,0,SEARCHING,7.381,0.800,-0.147,0.000
19:36:31.259,SEARCHING,13.700,7.122,1.000,0.00,0.00,-169.74,7.627,10.000,10.000,10.000,10.000,0,0,SEARCHING,7.627,0.800,-0.138,0.000
19:36:31.442,SEARCHING,13.543,7.094,1.000,0.00,0.00,-169.74,7.381,10.000,10.000,10.000,10.000,0,0,SEARCHING,7.381,0.800,-0.123,0.000
19:36:31.640,SEARCHING,13.386,7.065,1.000,0.00,0.00,-169.74,7.627,10.000,10.000,10.000,10.000,0,0,SEARCHING,7.627,0.800,-0.104,0.000
19:36:31.845,SEARCHING,13.228,7.037,1.000,0.00,0.00,-169.74,7.627,10.000,10.000,10.000,10.000,0,0,SEARCHING,7.627,0.800,-0.080,0.000
19:36:32.042,SEARCHING,13.071,7.008,1.000,0.00,0.00,-169.74,7.890,10.000,10.000,10.000,10.000,0,0,SEARCHING,7.890,0.800,-0.053,0.000
19:36:32.240,SEARCHING,12.913,6.980,1.000,0.00,0.00,-169.74,7.890,10.000,10.000,10.000,10.000,0,0,SEARCHING,7.890,0.800,-0.025,0.000
19:36:32.444,SEARCHING,12.756,6.951,1.000,0.00,0.00,-169.74,7.890,10.000,10.000,10.000,10.000,0,0,SEARCHING,7.890,0.800,0.005,0.000
19:36:32.649,SEARCHING,12.598,6.923,1.000,0.00,0.00,-169.74,8.172,10.000,10.000,10.000,10.000,0,0,SEARCHING,8.172,0.800,0.035,0.000
19:36:32.849,SEARCHING,12.441,6.894,1.000,0.00,0.00,-169.74,8.475,10.000,10.000,10.000,10.000,0,0,SEARCHING,8.475,0.800,0.063,0.000
19:36:33.039,SEARCHING,12.283,6.866,1.000,0.00,0.00,-169.74,8.172,10.000,10.000,10.000,10.000,0,0,SEARCHING,8.172,0.800,0.089,0.000
19:36:33.241,SEARCHING,12.126,6.837,1.000,0.00,0.00,-169.74,8.475,10.000,10.000,10.000,10.000,0,0,SEARCHING,8.475,0.800,0.111,0.000
19:36:33.439,SEARCHING,11.969,6.809,1.000,0.00,0.00,-169.74,8.475,10.000,10.000,10.000,10.000,0,0,SEARCHING,8.475,0.800,0.129,0.000
19:36:33.650,SEARCHING,11.811,6.780,1.000,0.00,0.00,-169.74,8.475,10.000,10.000,10.000,10.000,0,0,SEARCHING,8.475,0.800,0.142,0.000
19:36:33.847,SEARCHING,11.654,6.752,1.000,0.00,0.00,-169.74,8.172,10.000,10.000,10.000,10.000,0,0,SEARCHING,8.172,0.800,0.149,0.000
19:36:34.061,SEARCHING,11.496,6.723,1.000,0.00,0.00,-169.74,8.172,10.000,10.000,10.000,10.000,0,0,SEARCHING,8.172,0.800,0.150,0.000
19:36:34.247,SEARCHING,11.339,6.695,1.000,0.00,0.00,-169.74,8.172,10.000,10.000,10.000,10.000,0,0,SEARCHING,8.172,0.800,0.145,0.000
19:36:34.445,SEARCHING,11.181,6.666,1.000,0.00,0.00,-169.74,8.172,10.000,10.000,10.000,10.000,0,0,SEARCHING,8.172,0.800,0.134,0.000
19:36:34.647,SEARCHING,11.024,6.638,1.000,0.00,0.00,-169.74,8.172,10.000,10.000,10.000,10.000,0,0,SEARCHING,8.172,0.800,0.118,0.000
19:36:34.842,SEARCHING,10.866,6.609,1.000,0.00,0.00,-169.74,7.890,10.000,10.000,10.000,10.000,0,0,SEARCHING,7.890,0.800,0.097,0.000
19:36:35.044,SEARCHING,10.709,6.581,1.000,0.00,0.00,-169.74,8.475,10.000,10.000,10.000,10.000,0,0,SEARCHING,8.475,0.800,0.073,0.000
19:36:35.252,SEARCHING,10.552,6.552,1.000,0.00,0.00,-169.74,8.475,10.000,10.000,10.000,10.000,0,0,SEARCHING,8.475,0.800,0.045,0.000
19:36:35.447,SEARCHING,10.394,6.524,1.000,0.00,0.00,-169.74,7.627,10.000,10.000,10.000,10.000,0,0,SEARCHING,7.627,0.800,0.016,0.000
19:36:35.643,SEARCHING,10.237,6.495,1.000,0.00,0.00,-169.74,7.627,10.000,10.000,10.000,10.000,0,0,SEARCHING,7.627,0.800,-0.014,0.000
19:36:35.844,SEARCHING,10.079,6.467,1.000,0.00,0.00,-169.74,7.151,10.000,10.000,10.000,10.000,0,0,SEARCHING,7.151,0.800,-0.043,0.000
19:36:36.043,SEARCHING,9.922,6.438,1.000,0.00,0.00,-169.74,7.381,10.000,10.000,10.000,10.000,0,0,SEARCHING,7.381,0.800,-0.071,0.000
19:36:36.246,SEARCHING,9.764,6.410,1.000,0.00,0.00,-169.74,7.381,10.000,10.000,10.000,10.000,0,0,SEARCHING,7.381,0.800,-0.096,0.000
19:36:36.460,SEARCHING,9.607,6.381,1.000,0.00,0.00,-169.74,7.151,10.000,10.000,10.000,10.000,0,0,SEARCHING,7.151,0.800,-0.117,0.000
19:36:36.645,SEARCHING,9.449,6.353,1.000,0.00,0.00,-169.74,7.381,10.000,10.000,10.000,10.000,0,0,SEARCHING,7.381,0.800,-0.133,0.000
19:36:36.848,SEARCHING,9.292,6.324,1.000,0.00,0.00,-169.74,7.151,10.000,10.000,10.000,10.000,0,0,SEARCHING,7.151,0.800,-0.144,0.000
19:36:37.049,SEARCHING,9.135,6.296,1.000,0.00,0.00,-169.74,7.151,10.000,10.000,10.000,10.000,0,0,SEARCHING,7.151,0.800,-0.150,0.000
19:36:37.248,SEARCHING,8.977,6.267,1.000,0.00,0.00,-169.74,7.151,10.000,10.000,10.000,10.000,0,0,SEARCHING,7.151,0.800,-0.149,0.000
19:36:37.450,SEARCHING,8.820,6.239,1.000,0.00,0.00,-169.74,7.151,10.000,10.000,10.000,10.000,0,0,SEARCHING,7.151,0.800,-0.142,0.000
19:36:37.656,SEARCHING,8.662,6.210,1.000,0.00,0.00,-169.74,6.934,10.000,10.000,10.000,10.000,0,0,SEARCHING,6.934,0.800,-0.130,0.000
19:36:37.847,SEARCHING,8.505,6.182,1.000,0.00,0.00,-169.74,6.934,10.000,10.000,10.000,10.000,0,0,SEARCHING,6.934,0.800,-0.112,0.000
19:36:38.052,SEARCHING,8.347,6.153,1.000,0.00,0.00,-169.74,6.934,10.000,10.000,10.000,10.000,0,0,SEARCHING,6.934,0.800,-0.091,0.000
19:36:38.257,SEARCHING,8.190,6.125,1.000,0.00,0.00,-169.74,6.730,10.000,10.000,10.000,10.000,0,0,SEARCHING,6.730,0.800,-0.065,0.000
19:36:38.450,SEARCHING,8.033,6.096,1.000,0.00,0.00,-169.74,6.730,10.000,10.000,10.000,10.000,0,0,SEARCHING,6.730,0.800,-0.037,0.000
19:36:38.656,SEARCHING,7.875,6.068,1.000,0.00,0.00,-169.74,6.730,10.000,10.000,10.000,10.000,0,0,SEARCHING,6.730,0.800,-0.007,0.000
