timestamp,state,x,y,z,roll_deg,pitch_deg,yaw_deg,dist_left,dist_center,dist_right,dist_top,dist_bottom,dtof_alert,collision_event,best_dir,max_space,cmd_vx,cmd_vz,cmd_yaw
21:05:17.501,SEARCHING,0.000,0.000,0.000,0.00,0.00,0.00,10.000,10.000,10.000,10.000,10.000,0,0,SEARCHING,0.000,0.526,0.000,0.000
21:05:17.705,SEARCHING,0.117,0.000,1.000,0.00,0.00,0.00,10.000,10.000,10.000,10.000,10.000,0,0,SEARCHING,0.000,0.734,0.000,0.000
21:05:17.909,SEARCHING,0.269,0.000,1.000,0.00,0.00,0.00,10.000,10.000,10.000,10.000,10.000,0,0,SEARCHING,0.000,0.784,0.000,0.000
21:05:18.109,SEARCHING,0.427,0.000,1.000,0.00,0.00,0.00,10.000,10.000,10.000,10.000,10.000,0,0,SEARCHING,0.000,0.796,0.000,0.000
21:05:18.310,SEARCHING,0.586,0.000,1.000,0.00,0.00,0.00,10.000,10.000,10.000,10.000,10.000,0,0,SEARCHING,0.000,0.799,0.000,0.000
21:05:18.513,SEARCHING,0.746,0.000,1.000,0.00,0.00,0.00,10.000,10.000,10.000,10.000,10.000,0,0,SEARCHING,0.000,0.800,0.000,0.000
21:05:18.713,SEARCHING,0.890,-0.000,0.981,0.00,0.00,-0.23,7.006,8.375,6.707,8.142,7.006,0,0,SEARCHING,0.000,0.800,-0.356,-0.064
21:05:18.915,SEARCHING,1.018,-0.001,0.891,0.00,0.00,-1.03,4.330,6.923,3.863,6.677,3.421,0,0,SEARCHING,0.000,0.800,-0.601,-0.110
21:05:19.116,SEARCHING,1.146,-0.005,0.763,0.00,0.00,-2.21,4.048,6.641,3.445,6.700,3.913,0,0,SEARCHING,0.000,0.800,-0.676,-0.146
21:05:19.316,SEARCHING,1.274,-0.011,0.626,0.00,0.00,-3.70,4.206,6.079,3.273,6.907,3.515,0,0,SEARCHING,0.000,0.800,-0.694,-0.197
21:05:19.517,SEARCHING,1.402,-0.021,0.486,0.00,0.00,-5.85,4.364,5.664,3.096,7.122,5.693,0,0,SEARCHING,0.000,0.800,-0.689,-0.281
21:05:19.718,SEARCHING,1.529,-0.037,0.349,0.00,0.00,-8.49,3.907,3.795,2.862,6.479,3.063,0,0,SEARCHING,0.000,0.800,-0.694,-0.273
21:05:19.920,SEARCHING,1.655,-0.058,0.215,0.00,0.00,-10.91,2.779,2.706,2.245,5.187,2.784,0,0,SEARCHING,0.000,0.800,-0.642,-0.209
21:05:20.119,SEARCHING,1.780,-0.084,0.132,0.00,0.00,-12.73,3.329,2.217,1.798,4.169,3.230,0,0,SEARCHING,0.000,0.735,-0.090,-0.232
21:05:20.317,SEARCHING,1.881,-0.108,0.105,0.00,0.00,-14.63,1.915,2.487,1.562,3.846,2.832,0,0,SEARCHING,0.000,0.623,-0.260,-0.121
21:05:20.519,SEARCHING,1.972,-0.133,0.094,0.00,0.00,-15.18,1.572,1.814,1.508,3.623,3.627,0,0,SEARCHING,0.000,0.498,-0.290,-0.024
21:05:20.718,SEARCHING,2.049,-0.154,0.097,0.00,0.00,-15.19,2.855,2.375,1.348,3.545,2.791,0,0,SEARCHING,0.000,0.556,-0.248,-0.021
21:05:20.918,SEARCHING,2.143,-0.179,0.098,0.00,0.00,-15.52,3.342,2.777,1.361,3.483,1.729,0,0,SEARCHING,0.000,0.689,-0.154,-0.083
21:05:21.119,SEARCHING,2.253,-0.211,0.098,0.00,0.00,-16.59,4.571,3.021,1.941,3.370,8.574,0,0,SEARCHING,0.000,0.735,0.210,-0.256
21:05:21.321,SEARCHING,2.358,-0.245,0.167,0.00,0.00,-19.33,2.008,1.804,1.562,3.158,4.056,0,0,SEARCHING,0.000,0.561,0.409,-0.168
21:05:21.521,SEARCHING,2.430,-0.270,0.223,0.00,0.00,-20.13,2.270,1.923,1.875,2.875,2.344,0,0,SEARCHING,0.000,0.445,-0.022,-0.051
21:05:21.724,SEARCHING,2.502,-0.297,0.205,0.00,0.00,-20.97,2.658,2.023,1.925,2.780,1.424,0,0,SEARCHING,0.000,0.511,-0.170,-0.125
21:05:21.924,SEARCHING,2.575,-0.326,0.173,0.00,0.00,-21.79,1.850,1.861,1.758,2.704,1.147,0,0,SEARCHING,0.000,0.457,-0.120,-0.044
21:05:22.124,SEARCHING,2.641,-0.353,0.148,0.00,0.00,-22.30,2.013,1.722,1.515,2.622,1.100,0,0,SEARCHING,0.000,0.421,-0.125,-0.055
21:05:22.326,SEARCHING,2.695,-0.375,0.143,0.00,0.00,-22.44,1.446,1.393,1.219,2.517,0.574,0,0,SEARCHING,0.000,0.303,0.317,0.024
21:05:22.527,SEARCHING,2.736,-0.392,0.232,0.00,0.00,-22.23,2.914,1.954,1.647,2.499,1.429,0,0,SEARCHING,0.000,0.325,0.342,-0.039
21:05:22.729,SEARCHING,2.796,-0.417,0.269,0.00,0.00,-22.99,3.032,2.277,1.712,2.454,1.424,0,0,SEARCHING,0.000,0.491,-0.021,-0.119
21:05:22.929,SEARCHING,2.873,-0.450,0.258,0.00,0.00,-24.01,3.216,2.182,1.659,2.328,1.390,0,0,SEARCHING,0.000,0.537,-0.081,-0.126
21:05:23.131,SEARCHING,2.952,-0.486,0.242,0.00,0.00,-25.77,3.887,2.126,1.604,2.234,1.363,0,0,SEARCHING,0.000,0.533,-0.065,-0.280
21:05:23.329,SEARCHING,3.025,-0.524,0.238,0.00,0.00,-28.10,2.281,1.988,1.527,2.094,1.260,0,0,SEARCHING,0.000,0.489,0.041,-0.142
21:05:23.531,SEARCHING,3.092,-0.560,0.244,0.00,0.00,-28.85,2.048,1.956,1.461,1.981,0.976,0,0,SEARCHING,0.000,0.459,0.062,-0.037
21:05:23.731,SEARCHING,3.154,-0.594,0.259,0.00,0.00,-29.02,2.300,1.896,1.414,1.896,1.244,0,0,SEARCHING,0.000,0.433,0.055,-0.013
21:05:23.933,SEARCHING,3.213,-0.627,0.267,0.00,0.00,-29.14,2.408,1.820,1.355,1.811,1.392,0,0,SEARCHING,0.000,0.404,0.013,-0.013
21:05:24.134,SEARCHING,3.268,-0.657,0.273,0.00,0.00,-29.18,2.193,1.762,1.310,1.763,1.044,0,0,SEARCHING,0.000,0.376,0.090,0.012
21:05:24.334,SEARCHING,3.319,-0.686,0.291,0.00,0.00,-29.01,2.427,1.704,1.272,1.707,1.461,0,0,SEARCHING,0.000,0.352,0.054,0.017
21:05:24.534,SEARCHING,3.367,-0.712,0.298,0.00,0.00,-28.86,2.370,1.669,1.245,1.666,1.142,0,0,SEARCHING,0.000,0.333,0.042,0.021
21:05:24.741,SEARCHING,3.412,-0.737,0.313,0.00,0.00,-28.61,2.300,1.623,1.217,1.628,0.945,0,0,SEARCHING,0.000,0.314,0.152,0.036
21:05:24.943,SEARCHING,3.455,-0.761,0.345,0.00,0.00,-28.22,2.318,1.582,1.177,1.586,1.124,0,0,SEARCHING,0.000,0.298,0.141,0.050
21:05:25.142,SEARCHING,3.497,-0.783,0.370,0.00,0.00,-27.71,2.288,1.536,1.151,1.560,1.235,0,0,SEARCHING,0.000,0.284,0.086,0.065
21:05:25.344,SEARCHING,3.536,-0.803,0.384,0.00,0.00,-27.05,2.266,1.534,1.134,1.535,1.337,0,0,SEARCHING,0.000,0.274,0.043,0.079
21:05:25.545,SEARCHING,3.575,-0.823,0.392,0.00,0.00,-26.28,2.277,1.529,1.109,1.523,1.263,0,0,SEARCHING,0.000,0.270,0.047,0.091
21:05:25.746,SEARCHING,3.614,-0.841,0.403,0.00,0.00,-25.39,2.319,1.518,1.090,1.516,1.145,0,0,SEARCHING,0.000,0.266,0.072,0.101
21:05:25.945,SEARCHING,3.652,-0.859,0.419,0.00,0.00,-24.45,2.341,1.500,1.062,1.495,1.239,0,0,SEARCHING,0.000,0.260,0.073,0.107
21:05:26.146,SEARCHING,3.689,-0.876,0.432,0.00,0.00,-23.42,3.013,1.492,1.031,1.489,1.321,0,0,SEARCHING,0.000,0.254,0.041,0.083
21:05:26.351,SEARCHING,3.727,-0.892,0.438,0.00,0.00,-23.22,3.832,1.494,1.022,1.493,1.272,0,0,SEARCHING,0.000,0.252,0.022,-0.070
21:05:26.553,SEARCHING,3.763,-0.908,0.442,0.00,0.00,-24.30,3.058,1.452,0.992,1.450,1.363,0,0,SEARCHING,0.000,0.251,0.010,-0.082
21:05:26.753,SEARCHING,3.809,-0.929,0.442,0.00,0.00,-24.52,2.328,1.383,0.963,1.379,1.302,0,0,SEARCHING,0.000,0.250,0.002,0.089
21:05:26.953,SEARCHING,3.855,-0.949,0.442,0.00,0.00,-23.06,2.316,1.365,0.968,1.363,1.306,0,0,SEARCHING,0.000,0.250,0.001,0.167
21:05:27.154,SEARCHING,3.901,-0.968,0.442,0.00,0.00,-21.46,3.243,1.380,0.967,1.387,1.261,0,0,SEARCHING,0.000,0.250,0.000,0.065
21:05:27.354,SEARCHING,3.948,-0.986,0.442,0.00,0.00,-21.31,3.925,1.367,0.957,1.379,1.296,0,0,SEARCHING,0.000,0.250,0.000,-0.085
21:05:27.555,SEARCHING,3.994,-1.005,0.442,0.00,0.00,-22.87,4.207,1.310,0.917,1.320,1.274,0,0,SEARCHING,0.000,0.250,0.000,-0.195
21:05:27.755,SEARCHING,4.040,-1.025,0.442,0.00,0.00,-24.39,2.305,1.223,0.871,1.225,1.215,0,0,SEARCHING,0.000,0.250,0.000,0.061
21:05:27.957,SEARCHING,4.085,-1.045,0.442,0.00,0.00,-22.65,1.972,1.183,0.842,1.186,1.186,0,0,SEARCHING,0.000,0.250,0.000,0.265
21:05:28.156,SEARCHING,4.132,-1.063,0.442,0.00,0.00,-19.34,3.576,1.189,0.836,1.204,1.190,0,0,SEARCHING,0.000,0.250,0.000,0.226
21:05:28.354,SEARCHING,4.179,-1.079,0.442,0.00,0.00,-17.54,3.783,1.241,0.847,1.246,1.232,0,0,SEARCHING,0.000,0.250,0.000,0.063
21:05:28.556,SEARCHING,4.227,-1.094,0.442,0.00,0.00,-17.55,3.987,1.239,0.834,1.240,1.226,0,0,SEARCHING,0.000,0.250,0.000,-0.069
21:05:28.755,SEARCHING,4.275,-1.109,0.442,0.00,0.00,-18.38,3.997,1.196,0.807,1.197,1.196,0,0,SEARCHING,0.000,0.250,0.000,-0.065
21:05:28.956,SEARCHING,4.322,-1.125,0.442,0.00,0.00,-18.94,3.604,1.138,0.772,1.138,1.145,0,0,SEARCHING,0.000,0.250,0.000,0.015
21:05:29.157,SEARCHING,4.369,-1.141,0.442,0.00,0.00,-18.30,3.686,1.094,0.745,1.092,1.103,0,0,SEARCHING,0.000,0.250,0.000,0.106
21:05:29.358,SEARCHING,4.417,-1.157,0.442,0.00,0.00,-16.83,3.951,1.075,0.731,1.068,1.079,0,0,SEARCHING,0.000,0.250,0.000,0.135
21:05:29.559,SEARCHING,4.465,-1.171,0.442,0.00,0.00,-15.41,4.470,1.076,0.720,1.072,1.081,0,0,SEARCHING,0.000,0.250,0.000,0.073
21:05:29.760,SEARCHING,4.513,-1.184,0.442,0.00,0.00,-14.82,4.292,1.082,0.711,1.072,1.081,0,0,SEARCHING,0.000,0.250,0.000,0.043
21:05:29.960,SEARCHING,4.562,-1.196,0.442,0.00,0.00,-14.41,4.056,1.071,0.689,1.063,1.062,0,0,SEARCHING,0.000,0.250,0.000,0.063
21:05:30.160,SEARCHING,4.610,-1.208,0.442,0.00,0.00,-13.22,3.842,1.053,0.670,1.047,1.049,0,0,SEARCHING,0.000,0.250,0.000,0.175
21:05:30.361,SEARCHING,4.659,-1.219,0.442,0.00,0.00,-11.06,4.051,1.047,0.668,1.063,1.045,0,0,SEARCHING,0.000,0.250,0.000,0.191
21:05:30.561,SEARCHING,4.708,-1.228,0.442,0.00,0.00,-8.74,3.899,1.100,0.679,1.118,1.100,0,0,SEARCHING,0.000,0.250,0.000,0.217
21:05:30.762,SEARCHING,4.758,-1.234,0.442,0.00,0.00,-6.17,3.924,1.133,0.687,1.128,1.136,0,0,SEARCHING,0.000,0.250,0.000,0.221
21:05:30.963,SEARCHING,4.803,-1.238,0.438,0.00,0.00,-4.11,3.668,3.014,0.714,3.502,1.174,0,0,SEARCHING,0.000,0.415,-0.160,0.189
21:05:31.164,SEARCHING,4.898,-1.244,0.383,0.00,0.00,-2.25,3.721,3.612,0.726,3.760,4.531,0,0,SEARCHING,0.000,0.708,-0.197,0.199
21:05:31.368,SEARCHING,5.019,-1.247,0.355,0.00,0.00,-0.46,3.261,3.121,0.720,3.726,2.085,0,0,SEARCHING,0.000,0.778,-0.277,0.230
21:05:31.565,SEARCHING,5.144,-1.246,0.279,0.00,0.00,2.09,2.920,2.861,0.729,4.053,1.875,0,0,SEARCHING,0.000,0.774,-0.553,0.323
21:05:31.766,SEARCHING,5.268,-1.238,0.177,0.00,0.00,5.32,2.039,2.133,1.069,4.431,1.875,0,0,SEARCHING,0.000,0.691,-0.468,0.303
21:05:31.967,SEARCHING,5.365,-1.227,0.091,0.00,0.00,7.07,1.839,2.058,1.651,4.531,4.678,0,0,SEARCHING,0.000,0.566,-0.397,0.089
21:05:32.167,SEARCHING,5.457,-1.216,0.099,0.00,0.00,7.47,2.453,2.701,2.342,4.367,6.959,0,0,SEARCHING,0.000,0.665,0.251,0.011
21:05:32.368,SEARCHING,5.564,-1.202,0.162,0.00,0.00,7.47,1.873,2.088,1.783,4.279,3.331,0,0,SEARCHING,0.000,0.612,0.071,-0.003
21:05:32.569,SEARCHING,5.653,-1.190,0.147,0.00,0.00,7.46,1.667,1.759,1.724,4.215,1.882,0,0,SEARCHING,0.000,0.488,-0.346,-0.001
21:05:32.768,SEARCHING,5.717,-1.182,0.092,0.00,0.00,7.40,2.024,1.715,1.542,4.175,3.824,0,0,SEARCHING,0.000,0.359,-0.387,-0.008
21:05:32.970,SEARCHING,5.771,-1.175,0.095,0.00,0.00,7.48,1.647,1.731,1.531,4.124,4.634,0,0,SEARCHING,0.000,0.353,-0.153,0.010
21:05:33.170,SEARCHING,5.823,-1.168,0.096,0.00,0.00,7.67,1.984,2.256,1.936,4.056,6.121,0,0,SEARCHING,0.000,0.396,-0.054,0.021
21:05:33.370,SEARCHING,5.905,-1.157,0.138,0.00,0.00,7.75,1.967,2.215,1.829,3.965,5.658,0,0,SEARCHING,0.000,0.576,0.519,-0.000
21:05:33.571,SEARCHING,5.995,-1.144,0.234,0.00,0.00,7.70,2.205,2.341,2.048,3.888,4.294,0,0,SEARCHING,0.000,0.591,0.271,-0.010
21:05:34.837,SEARCHING,6.092,-1.131,0.263,0.00,0.00,7.60,2.196,2.166,1.966,3.903,2.454,0,0,SEARCHING,0.000,0.599,-0.171,-0.014
21:05:34.959,SEARCHING,6.189,-1.118,0.206,0.00,0.00,7.41,1.920,1.887,1.829,3.835,1.265,0,0,SEARCHING,0.000,0.572,-0.457,-0.018
21:05:35.150,SEARCHING,6.273,-1.108,0.108,0.00,0.00,7.31,1.896,2.258,1.825,3.772,4.019,0,0,SEARCHING,0.000,0.551,-0.315,-0.006
21:05:35.349,SEARCHING,6.351,-1.098,0.095,0.00,0.00,7.25,1.570,1.513,1.497,3.722,2.814,0,0,SEARCHING,0.000,0.377,-0.385,-0.003
21:05:35.550,SEARCHING,6.409,-1.090,0.096,0.00,0.00,7.29,2.184,2.263,1.740,3.702,6.488,0,0,SEARCHING,0.000,0.441,0.082,-0.003
21:05:35.751,SEARCHING,6.494,-1.079,0.154,0.00,0.00,7.15,1.561,1.600,1.497,3.683,2.813,0,0,SEARCHING,0.000,0.510,0.244,-0.012
21:05:35.951,SEARCHING,6.575,-1.069,0.203,0.00,0.00,7.10,1.803,2.140,1.750,3.660,3.724,0,0,SEARCHING,0.000,0.558,0.275,-0.004
21:05:36.151,SEARCHING,6.673,-1.057,0.266,0.00,0.00,7.02,2.284,2.511,2.049,3.618,2.733,0,0,SEARCHING,0.000,0.700,0.218,-0.018
21:05:36.351,SEARCHING,6.790,-1.043,0.304,0.00,0.00,6.85,2.424,2.805,2.445,3.539,2.860,0,0,SEARCHING,0.000,0.771,0.119,-0.010
21:05:36.552,SEARCHING,6.914,-1.028,0.304,0.00,0.00,6.85,2.389,3.212,2.587,3.439,2.859,0,0,SEARCHING,0.000,0.793,-0.157,0.013
21:05:36.753,SEARCHING,7.041,-1.013,0.270,0.00,0.00,7.09,2.283,2.949,2.539,3.337,3.370,0,0,SEARCHING,0.000,0.798,-0.113,0.037
21:05:36.954,SEARCHING,7.168,-0.996,0.248,0.00,0.00,7.58,2.158,2.731,2.704,3.196,2.411,0,0,SEARCHING,0.000,0.800,-0.182,0.074
21:05:37.154,SEARCHING,7.295,-0.979,0.210,0.00,0.00,8.43,2.031,2.630,2.556,3.067,2.017,0,0,SEARCHING,0.000,0.800,-0.217,0.097
21:05:37.354,SEARCHING,7.410,-0.961,0.160,0.00,0.00,9.15,1.857,2.269,2.453,2.937,3.690,0,0,SEARCHING,0.000,0.649,-0.107,0.067
21:05:37.554,SEARCHING,7.507,-0.945,0.179,0.00,0.00,9.67,1.684,2.153,2.245,2.828,3.869,0,0,SEARCHING,0.000,0.576,0.373,0.044
21:05:37.755,SEARCHING,7.598,-0.929,0.242,0.00,0.00,10.05,1.744,1.965,2.014,2.722,1.336,0,0,SEARCHING,0.000,0.548,0.051,0.033
21:05:37.955,SEARCHING,7.685,-0.914,0.235,0.00,0.00,10.30,1.683,2.324,2.189,2.640,1.454,0,0,SEARCHING,0.000,0.595,-0.132,0.029
21:05:38.155,SEARCHING,7.780,-0.896,0.204,0.00,0.00,10.58,1.587,2.231,2.241,2.542,1.841,0,0,SEARCHING,0.000,0.596,-0.164,0.031
21:05:38.355,SEARCHING,7.872,-0.879,0.172,0.00,0.00,10.82,1.512,2.356,2.351,2.444,4.439,0,0,SEARCHING,0.000,0.589,0.105,0.026
21:05:38.556,SEARCHING,7.962,-0.861,0.208,0.00,0.00,11.02,1.471,2.015,2.071,2.383,1.854,0,0,SEARCHING,0.000,0.521,0.065,0.007
21:05:38.757,SEARCHING,8.037,-0.847,0.209,0.00,0.00,10.98,1.427,2.026,1.943,2.306,1.254,0,0,SEARCHING,0.000,0.469,-0.050,-0.013
21:05:38.958,SEARCHING,8.112,-0.832,0.197,0.00,0.00,10.82,1.404,2.121,2.050,2.241,1.777,0,0,SEARCHING,0.000,0.493,-0.075,-0.020
21:05:39.158,SEARCHING,8.189,-0.818,0.181,0.00,0.00,10.61,1.367,1.883,1.851,2.174,1.477,0,0,SEARCHING,0.000,0.455,-0.074,-0.031
21:05:39.358,SEARCHING,8.253,-0.806,0.172,0.00,0.00,10.28,1.341,1.896,1.897,2.114,2.952,0,0,SEARCHING,0.000,0.389,0.075,-0.039
21:05:39.559,SEARCHING,8.314,-0.795,0.189,0.00,0.00,9.88,1.329,1.769,1.733,2.055,1.274,0,0,SEARCHING,0.000,0.375,0.027,-0.048
21:05:39.759,SEARCHING,8.375,-0.785,0.192,0.00,0.00,9.43,1.308,1.968,1.933,2.010,1.993,0,0,SEARCHING,0.000,0.405,0.007,-0.051
21:05:39.961,SEARCHING,8.455,-0.772,0.192,0.00,0.00,8.82,1.286,1.814,1.799,1.935,1.541,0,0,SEARCHING,0.000,0.395,0.002,-0.058
21:05:40.161,SEARCHING,8.532,-0.760,0.192,0.00,0.00,8.12,1.280,1.780,1.766,1.865,1.619,0,0,SEARCHING,0.000,0.377,0.000,-0.064
21:05:40.362,SEARCHING,8.596,-0.751,0.204,0.00,0.00,7.46,1.267,1.695,1.681,1.786,1.268,0,0,SEARCHING,0.000,0.338,0.126,-0.065
21:05:40.562,SEARCHING,8.649,-0.745,0.230,0.00,0.00,6.85,1.260,1.711,1.727,1.745,1.279,0,0,SEARCHING,0.000,0.333,0.114,-0.070
21:05:40.762,SEARCHING,8.702,-0.739,0.253,0.00,0.00,6.20,1.265,1.676,1.696,1.675,1.072,0,0,SEARCHING,0.000,0.331,0.146,-0.071
21:05:40.963,SEARCHING,8.754,-0.733,0.281,0.00,0.00,5.55,1.268,1.622,1.649,1.619,1.237,0,0,SEARCHING,0.000,0.319,0.097,-0.069
21:05:41.163,SEARCHING,8.804,-0.729,0.297,0.00,0.00,4.93,1.257,1.588,1.606,1.584,1.415,0,0,SEARCHING,0.000,0.304,0.047,-0.068
21:05:41.364,SEARCHING,8.851,-0.725,0.303,0.00,0.00,4.31,1.254,1.528,1.564,1.527,1.181,0,0,SEARCHING,0.000,0.289,0.034,-0.067
21:05:41.566,SEARCHING,8.897,-0.722,0.314,0.00,0.00,3.71,1.264,1.472,1.521,1.474,1.298,0,0,SEARCHING,0.000,0.274,0.060,-0.062
21:05:41.764,SEARCHING,8.939,-0.719,0.325,0.00,0.00,3.17,1.260,1.439,1.483,1.439,1.307,0,0,SEARCHING,0.000,0.260,0.037,-0.057
21:05:41.966,SEARCHING,8.980,-0.717,0.332,0.00,0.00,2.68,1.266,1.403,1.442,1.403,1.149,0,0,SEARCHING,0.000,0.253,0.057,-0.049
21:05:42.167,SEARCHING,9.020,-0.715,0.344,0.00,0.00,2.26,1.263,1.351,1.406,1.354,1.288,0,0,SEARCHING,0.000,0.251,0.043,-0.042
21:05:42.367,SEARCHING,9.060,-0.714,0.350,0.00,0.00,1.89,1.246,1.311,1.362,1.310,1.204,0,0,SEARCHING,0.000,0.250,0.010,-0.037
21:05:42.568,SEARCHING,9.105,-0.712,0.351,0.00,0.00,1.52,1.219,1.271,1.320,1.272,1.219,0,0,SEARCHING,0.000,0.250,0.002,-0.034
21:05:42.769,SEARCHING,9.155,-0.711,0.351,0.00,0.00,1.13,1.186,1.229,1.287,1.232,1.074,0,0,SEARCHING,0.000,0.250,0.023,-0.035
21:05:42.970,SEARCHING,9.195,-0.710,0.359,0.00,0.00,0.78,1.134,1.182,1.235,1.184,1.104,0,0,SEARCHING,0.000,0.250,0.039,-0.040
21:05:43.170,SEARCHING,9.235,-0.710,0.364,0.00,0.00,0.40,1.103,1.150,1.204,1.151,1.105,0,0,SEARCHING,0.000,0.250,0.009,-0.045
21:05:43.370,SEARCHING,9.285,-0.710,0.364,0.00,0.00,-0.14,1.055,1.106,1.160,1.106,1.078,0,0,SEARCHING,0.000,0.250,0.002,-0.052
21:05:43.570,SEARCHING,9.335,-0.710,0.364,0.00,0.00,-0.78,1.008,1.057,1.115,1.056,1.043,0,0,SEARCHING,0.000,0.250,0.001,-0.061
21:05:43.770,SEARCHING,9.385,-0.711,0.364,0.00,0.00,-1.53,0.957,1.010,1.066,1.010,0.997,0,0,SEARCHING,0.000,0.250,0.000,-0.073
21:05:43.972,SEARCHING,9.435,-0.713,0.364,0.00,0.00,-2.42,0.908,0.962,1.022,0.960,0.957,0,0,SEARCHING,0.000,0.250,0.000,-0.086
21:05:44.173,SEARCHING,9.485,-0.715,0.364,0.00,0.00,-3.47,0.858,0.913,0.976,0.913,0.909,0,0,SEARCHING,0.000,0.250,0.000,-0.102
21:05:44.374,SEARCHING,9.535,-0.719,0.364,0.00,0.00,-4.71,0.802,0.858,0.924,0.858,0.858,0,0,SEARCHING,0.000,0.250,0.000,-0.122
21:05:44.577,SEARCHING,9.585,-0.724,0.364,0.00,0.00,-6.20,0.761,0.819,0.889,0.820,0.819,0,0,SEARCHING,0.000,0.250,0.000,-0.146
21:05:44.778,INSPECTING,9.631,-0.729,0.364,0.00,0.00,-8.18,0.712,0.774,0.847,0.773,0.774,0,0,INSPECT_RIGHT,0.000,0.173,0.000,-0.334
21:05:44.979,INSPECTING,9.665,-0.735,0.364,0.00,0.00,-12.70,0.671,0.740,0.825,0.739,0.739,0,0,INSPECT_RIGHT,0.000,0.168,0.000,-0.460
21:05:45.179,INSPECTING,9.697,-0.744,0.364,0.00,0.00,-18.14,0.631,0.717,0.829,0.716,0.716,0,0,INSPECT_RIGHT,0.000,0.166,0.000,-0.490
21:05:45.378,INSPECTING,9.728,-0.756,0.364,0.00,0.00,-23.80,0.605,0.708,0.856,0.708,0.709,0,0,INSPECT_RIGHT,0.000,0.168,0.000,-0.498
21:05:45.577,INSPECTING,9.759,-0.771,0.364,0.00,0.00,-29.52,0.588,0.710,0.896,0.710,0.710,0,0,INSPECT_RIGHT,0.000,0.174,0.000,-0.499
21:05:45.777,INSPECTING,9.789,-0.790,0.364,0.00,0.00,-35.24,0.577,0.722,0.966,0.721,0.724,0,0,INSPECT_RIGHT,0.000,0.184,0.000,-0.500
21:05:45.977,INSPECTING,9.819,-0.813,0.364,0.00,0.00,-40.97,0.575,0.739,1.048,0.741,0.740,0,0,INSPECT_RIGHT,0.000,0.198,0.000,-0.500
21:05:46.178,INSPECTING,9.848,-0.841,0.364,0.00,0.00,-46.70,0.579,0.782,1.152,0.785,0.779,0,0,INSPECT_RIGHT,0.000,0.219,0.000,-0.500
21:05:46.379,INSPECTING,9.877,-0.875,0.364,0.00,0.00,-52.43,0.588,0.829,1.107,0.832,0.828,0,0,INSPECT_RIGHT,0.000,0.223,0.000,-0.500
21:05:46.580,INSPECTING,9.903,-0.911,0.364,0.00,0.00,-58.16,0.614,0.929,1.021,0.930,0.913,0,0,INSPECT_RIGHT,0.000,0.214,0.000,-0.500
21:05:46.779,INSPECTING,9.923,-0.947,0.364,0.00,0.00,-63.89,0.649,1.035,0.971,1.039,1.011,0,0,INSPECT_RIGHT,0.000,0.201,0.000,-0.500
21:05:46.980,INSPECTING,9.939,-0.983,0.364,0.00,0.00,-69.62,0.727,1.070,0.909,1.071,1.056,0,0,INSPECT_RIGHT,0.000,0.189,0.000,-0.500
21:05:47.180,INSPECTING,9.950,-1.019,0.364,0.00,0.00,-75.35,0.820,1.000,0.867,1.000,0.996,0,0,INSPECT_RIGHT,0.000,0.180,0.000,-0.500
21:05:47.382,INSPECTING,9.958,-1.053,0.364,0.00,0.00,-81.08,0.965,0.939,0.835,0.937,0.937,0,0,INSPECT_RIGHT,0.000,0.172,0.000,-0.500
21:05:47.582,INSPECTING,9.961,-1.087,0.364,0.00,0.00,-86.81,0.960,0.886,0.813,0.885,0.884,0,0,INSPECT_RIGHT,0.000,0.166,0.000,-0.500
21:05:47.783,INSPECTING,9.962,-1.120,0.364,0.00,0.00,-92.54,0.892,0.843,0.798,0.842,0.843,0,0,INSPECT_RIGHT,0.000,0.162,0.000,-0.500
21:05:47.983,INSPECTING,9.959,-1.152,0.364,0.00,0.00,-98.27,0.829,0.810,0.793,0.810,0.809,0,0,INSPECT_RIGHT,0.000,0.160,0.000,-0.500
21:05:48.184,INSPECTING,9.953,-1.183,0.364,0.00,0.00,-104.00,0.769,0.776,0.785,0.777,0.777,0,0,INSPECT_RIGHT,0.000,0.158,0.000,-0.500
21:05:48.383,INSPECTING,9.944,-1.213,0.364,0.00,0.00,-109.73,0.709,0.740,0.772,0.740,0.739,0,0,INSPECT_RIGHT,0.000,0.156,0.000,-0.500
21:05:48.584,INSPECTING,9.932,-1.242,0.364,0.00,0.00,-115.46,0.660,0.710,0.767,0.710,0.710,0,0,INSPECT_RIGHT,0.000,0.154,0.000,-0.500
21:05:48.784,INSPECTING,9.918,-1.269,0.364,0.00,0.00,-121.19,0.621,0.688,0.772,0.687,0.687,0,0,INSPECT_RIGHT,0.000,0.154,0.000,-0.500
21:05:48.984,INSPECTING,9.900,-1.295,0.364,0.00,0.00,-126.92,0.590,0.675,0.788,0.675,0.674,0,0,INSPECT_RIGHT,0.000,0.156,0.000,-0.500
21:05:49.185,INSPECTING,9.880,-1.319,0.364,0.00,0.00,-132.64,0.569,0.670,0.819,0.670,0.670,0,0,INSPECT_RIGHT,0.000,0.160,0.000,-0.500
21:05:49.386,INSPECTING,9.857,-1.342,0.364,0.00,0.00,-138.37,0.554,0.675,0.860,0.675,0.674,0,0,INSPECT_RIGHT,0.000,0.167,0.000,-0.500
21:05:49.586,INSPECTING,9.831,-1.363,0.364,0.00,0.00,-144.10,0.543,0.690,0.919,0.689,0.688,0,0,INSPECT_RIGHT,0.000,0.177,0.000,-0.500
21:05:49.787,INSPECTING,9.794,-1.388,0.364,0.00,0.00,-149.83,0.542,0.714,2.495,0.712,0.714,0,0,INSPECT_RIGHT,0.000,0.324,0.000,-0.500
21:05:49.987,INSPECTING,9.731,-1.420,0.364,0.00,0.00,-155.56,0.537,0.729,2.681,0.730,0.730,0,0,INSPECT_RIGHT,0.000,0.382,0.000,-0.500
21:05:50.187,INSPECTING,9.659,-1.449,0.364,0.00,0.00,-161.29,0.531,0.755,2.755,0.756,0.758,0,0,INSPECT_RIGHT,0.000,0.396,0.000,-0.500
21:05:50.389,SEARCHING,9.593,-1.469,0.365,0.00,0.00,-166.98,0.537,2.302,2.878,2.309,1.192,0,0,SEARCHING,0.000,0.404,0.055,-0.686
21:05:50.589,SEARCHING,9.520,-1.481,0.369,0.00,0.00,-173.74,0.563,2.499,3.058,2.508,1.910,0,0,SEARCHING,0.000,0.519,-0.068,-0.735
21:05:50.789,SEARCHING,9.430,-1.487,0.350,0.00,0.00,-178.13,1.743,2.525,3.151,2.521,1.449,0,0,SEARCHING,0.000,0.633,-0.132,-0.096
21:05:50.990,SEARCHING,9.320,-1.491,0.325,0.00,0.00,-177.85,1.953,2.509,2.681,2.541,1.417,0,0,SEARCHING,0.000,0.715,-0.123,0.076
21:05:51.190,SEARCHING,9.205,-1.496,0.298,0.00,0.00,-176.53,1.949,2.405,3.764,2.439,1.689,0,0,SEARCHING,0.000,0.712,-0.140,0.252
21:05:51.390,SEARCHING,9.095,-1.505,0.271,0.00,0.00,-173.04,1.805,2.209,3.613,2.214,1.344,0,0,SEARCHING,0.000,0.644,-0.104,0.430
21:05:51.591,SEARCHING,9.000,-1.519,0.261,0.00,0.00,-170.10,1.606,2.071,2.517,2.071,1.274,0,0,SEARCHING,0.000,0.554,0.022,0.191
21:05:51.791,SEARCHING,8.918,-1.534,0.265,0.00,0.00,-168.83,1.495,1.988,2.634,1.986,1.868,0,0,SEARCHING,0.000,0.493,0.005,0.110
21:05:51.991,SEARCHING,8.825,-1.554,0.265,0.00,0.00,-167.72,1.421,1.894,2.444,1.893,1.480,0,0,SEARCHING,0.000,0.445,0.001,0.068
21:05:52.192,SEARCHING,8.741,-1.572,0.265,0.00,0.00,-167.12,1.368,1.810,2.285,1.811,1.382,0,0,SEARCHING,0.000,0.404,0.000,0.026
21:05:52.392,SEARCHING,8.672,-1.588,0.266,0.00,0.00,-167.00,1.330,1.737,2.252,1.714,1.399,0,0,SEARCHING,0.000,0.372,0.015,-0.004
21:05:52.594,SEARCHING,8.616,-1.601,0.270,0.00,0.00,-167.14,1.300,1.667,2.158,1.661,1.262,0,0,SEARCHING,0.000,0.343,0.035,-0.028
21:05:52.797,SEARCHING,8.564,-1.613,0.276,0.00,0.00,-167.41,1.306,1.616,2.272,1.612,1.354,0,0,SEARCHING,0.000,0.321,0.013,-0.025
21:05:52.997,SEARCHING,8.515,-1.624,0.280,0.00,0.00,-167.60,1.384,1.568,2.207,1.565,1.077,0,0,SEARCHING,0.000,0.308,0.061,-0.015
21:05:53.198,SEARCHING,8.468,-1.634,0.297,0.00,0.00,-167.71,1.401,1.514,2.174,1.510,1.097,0,0,SEARCHING,0.000,0.295,0.116,-0.010
21:05:53.396,SEARCHING,8.423,-1.644,0.319,0.00,0.00,-167.81,1.381,1.463,2.129,1.459,1.148,0,0,SEARCHING,0.000,0.279,0.087,-0.013
21:05:53.595,SEARCHING,8.380,-1.653,0.333,0.00,0.00,-167.95,1.357,1.422,2.044,1.420,1.274,0,0,SEARCHING,0.000,0.264,0.030,-0.022
21:05:53.795,SEARCHING,8.340,-1.662,0.339,0.00,0.00,-168.22,1.330,1.382,1.986,1.378,1.113,0,0,SEARCHING,0.000,0.254,0.059,-0.036
21:05:53.996,SEARCHING,8.300,-1.670,0.352,0.00,0.00,-168.59,1.309,1.337,1.988,1.335,1.143,0,0,SEARCHING,0.000,0.251,0.063,-0.045
21:05:54.196,SEARCHING,8.261,-1.677,0.364,0.00,0.00,-169.03,1.291,1.297,1.964,1.297,1.139,0,0,SEARCHING,0.000,0.250,0.055,-0.052
21:05:54.398,SEARCHING,8.222,-1.685,0.374,0.00,0.00,-169.53,1.264,1.254,1.955,1.254,1.090,0,0,SEARCHING,0.000,0.250,0.058,-0.059
21:05:54.599,SEARCHING,8.182,-1.692,0.387,0.00,0.00,-170.12,1.226,1.219,1.940,1.219,1.090,0,0,SEARCHING,0.000,0.250,0.063,-0.072
21:05:54.799,SEARCHING,8.143,-1.699,0.397,0.00,0.00,-170.85,1.171,1.169,1.916,1.171,1.141,0,0,SEARCHING,0.000,0.250,0.022,-0.091
21:05:54.999,SEARCHING,8.103,-1.705,0.400,0.00,0.00,-171.77,1.124,1.130,1.871,1.130,1.123,0,0,SEARCHING,0.000,0.250,0.005,-0.113
21:05:55.200,SEARCHING,8.054,-1.711,0.400,0.00,0.00,-173.16,1.075,1.111,1.826,1.130,1.115,0,0,SEARCHING,0.000,0.250,0.001,-0.138
21:05:55.401,SEARCHING,8.004,-1.717,0.400,0.00,0.00,-174.87,1.026,1.138,1.767,1.146,1.131,0,0,SEARCHING,0.000,0.250,0.000,-0.170
21:05:55.601,SEARCHING,7.954,-1.720,0.400,0.00,0.00,-176.97,0.966,1.219,1.756,1.177,1.139,0,0,SEARCHING,0.000,0.250,0.000,-0.209
21:05:55.801,SEARCHING,7.909,-1.722,0.401,0.00,0.00,-179.31,0.895,1.299,1.757,1.344,1.227,0,0,SEARCHING,0.000,0.250,0.015,-0.262
21:05:56.002,SEARCHING,7.864,-1.722,0.403,-0.00,0.00,177.92,0.833,1.481,2.949,1.479,1.227,0,0,SEARCHING,0.000,0.250,0.020,-0.245
21:05:56.202,SEARCHING,7.824,-1.719,0.409,-0.00,0.00,175.87,0.783,1.289,3.135,1.293,1.162,0,0,SEARCHING,0.000,0.250,0.047,-0.218
21:05:56.404,SEARCHING,7.784,-1.716,0.417,-0.00,0.00,174.54,0.806,1.539,4.206,1.537,1.346,0,0,SEARCHING,0.000,0.250,0.016,-0.023
21:05:56.603,SEARCHING,7.739,-1.712,0.418,-0.00,0.00,174.41,0.813,1.544,3.539,1.544,1.361,0,0,SEARCHING,0.000,0.252,0.004,-0.054
21:05:56.803,SEARCHING,7.690,-1.707,0.418,-0.00,0.00,173.63,0.831,1.500,3.334,1.500,1.268,0,0,SEARCHING,0.000,0.250,0.014,-0.092
21:05:57.004,SEARCHING,7.650,-1.702,0.421,-0.00,0.00,173.12,0.866,1.447,4.838,1.457,1.377,0,0,SEARCHING,0.000,0.250,0.008,0.095
21:05:57.204,SEARCHING,7.600,-1.697,0.421,-0.00,0.00,174.65,0.848,1.411,3.795,1.412,1.308,0,0,SEARCHING,0.000,0.250,0.002,0.094
21:05:57.404,SEARCHING,7.550,-1.692,0.421,-0.00,0.00,175.64,0.813,1.364,4.047,1.369,1.258,0,0,SEARCHING,0.000,0.250,0.000,0.081
21:05:57.605,SEARCHING,7.500,-1.689,0.421,-0.00,0.00,176.31,0.778,1.317,3.933,1.318,1.237,0,0,SEARCHING,0.000,0.250,0.000,0.013
21:05:57.805,SEARCHING,7.450,-1.686,0.421,-0.00,0.00,176.48,0.762,1.265,3.938,1.274,1.229,0,0,SEARCHING,0.000,0.250,0.000,0.006
21:05:58.007,SEARCHING,7.401,-1.683,0.421,-0.00,0.00,176.37,0.741,1.223,3.948,1.224,1.207,0,0,SEARCHING,0.000,0.250,0.000,-0.037
21:05:58.206,SEARCHING,7.351,-1.679,0.421,-0.00,0.00,175.69,0.742,1.177,3.475,1.177,1.170,0,0,SEARCHING,0.000,0.250,0.000,-0.118
21:05:58.407,SEARCHING,7.301,-1.675,0.421,-0.00,0.00,174.55,0.774,1.130,3.882,1.130,1.130,0,0,SEARCHING,0.000,0.250,0.000,-0.049
21:05:58.608,SEARCHING,7.251,-1.670,0.421,-0.00,0.00,174.37,0.783,1.077,3.890,1.080,1.084,0,0,SEARCHING,0.000,0.250,0.000,0.015
21:05:58.808,SEARCHING,7.201,-1.665,0.421,-0.00,0.00,174.31,0.774,1.034,4.454,1.035,1.038,0,0,SEARCHING,0.000,0.250,0.000,0.018
21:05:59.008,SEARCHING,7.152,-1.660,0.421,-0.00,0.00,174.68,0.776,0.989,4.851,0.991,0.991,0,0,SEARCHING,0.000,0.250,0.000,0.090
21:05:59.210,SEARCHING,7.102,-1.656,0.421,-0.00,0.00,175.59,0.763,0.951,4.333,0.950,0.951,0,0,SEARCHING,0.000,0.250,0.000,0.035
21:05:59.412,SEARCHING,7.052,-1.652,0.421,-0.00,0.00,175.78,0.738,0.894,3.321,0.892,0.894,0,0,SEARCHING,0.000,0.250,0.000,-0.090
21:05:59.611,SEARCHING,7.002,-1.648,0.421,-0.00,0.00,173.97,0.748,0.855,3.115,0.854,0.855,0,0,SEARCHING,0.000,0.250,0.000,-0.237
21:05:59.812,SEARCHING,6.952,-1.642,0.421,-0.00,0.00,171.61,0.728,0.803,4.283,0.802,0.803,0,0,SEARCHING,0.000,0.250,0.000,-0.105
21:06:00.015,INSPECTING,6.903,-1.634,0.421,-0.00,0.00,170.36,0.693,0.764,3.985,0.767,0.765,0,0,INSPECT_RIGHT,0.000,0.290,0.000,-0.293
21:06:00.217,INSPECTING,6.839,-1.621,0.421,-0.00,0.00,166.13,0.635,0.709,4.196,0.710,0.712,0,0,INSPECT_RIGHT,0.000,0.374,0.000,-0.450
21:06:00.416,INSPECTING,6.765,-1.600,0.421,-0.00,0.00,160.76,0.574,3.672,4.158,2.811,2.751,0,0,INSPECT_RIGHT,0.000,0.394,0.000,-0.488
21:06:00.617,SEARCHING,6.695,-1.572,0.420,-0.00,0.00,155.46,0.479,3.122,3.502,4.436,2.659,0,0,SEARCHING,0.000,0.552,-0.257,-0.628
21:06:00.819,SEARCHING,6.600,-1.523,0.339,-0.00,0.00,150.31,2.454,3.344,3.494,4.865,4.171,0,0,SEARCHING,0.000,0.741,-0.474,-0.237
21:06:01.020,SEARCHING,6.493,-1.461,0.242,-0.00,0.00,149.79,2.592,2.771,3.098,4.892,3.362,0,0,SEARCHING,0.000,0.786,-0.588,0.020
21:06:01.223,SEARCHING,6.383,-1.398,0.157,-0.00,0.00,150.20,2.611,2.891,2.961,4.819,7.335,0,0,SEARCHING,0.000,0.797,0.163,0.053
21:06:01.420,SEARCHING,6.278,-1.338,0.195,-0.00,0.00,150.65,2.631,2.965,2.554,4.773,4.276,0,0,SEARCHING,0.000,0.746,-0.045,0.022
21:06:01.620,SEARCHING,6.170,-1.277,0.205,-0.00,0.00,150.61,2.420,2.585,2.330,4.739,2.706,0,0,SEARCHING,0.000,0.787,0.007,-0.017
21:06:01.821,SEARCHING,6.059,-1.215,0.200,-0.00,0.00,150.42,2.072,2.393,2.492,4.600,5.130,0,0,SEARCHING,0.000,0.765,0.141,-0.001
21:06:02.022,SEARCHING,5.960,-1.159,0.208,-0.00,0.00,150.58,2.241,2.484,2.028,4.525,2.726,0,0,SEARCHING,0.000,0.698,-0.360,0.007
21:06:02.222,SEARCHING,5.858,-1.101,0.159,-0.00,0.00,150.45,2.307,2.803,2.772,4.434,5.285,0,0,SEARCHING,0.000,0.769,0.205,0.006
21:06:02.422,SEARCHING,5.749,-1.040,0.206,-0.00,0.00,150.66,2.340,2.724,2.390,4.401,3.900,0,0,SEARCHING,0.000,0.787,0.058,0.013
21:06:02.623,SEARCHING,5.642,-0.979,0.190,-0.00,0.00,150.73,2.620,2.899,2.420,4.287,5.725,0,0,SEARCHING,0.000,0.766,0.022,-0.007
21:06:02.823,SEARCHING,5.533,-0.918,0.237,-0.00,0.00,150.48,2.676,2.962,2.469,4.168,4.077,0,0,SEARCHING,0.000,0.792,0.321,-0.039
21:06:03.024,SEARCHING,5.422,-0.855,0.279,-0.00,0.00,150.17,2.606,2.787,2.622,4.005,2.768,0,0,SEARCHING,0.000,0.798,-0.087,-0.020
21:06:03.225,SEARCHING,5.315,-0.793,0.228,-0.00,0.00,150.13,2.739,2.861,2.618,3.875,5.724,0,0,SEARCHING,0.000,0.763,-0.107,-0.004
21:06:03.425,SEARCHING,5.207,-0.731,0.248,-0.00,0.00,149.77,5.884,2.867,2.501,3.795,4.279,0,0,SEARCHING,0.000,0.791,0.257,-0.327
21:06:03.626,SEARCHING,5.099,-0.663,0.287,-0.00,0.00,143.73,6.400,2.893,2.644,3.527,2.446,0,0,SEARCHING,0.000,0.798,-0.064,-0.888
21:06:03.827,SEARCHING,5.003,-0.582,0.256,-0.00,0.00,136.59,3.756,2.745,2.498,3.162,2.767,0,0,SEARCHING,0.000,0.785,-0.192,-0.519
21:06:04.027,SEARCHING,4.914,-0.494,0.214,-0.00,0.00,133.25,2.700,1.983,2.051,2.900,1.131,0,0,SEARCHING,0.000,0.691,-0.229,-0.223
21:06:04.228,SEARCHING,4.850,-0.424,0.173,-0.00,0.00,131.93,2.429,2.083,1.972,2.792,3.674,0,0,SEARCHING,0.000,0.552,-0.023,-0.089
21:06:04.429,SEARCHING,4.793,-0.359,0.166,-0.00,0.00,131.36,1.710,1.608,1.521,2.670,0.893,0,0,SEARCHING,0.000,0.480,-0.046,-0.033
21:06:04.640,SEARCHING,4.743,-0.303,0.161,-0.00,0.00,131.22,2.044,1.796,1.628,2.600,3.543,0,0,SEARCHING,0.000,0.397,0.099,-0.007
21:06:04.841,SEARCHING,4.702,-0.255,0.180,-0.00,0.00,131.17,1.586,1.703,1.671,2.508,0.892,0,0,SEARCHING,0.000,0.386,0.037,-0.004
21:06:05.041,SEARCHING,4.657,-0.204,0.182,-0.00,0.00,131.13,2.263,2.304,1.874,2.455,3.489,0,0,SEARCHING,0.000,0.520,0.078,-0.012
21:06:05.241,SEARCHING,4.601,-0.141,0.199,-0.00,0.00,130.99,2.086,1.969,1.816,2.382,1.424,0,0,SEARCHING,0.000,0.492,-0.025,-0.013
21:06:05.441,SEARCHING,4.550,-0.081,0.188,-0.00,0.00,130.84,1.783,1.862,1.777,2.317,1.287,0,0,SEARCHING,0.000,0.474,-0.072,-0.014
21:06:05.642,SEARCHING,4.501,-0.025,0.176,-0.00,0.00,130.70,1.742,1.643,1.632,2.241,0.781,0,0,SEARCHING,0.000,0.436,0.082,-0.013
21:06:05.842,SEARCHING,4.459,0.024,0.201,-0.00,0.00,130.65,2.083,1.920,1.698,2.176,1.554,0,0,SEARCHING,0.000,0.410,0.060,-0.007
21:06:06.043,SEARCHING,4.414,0.077,0.213,-0.00,0.00,130.59,1.748,1.979,1.703,2.112,0.768,0,0,SEARCHING,0.000,0.453,0.194,-0.003
21:06:06.244,SEARCHING,4.366,0.133,0.250,-0.00,0.00,130.54,2.063,2.023,1.667,2.052,1.458,0,0,SEARCHING,0.000,0.481,0.069,-0.009
21:06:06.444,SEARCHING,4.315,0.192,0.260,-0.00,0.00,130.43,2.061,1.978,1.619,1.983,0.908,0,0,SEARCHING,0.000,0.476,0.103,-0.013
21:06:06.645,SEARCHING,4.267,0.249,0.284,-0.00,0.00,130.31,2.185,1.923,1.575,1.938,0.917,0,0,SEARCHING,0.000,0.457,0.149,-0.015
21:06:06.845,SEARCHING,4.221,0.303,0.322,-0.00,0.00,130.17,2.131,1.837,1.517,1.851,1.083,0,0,SEARCHING,0.000,0.425,0.205,-0.012
21:06:08.232,SEARCHING,4.153,0.385,0.353,-0.00,0.00,130.08,2.077,1.799,1.479,1.802,1.424,0,0,SEARCHING,0.000,0.398,0.061,-0.001
21:06:08.288,SEARCHING,4.117,0.427,0.367,-0.00,0.00,130.09,2.077,1.799,1.479,1.802,1.424,0,0,SEARCHING,0.000,0.388,0.015,0.003
21:06:08.462,SEARCHING,4.074,0.478,0.368,-0.00,0.00,130.20,1.884,1.647,1.353,1.650,0.899,0,0,SEARCHING,0.000,0.351,0.088,0.026
21:06:08.659,SEARCHING,4.039,0.519,0.393,-0.00,0.00,130.53,1.822,1.596,1.307,1.597,1.183,0,0,SEARCHING,0.000,0.320,0.118,0.046
21:06:08.859,SEARCHING,4.007,0.557,0.415,-0.00,0.00,131.02,1.781,1.561,1.283,1.555,1.135,0,0,SEARCHING,0.000,0.301,0.105,0.059
21:06:09.059,SEARCHING,3.976,0.592,0.435,-0.00,0.00,131.60,1.733,1.521,1.251,1.513,1.271,0,0,SEARCHING,0.000,0.286,0.075,0.069
21:06:09.260,SEARCHING,3.946,0.625,0.448,-0.00,0.00,132.28,1.698,1.482,1.215,1.473,1.297,0,0,SEARCHING,0.000,0.271,0.039,0.081
21:06:09.462,SEARCHING,3.917,0.657,0.453,-0.00,0.00,133.06,1.682,1.449,1.191,1.445,1.262,0,0,SEARCHING,0.000,0.258,0.009,0.091
21:06:09.663,SEARCHING,3.882,0.694,0.453,-0.00,0.00,134.14,1.667,1.402,1.172,1.407,1.287,0,0,SEARCHING,0.000,0.252,0.002,0.100
21:06:09.864,SEARCHING,3.847,0.729,0.453,-0.00,0.00,135.33,1.659,1.353,1.144,1.356,1.289,0,0,SEARCHING,0.000,0.250,0.001,0.110
21:06:10.065,SEARCHING,3.811,0.764,0.453,-0.00,0.00,136.64,1.670,1.304,1.115,1.302,1.286,0,0,SEARCHING,0.000,0.250,0.000,0.124
21:06:10.265,SEARCHING,3.778,0.795,0.454,-0.00,0.00,137.97,1.682,1.256,1.089,1.255,1.215,0,0,SEARCHING,0.000,0.250,0.017,0.138
21:06:10.466,SEARCHING,3.744,0.824,0.456,-0.00,0.00,139.46,1.695,1.215,1.074,1.215,1.211,0,0,SEARCHING,0.000,0.250,0.004,0.151
21:06:10.665,SEARCHING,3.706,0.856,0.456,-0.00,0.00,141.25,1.742,1.161,1.037,1.160,1.159,0,0,SEARCHING,0.000,0.250,0.001,0.169
21:06:10.863,SEARCHING,3.666,0.887,0.456,-0.00,0.00,143.25,1.784,1.107,1.021,1.110,1.110,0,0,SEARCHING,0.000,0.250,0.000,0.184
21:06:11.063,SEARCHING,3.625,0.916,0.456,-0.00,0.00,145.42,1.875,1.111,1.002,1.110,1.110,0,0,SEARCHING,0.000,0.250,0.000,0.198
21:06:11.264,SEARCHING,3.584,0.944,0.456,-0.00,0.00,147.72,2.036,1.137,0.978,1.137,1.130,0,0,SEARCHING,0.000,0.250,0.000,0.207
21:06:11.464,SEARCHING,3.541,0.970,0.456,-0.00,0.00,150.16,2.198,1.152,0.922,1.151,1.153,0,0,SEARCHING,0.000,0.250,0.000,0.227
21:06:11.665,SEARCHING,3.497,0.994,0.456,-0.00,0.00,152.88,2.503,1.196,0.857,1.205,1.193,0,0,SEARCHING,0.000,0.250,0.000,0.253
21:06:11.865,SEARCHING,3.452,1.016,0.456,-0.00,0.00,155.90,2.638,1.251,0.812,1.253,1.239,0,0,SEARCHING,0.000,0.250,0.000,0.282
21:06:12.065,SEARCHING,3.406,1.035,0.456,-0.00,0.00,159.15,5.925,1.356,0.830,1.353,1.246,0,0,SEARCHING,0.000,0.250,0.000,0.003
21:06:12.266,SEARCHING,3.360,1.053,0.456,-0.00,0.00,156.34,5.443,1.349,0.824,1.346,1.295,0,0,SEARCHING,0.000,0.250,0.000,-0.455
21:06:12.467,SEARCHING,3.315,1.075,0.456,-0.00,0.00,152.41,2.865,1.159,0.741,1.158,1.147,0,0,SEARCHING,0.000,0.250,0.000,-0.011
21:06:12.667,SEARCHING,3.270,1.098,0.456,-0.00,0.00,154.11,2.481,1.083,0.703,1.079,1.077,0,0,SEARCHING,0.000,0.250,0.000,0.353
21:06:12.867,SEARCHING,3.224,1.118,0.456,-0.00,0.00,158.73,2.683,1.167,0.724,1.163,1.165,0,0,SEARCHING,0.000,0.250,0.000,0.435
21:06:13.068,SEARCHING,3.177,1.135,0.456,-0.00,0.00,160.26,9.139,1.305,0.766,1.310,1.274,0,0,SEARCHING,0.000,0.250,0.000,-0.551
21:06:13.268,SEARCHING,3.131,1.154,0.456,-0.00,0.00,151.74,4.192,1.112,0.688,1.115,1.115,0,0,SEARCHING,0.000,0.250,0.000,-0.587
21:06:13.469,SEARCHING,3.088,1.180,0.456,-0.00,0.00,149.04,1.951,0.890,0.595,0.891,0.888,0,0,SEARCHING,0.000,0.250,0.000,0.317
21:06:13.669,SEARCHING,3.044,1.204,0.456,-0.00,0.00,154.87,1.927,0.890,0.584,0.889,0.894,0,0,SEARCHING,0.000,0.250,0.000,0.719
21:06:13.870,SEARCHING,2.998,1.222,0.456,-0.00,0.00,163.42,7.337,1.071,0.645,1.079,1.076,0,0,SEARCHING,0.000,0.250,0.000,0.291
21:06:14.070,SEARCHING,2.950,1.236,0.456,-0.00,0.00,161.45,9.687,1.240,0.685,1.243,1.206,0,0,SEARCHING,0.000,0.250,0.000,-0.734
21:06:14.271,SEARCHING,2.904,1.255,0.456,-0.00,0.00,152.01,3.980,0.961,0.589,0.975,0.956,0,0,SEARCHING,0.000,0.250,0.000,-0.482
21:06:14.513,INSPECTING,2.860,1.280,0.456,-0.00,0.00,151.52,1.765,0.773,0.505,0.771,0.776,0,0,SEARCHING,0.000,0.175,0.000,0.595
21:06:14.672,INSPECTING,2.816,1.301,0.456,-0.00,0.00,157.20,1.800,0.794,0.508,0.813,0.794,0,0,INSPECT_LEFT,0.000,0.288,0.000,0.523
21:06:14.872,INSPECTING,2.755,1.323,0.456,-0.00,0.00,163.10,7.295,0.926,0.547,0.927,0.945,0,0,INSPECT_LEFT,0.000,0.369,0.000,0.505
21:06:15.072,INSPECTING,2.682,1.342,0.456,-0.00,0.00,168.86,9.545,1.109,0.594,1.121,1.112,0,0,INSPECT_LEFT,0.000,0.393,0.000,0.501
21:06:15.273,SEARCHING,2.603,1.354,0.456,-0.00,0.00,174.60,9.963,1.626,0.696,1.587,1.370,0,0,INSPECT_LEFT,0.000,0.398,0.000,0.500
21:06:15.473,SEARCHING,2.533,1.360,0.456,-0.00,0.00,172.77,9.996,1.831,0.765,1.849,1.495,0,0,SEARCHING,0.000,0.339,0.000,-0.716
21:06:15.674,SEARCHING,2.469,1.373,0.456,-0.00,0.00,162.94,9.999,1.294,0.623,1.277,1.213,0,0,SEARCHING,0.000,0.287,0.000,-1.008
21:06:15.933,INSPECTING,2.418,1.393,0.456,-0.00,0.00,152.24,3.676,0.789,0.464,0.786,0.789,0,0,SEARCHING,0.000,0.184,0.000,-0.325
21:06:16.076,INSPECTING,2.370,1.421,0.456,-0.00,0.00,149.95,1.345,0.569,0.378,0.568,0.575,0,0,INSPECT_LEFT,0.000,0.309,0.000,0.302
21:06:16.277,INSPECTING,2.320,1.449,0.456,-0.00,0.00,154.25,1.189,0.539,0.355,0.541,0.548,0,0,INSPECT_LEFT,0.000,0.258,0.000,0.452
21:06:16.477,INSPECTING,2.273,1.469,0.456,-0.00,0.00,159.64,1.536,0.596,0.364,0.583,0.602,0,0,INSPECT_LEFT,0.000,0.274,0.000,0.489
21:06:16.678,INSPECTING,2.215,1.487,0.456,-0.00,0.00,165.28,7.999,0.693,0.395,0.709,0.689,0,0,INSPECT_LEFT,0.000,0.360,0.000,0.497
21:06:16.878,INSPECTING,2.141,1.503,0.456,-0.00,0.00,170.99,9.765,0.908,0.443,0.921,0.912,0,0,INSPECT_LEFT,0.000,0.390,0.000,0.499
21:06:17.079,INSPECTING,2.063,1.512,0.456,-0.00,0.00,176.72,9.972,1.293,0.511,1.260,1.207,0,0,INSPECT_LEFT,0.000,0.398,0.000,0.500
21:06:17.279,SEARCHING,1.982,1.514,0.452,-0.00,0.00,179.67,9.997,7.937,0.646,7.933,2.562,0,0,SEARCHING,0.000,0.603,-0.348,-0.316
21:06:17.479,SEARCHING,1.870,1.519,0.360,-0.00,0.00,173.34,10.000,4.113,0.615,4.107,3.240,0,0,SEARCHING,0.000,0.753,-0.510,-0.912
21:06:17.679,SEARCHING,1.764,1.539,0.277,-0.00,0.00,164.15,10.000,1.310,0.451,1.269,1.117,0,0,SEARCHING,0.000,0.489,-0.162,-1.055
21:06:17.921,INSPECTING,1.707,1.559,0.261,-0.00,0.00,154.28,5.501,0.624,0.329,0.611,0.594,0,0,SEARCHING,0.000,0.232,-0.010,-0.702
21:06:18.130,TURNING,1.657,1.588,0.261,-0.00,0.00,147.45,1.283,0.367,0.247,0.398,0.364,1,0,TURNING,0.000,0.164,-0.003,-0.881
21:06:18.319,TURNING,1.632,1.605,0.261,-0.00,0.00,136.59,0.446,0.257,0.255,0.289,0.254,1,0,TURNING,0.000,0.077,-0.001,-1.275
21:06:18.513,TURNING,1.623,1.616,0.261,-0.00,0.00,121.70,0.267,0.280,0.636,0.355,0.253,1,0,TURNING,0.000,0.057,-0.000,-1.370
21:06:18.683,TURNING,1.618,1.626,0.261,-0.00,0.00,105.91,0.372,0.267,0.306,0.386,0.262,0,0,TURNING,0.000,0.052,-0.000,-1.393
21:06:18.882,TURNING,1.617,1.636,0.261,-0.00,0.00,89.92,0.334,2.387,0.268,0.269,0.508,0,0,TURNING,0.000,0.050,-0.000,-1.398
21:06:19.200,TURNING,1.618,1.646,0.261,-0.00,0.00,73.89,0.959,0.591,2.338,0.934,1.022,1,0,TURNING,0.000,0.050,-0.000,-1.400
21:06:19.350,TURNING,1.622,1.655,0.261,-0.00,0.00,57.86,0.406,0.444,0.966,0.528,0.557,1,0,TURNING,0.000,0.050,-0.000,-1.400
21:06:19.531,TURNING,1.626,1.660,0.261,-0.00,-0.00,43.44,0.279,0.325,0.313,0.474,0.309,1,0,TURNING,0.000,0.050,-0.000,-1.400
21:06:19.727,TURNING,1.630,1.663,0.261,-0.01,-0.03,29.70,0.240,0.236,0.250,0.262,0.238,1,0,TURNING,0.000,0.050,-0.000,-1.400
21:06:19.937,TURNING,1.639,1.667,0.261,-0.01,-0.03,13.65,0.231,0.238,0.778,0.234,0.234,1,0,TURNING,0.000,0.050,-0.000,-1.400
21:06:20.094,TURNING,1.649,1.668,0.261,-0.01,-0.03,-2.39,0.235,0.373,2.416,0.403,0.312,0,0,TURNING,0.000,0.050,-0.000,-1.400
21:06:20.296,TURNING,1.659,1.666,0.261,-0.01,-0.03,-18.43,0.341,1.443,2.151,3.964,0.705,0,0,TURNING,0.000,0.050,-0.000,-1.400
21:06:20.497,RETURNING,1.665,1.664,0.259,-0.01,-0.03,-29.10,1.548,1.969,2.262,5.854,1.355,0,0,RETURNING,0.000,0.043,-0.357,-1.195
21:06:20.697,RETURNING,1.671,1.659,0.164,0.06,-0.08,-40.17,2.262,1.988,1.829,4.744,1.640,0,0,RETURNING,0.000,0.048,-0.614,-1.224
21:06:20.898,RETURNING,1.676,1.654,0.089,0.06,-0.08,-50.96,1.610,1.438,1.474,4.197,2.172,0,0,RETURNING,0.000,0.050,-0.679,-0.798
21:06:21.099,RETURNING,1.681,1.647,0.090,0.06,-0.08,-57.10,1.759,1.725,1.650,3.892,5.893,0,0,RETURNING,0.000,0.050,-0.227,-0.837
21:06:21.299,RETURNING,1.686,1.638,0.128,0.06,-0.08,-65.22,1.930,1.906,1.771,3.841,3.757,0,0,RETURNING,0.000,0.085,0.267,-0.888
21:06:21.499,RETURNING,1.692,1.624,0.181,0.06,-0.08,-73.18,2.448,2.137,1.757,3.594,4.553,0,0,RETURNING,0.000,0.120,0.335,-0.836
21:06:21.701,RETURNING,1.697,1.602,0.237,0.06,-0.08,-80.51,2.209,2.213,1.961,3.358,2.869,0,0,RETURNING,0.000,0.172,0.046,-0.752
21:06:21.901,RETURNING,1.700,1.570,0.229,0.06,-0.08,-87.06,2.385,2.115,2.027,2.461,1.482,0,0,RETURNING,0.000,0.218,-0.129,-0.675
21:06:22.102,RETURNING,1.701,1.535,0.210,0.06,-0.08,-92.93,1.884,1.930,1.909,2.201,0.806,0,0,RETURNING,0.000,0.220,0.095,-0.599
21:06:22.303,RETURNING,1.697,1.498,0.232,0.06,-0.08,-98.18,2.204,1.985,2.145,1.993,1.080,0,0,RETURNING,0.000,0.246,0.064,-0.543
21:06:22.502,RETURNING,1.690,1.458,0.246,0.06,-0.08,-102.84,2.074,1.992,2.129,2.064,0.837,0,0,RETURNING,0.000,0.266,0.153,-0.474
21:06:22.703,RETURNING,1.679,1.416,0.290,0.06,-0.08,-107.00,2.009,2.032,2.353,2.061,1.174,0,0,RETURNING,0.000,0.273,0.204,-0.427
21:06:22.904,RETURNING,1.665,1.374,0.323,0.06,-0.08,-110.72,1.946,2.136,3.755,2.118,1.180,0,0,RETURNING,0.000,0.296,0.100,-0.354
21:06:23.104,RETURNING,1.646,1.328,0.332,0.06,-0.08,-113.23,1.860,2.527,3.436,2.908,1.439,0,0,RETURNING,0.000,0.348,-0.099,-0.233
21:06:23.305,RETURNING,1.620,1.271,0.298,0.06,-0.08,-115.05,1.780,2.579,4.830,3.115,1.700,0,0,RETURNING,0.000,0.415,-0.279,-0.147
21:06:23.505,RETURNING,1.591,1.209,0.240,0.06,-0.08,-116.00,1.708,2.730,7.230,3.098,2.295,0,0,RETURNING,0.000,0.437,-0.275,-0.046
21:06:23.706,RETURNING,1.561,1.148,0.184,0.06,-0.08,-116.25,1.620,2.812,8.641,3.054,6.216,0,0,RETURNING,0.000,0.418,0.004,-0.018
21:06:23.906,RETURNING,1.534,1.093,0.201,0.06,-0.08,-116.86,1.561,2.642,7.909,2.975,2.838,0,0,RETURNING,0.000,0.360,0.004,-0.086
21:06:24.111,RETURNING,1.507,1.041,0.190,0.06,-0.08,-117.31,1.529,2.275,5.807,2.909,1.867,0,0,RETURNING,0.000,0.346,-0.166,-0.041
21:06:24.309,RETURNING,1.483,0.994,0.182,0.06,-0.08,-117.68,1.494,2.454,7.340,2.877,4.202,0,0,RETURNING,0.000,0.335,0.219,-0.032
21:06:24.509,RETURNING,1.458,0.947,0.224,0.06,-0.08,-117.97,1.488,1.899,3.069,2.864,1.292,0,0,RETURNING,0.000,0.287,-0.005,-0.116
21:06:24.709,RETURNING,1.439,0.913,0.215,0.06,-0.08,-119.96,1.479,2.050,4.253,2.851,1.350,0,0,RETURNING,0.000,0.234,-0.098,-0.242
21:06:24.910,RETURNING,1.418,0.878,0.186,0.06,-0.08,-121.51,1.463,2.051,4.842,2.830,1.641,0,0,RETURNING,0.000,0.263,-0.217,-0.117
21:06:25.111,RETURNING,1.397,0.844,0.148,0.06,-0.08,-122.74,1.417,2.183,6.196,2.818,5.561,0,0,RETURNING,0.000,0.248,0.131,-0.103
21:06:25.312,RETURNING,1.374,0.809,0.212,0.06,-0.08,-123.20,2.084,2.157,6.366,2.824,4.764,0,0,RETURNING,0.000,0.279,0.563,-0.018
21:06:25.513,RETURNING,1.350,0.771,0.309,0.06,-0.08,-123.26,2.256,1.120,9.142,2.777,1.833,0,0,RETURNING,0.000,0.236,0.114,0.328
21:06:25.715,RETURNING,1.335,0.746,0.307,0.06,-0.08,-116.86,2.013,2.086,9.198,2.692,2.121,0,0,RETURNING,0.000,0.189,-0.121,0.559
21:06:25.917,RETURNING,1.319,0.714,0.279,0.06,-0.08,-114.62,1.391,2.344,7.395,2.606,1.971,0,0,RETURNING,0.000,0.242,-0.155,0.050
21:06:26.117,RETURNING,1.303,0.679,0.250,0.06,-0.08,-115.13,1.292,2.082,4.204,2.548,1.147,0,0,RETURNING,0.000,0.230,-0.114,-0.175
21:06:26.318,RETURNING,1.287,0.645,0.228,0.06,-0.08,-116.92,1.278,2.051,5.002,2.526,1.383,0,0,RETURNING,0.000,0.229,-0.123,-0.192
21:06:26.518,RETURNING,1.271,0.615,0.203,0.06,-0.08,-119.01,1.452,1.902,4.337,2.506,1.342,0,0,RETURNING,0.000,0.198,-0.126,-0.257
