timestamp,state,x,y,z,roll_deg,pitch_deg,yaw_deg,dist_left,dist_center,dist_right,dist_top,dist_bottom,dtof_alert,collision_event,best_dir,max_space,cmd_vx,cmd_vz,cmd_yaw
21:45:09.182,SEARCHING,0.000,0.000,0.000,0.00,0.00,0.00,10.000,10.000,10.000,10.000,10.000,0,0,SEARCHING,0.000,0.800,0.000,0.000
21:45:10.503,SEARCHING,0.048,0.000,1.000,0.00,0.00,0.00,10.000,10.000,10.000,10.000,10.000,0,0,SEARCHING,0.000,0.800,0.000,0.000
21:45:10.706,SEARCHING,0.113,0.000,0.998,0.00,0.00,1.95,3.365,1.095,0.974,1.100,1.095,0,0,SEARCHING,0.000,0.277,0.005,0.584
21:45:10.906,SEARCHING,0.147,0.002,1.001,0.00,0.00,5.99,2.972,1.162,0.919,1.162,1.167,0,0,SEARCHING,0.000,0.293,-0.005,0.601
21:45:11.106,SEARCHING,0.181,0.007,1.001,0.00,0.00,10.18,2.630,5.720,0.857,5.448,2.266,0,0,SEARCHING,0.000,0.800,0.309,0.629
21:45:11.307,SEARCHING,0.275,0.027,1.058,0.00,0.00,14.51,2.384,4.868,0.857,4.868,2.571,0,0,SEARCHING,0.000,0.800,0.220,0.598
21:45:11.507,SEARCHING,0.367,0.054,1.095,0.00,0.00,18.55,2.200,3.632,0.870,3.575,2.661,0,0,SEARCHING,0.000,0.800,0.115,0.556
21:45:11.708,SEARCHING,0.458,0.086,1.115,0.00,0.00,19.62,2.080,3.415,6.730,3.365,2.724,0,0,SEARCHING,0.000,0.800,0.084,-0.266
21:45:11.908,SEARCHING,0.548,0.117,1.132,0.00,0.00,18.89,2.099,3.316,6.356,3.415,2.757,0,0,SEARCHING,0.000,0.800,0.084,-0.255
21:45:12.109,SEARCHING,0.640,0.147,1.148,0.00,0.00,17.14,2.099,3.751,6.356,3.632,2.825,0,0,SEARCHING,0.000,0.800,0.094,-0.255
21:45:12.310,SEARCHING,0.732,0.174,1.170,0.00,0.00,15.43,2.138,4.160,5.448,4.237,2.896,0,0,SEARCHING,0.000,0.800,0.131,-0.227
21:45:12.510,SEARCHING,0.825,0.199,1.198,0.00,0.00,13.89,2.159,4.576,4.974,4.576,3.011,0,0,SEARCHING,0.000,0.800,0.136,-0.210
21:45:12.711,SEARCHING,0.918,0.221,1.225,0.00,0.00,12.52,2.200,4.576,4.400,4.576,3.092,0,0,SEARCHING,0.000,0.800,0.126,-0.182
21:45:12.912,SEARCHING,1.012,0.241,1.252,0.00,0.00,11.27,2.222,4.767,4.160,4.767,3.092,0,0,SEARCHING,0.000,0.800,0.136,-0.168
21:45:14.687,SEARCHING,1.090,0.256,1.279,0.00,0.00,10.31,2.222,4.767,4.160,4.767,3.134,0,0,SEARCHING,0.000,0.800,0.131,-0.168
21:45:14.722,SEARCHING,1.138,0.265,1.305,0.00,0.00,9.74,2.222,4.767,4.160,4.767,3.134,0,0,SEARCHING,0.000,0.800,0.131,-0.168
21:45:14.885,SEARCHING,1.232,0.280,1.331,0.00,0.00,8.65,2.288,5.085,3.691,5.085,3.269,0,0,SEARCHING,0.000,0.800,0.131,-0.133
21:45:15.080,SEARCHING,1.327,0.294,1.356,0.00,0.00,7.75,2.335,5.321,3.520,4.974,3.316,0,0,SEARCHING,0.000,0.800,0.121,-0.115
21:45:15.280,SEARCHING,1.423,0.306,1.381,0.00,0.00,6.96,2.288,5.321,3.467,4.974,3.316,0,0,SEARCHING,0.000,0.800,0.121,-0.119
21:45:15.480,SEARCHING,1.518,0.317,1.404,0.00,0.00,6.18,2.359,5.321,3.415,4.974,3.365,0,0,SEARCHING,0.000,0.800,0.115,-0.105
21:45:15.680,SEARCHING,1.614,0.327,1.424,0.00,0.00,5.49,2.409,5.448,3.365,4.868,3.520,0,0,SEARCHING,0.000,0.800,0.094,-0.094
21:45:15.882,SEARCHING,1.709,0.336,1.443,0.00,0.00,4.84,3.178,5.720,3.269,4.868,3.575,0,0,SEARCHING,0.000,0.800,0.089,-0.007
21:45:16.081,SEARCHING,1.805,0.344,1.460,0.00,0.00,4.81,3.223,5.581,3.269,4.767,3.632,0,0,SEARCHING,0.000,0.800,0.079,-0.003
21:45:16.282,SEARCHING,1.900,0.352,1.476,0.00,0.00,4.78,3.178,5.581,3.269,4.767,3.751,0,0,SEARCHING,0.000,0.800,0.068,-0.007
21:45:16.483,SEARCHING,1.996,0.360,1.490,0.00,0.00,4.72,3.092,5.581,3.269,4.767,3.691,0,0,SEARCHING,0.000,0.800,0.073,-0.014
21:45:16.684,SEARCHING,2.092,0.368,1.504,0.00,0.00,4.64,2.972,5.448,3.178,4.670,3.751,0,0,SEARCHING,0.000,0.800,0.063,-0.017
21:45:16.883,SEARCHING,2.187,0.375,1.516,0.00,0.00,4.52,2.934,5.581,3.134,4.670,3.751,0,0,SEARCHING,0.000,0.800,0.063,-0.017
21:45:17.084,SEARCHING,2.283,0.383,1.528,0.00,0.00,4.36,2.860,5.448,3.134,4.576,3.814,0,0,SEARCHING,0.000,0.800,0.052,-0.024
21:45:17.285,SEARCHING,2.379,0.390,1.539,0.00,0.00,4.17,2.825,5.720,3.134,4.670,3.751,0,0,SEARCHING,0.000,0.800,0.063,-0.028
21:45:17.485,SEARCHING,2.475,0.397,1.552,0.00,0.00,3.97,2.790,5.581,3.178,4.487,3.878,0,0,SEARCHING,0.000,0.800,0.042,-0.035
21:45:17.685,SEARCHING,2.570,0.403,1.561,0.00,0.00,3.71,2.825,5.448,3.269,4.576,3.878,0,0,SEARCHING,0.000,0.800,0.047,-0.038
21:45:17.886,SEARCHING,2.666,0.409,1.570,0.00,0.00,3.40,2.825,5.448,3.467,4.576,3.878,0,0,SEARCHING,0.000,0.800,0.047,-0.052
21:45:18.087,SEARCHING,2.762,0.415,1.579,0.00,0.00,3.02,2.860,5.321,3.520,4.576,3.945,0,0,SEARCHING,0.000,0.800,0.042,-0.052
21:45:18.288,SEARCHING,2.858,0.420,1.585,0.00,0.00,2.64,2.825,5.321,3.520,4.487,4.014,0,0,SEARCHING,0.000,0.800,0.031,-0.056
21:45:18.488,SEARCHING,2.954,0.424,1.593,0.00,0.00,2.27,2.860,5.200,3.415,4.487,4.014,0,0,SEARCHING,0.000,0.800,0.031,-0.045
21:45:18.688,SEARCHING,3.050,0.427,1.599,0.00,0.00,1.96,2.825,4.868,3.365,4.487,4.014,0,0,SEARCHING,0.000,0.800,0.031,-0.045
21:45:18.889,SEARCHING,3.146,0.431,1.605,0.00,0.00,1.66,2.860,4.974,3.365,4.487,4.014,0,0,SEARCHING,0.000,0.800,0.031,-0.042
21:45:19.089,SEARCHING,3.242,0.433,1.611,0.00,0.00,1.38,2.896,4.767,3.269,4.487,4.014,0,0,SEARCHING,0.000,0.800,0.031,-0.031
21:45:19.289,SEARCHING,3.338,0.435,1.617,0.00,0.00,1.17,2.896,4.670,3.178,4.400,4.014,0,0,SEARCHING,0.000,0.800,0.026,-0.024
21:45:19.490,SEARCHING,3.434,0.437,1.624,0.00,0.00,1.00,2.825,4.670,3.134,4.400,3.575,0,0,SEARCHING,0.000,0.800,0.063,-0.028
21:45:19.691,SEARCHING,3.530,0.439,1.633,0.00,0.00,0.82,2.860,4.576,3.051,4.400,4.160,0,0,SEARCHING,0.000,0.800,0.016,-0.017
21:45:19.891,SEARCHING,3.626,0.440,1.636,0.00,0.00,0.69,2.860,4.487,3.011,4.400,4.086,0,0,SEARCHING,0.000,0.800,0.021,-0.014
21:45:20.091,SEARCHING,3.722,0.441,1.641,0.00,0.00,0.59,2.825,4.400,2.972,4.400,4.086,0,0,SEARCHING,0.000,0.800,0.021,-0.014
21:45:20.292,SEARCHING,3.818,0.442,1.645,0.00,0.00,0.47,2.825,4.237,2.972,4.317,4.160,0,0,SEARCHING,0.000,0.800,0.010,-0.014
21:45:20.492,SEARCHING,3.914,0.443,1.647,0.00,0.00,0.36,2.860,4.237,2.934,4.237,3.945,0,0,SEARCHING,0.000,0.800,0.021,-0.007
21:45:20.694,SEARCHING,4.010,0.443,1.650,0.00,0.00,0.31,2.896,4.160,2.934,4.160,4.086,0,0,SEARCHING,0.000,0.800,0.005,-0.003
21:45:20.894,SEARCHING,4.106,0.444,1.650,0.00,0.00,0.28,2.860,4.014,2.934,4.014,4.014,0,0,SEARCHING,0.000,0.800,0.000,-0.007
21:45:21.094,SEARCHING,4.202,0.444,1.650,0.00,0.00,0.24,2.860,3.945,2.896,3.945,3.878,0,0,SEARCHING,0.000,0.800,0.005,-0.003
21:45:21.295,SEARCHING,4.298,0.445,1.651,0.00,0.00,0.22,2.825,3.814,2.860,3.814,3.814,0,0,SEARCHING,0.000,0.800,0.000,-0.003
21:45:21.495,SEARCHING,4.394,0.445,1.651,0.00,0.00,0.20,2.825,3.751,2.825,3.751,3.691,0,0,SEARCHING,0.000,0.800,0.005,0.000
21:45:21.695,SEARCHING,4.490,0.445,1.652,0.00,0.00,0.19,2.790,3.632,2.825,3.691,3.691,0,0,SEARCHING,0.000,0.800,0.000,-0.003
21:45:21.897,SEARCHING,4.570,0.445,1.652,0.00,0.00,0.15,2.724,3.575,2.825,3.575,3.575,0,0,SEARCHING,0.000,0.800,0.000,-0.010
21:45:22.097,SEARCHING,4.666,0.446,1.652,0.00,0.00,0.06,2.630,3.520,2.860,3.520,3.520,0,0,SEARCHING,0.000,0.800,0.000,-0.024
21:45:22.298,SEARCHING,4.762,0.446,1.652,0.00,0.00,-0.10,2.571,3.415,2.790,3.415,3.415,0,0,SEARCHING,0.000,0.800,0.000,-0.024
21:45:22.498,SEARCHING,4.858,0.445,1.652,0.00,0.00,-0.33,2.359,3.316,2.692,3.365,3.316,0,0,SEARCHING,0.000,0.800,0.005,-0.042
21:45:22.698,SEARCHING,4.954,0.445,1.652,0.00,0.00,-0.12,2.542,3.269,2.692,3.269,3.269,0,0,SEARCHING,0.000,0.800,0.000,-0.017
21:45:22.898,SEARCHING,5.050,0.444,1.652,0.00,0.00,-0.27,3.365,3.134,2.692,3.178,3.134,0,0,SEARCHING,0.000,0.800,0.005,0.059
21:45:23.100,SEARCHING,5.146,0.444,1.653,0.00,0.00,0.15,3.467,3.051,2.757,3.051,3.051,0,0,SEARCHING,0.000,0.800,0.000,0.059
21:45:23.300,SEARCHING,5.242,0.445,1.654,0.00,0.00,0.58,3.467,2.972,2.724,3.011,2.972,0,0,SEARCHING,0.000,0.800,0.005,0.063
21:45:23.500,SEARCHING,5.338,0.446,1.654,0.00,0.00,1.01,3.415,2.934,2.757,2.934,2.934,0,0,SEARCHING,0.000,0.800,0.000,0.056
21:45:23.701,SEARCHING,5.434,0.448,1.654,0.00,0.00,1.39,3.467,2.896,2.724,2.860,2.825,0,0,SEARCHING,0.000,0.800,0.005,0.063
21:45:23.902,SEARCHING,5.530,0.451,1.655,0.00,0.00,1.82,3.415,2.860,2.630,2.860,2.860,0,0,SEARCHING,0.000,0.800,0.000,0.070
21:45:24.102,SEARCHING,5.626,0.454,1.654,0.00,0.00,2.31,3.365,2.825,2.514,2.825,2.757,0,0,SEARCHING,0.000,0.800,0.010,0.080
21:45:24.302,SEARCHING,5.721,0.458,1.656,0.00,0.00,2.88,3.316,2.757,2.409,2.825,2.790,0,0,SEARCHING,0.000,0.800,0.005,0.091
21:45:24.503,SEARCHING,5.817,0.464,1.657,0.00,0.00,3.51,3.269,2.790,2.335,2.790,2.757,0,0,SEARCHING,0.000,0.800,0.005,0.098
21:45:24.703,SEARCHING,5.913,0.470,1.658,0.00,0.00,4.20,3.178,2.724,2.243,2.790,2.757,0,0,SEARCHING,0.000,0.800,0.005,0.105
21:45:24.904,SEARCHING,6.009,0.477,1.659,0.00,0.00,4.96,3.092,2.757,2.119,2.757,2.790,0,0,SEARCHING,0.000,0.800,-0.005,0.119
21:45:25.105,SEARCHING,6.104,0.486,1.657,0.00,0.00,5.79,2.934,2.757,2.025,2.724,2.757,0,0,SEARCHING,0.000,0.800,-0.005,0.122
21:45:25.305,SEARCHING,6.200,0.497,1.655,0.00,0.00,6.65,2.860,2.757,1.923,2.790,2.790,0,0,SEARCHING,0.000,0.800,0.000,0.136
21:45:25.506,SEARCHING,6.295,0.508,1.656,0.00,0.00,7.64,2.790,2.860,1.802,2.860,2.825,0,0,SEARCHING,0.000,0.800,0.005,0.157
21:45:25.706,SEARCHING,6.390,0.522,1.656,0.00,0.00,8.74,2.630,2.860,1.695,2.860,2.860,0,0,SEARCHING,0.000,0.800,0.000,0.168
21:45:25.907,SEARCHING,6.485,0.537,1.656,0.00,0.00,9.92,2.514,2.934,1.720,3.011,2.934,0,0,SEARCHING,0.000,0.800,0.010,0.147
21:45:26.107,SEARCHING,6.579,0.555,1.657,0.00,0.00,10.93,2.409,2.972,1.708,3.011,3.011,0,0,SEARCHING,0.000,0.800,0.000,0.136
21:45:26.307,SEARCHING,6.673,0.573,1.658,0.00,0.00,11.88,2.288,3.134,1.695,3.092,3.092,0,0,SEARCHING,0.000,0.800,0.000,0.122
21:45:26.509,SEARCHING,6.767,0.594,1.658,0.00,0.00,12.76,2.222,3.269,1.708,3.092,3.178,0,0,SEARCHING,0.000,0.800,-0.010,0.108
21:45:26.709,SEARCHING,6.861,0.615,1.656,0.00,0.00,13.48,2.179,3.520,1.720,3.269,3.520,0,0,SEARCHING,0.000,0.800,-0.026,0.098
21:45:26.911,SEARCHING,6.954,0.638,1.651,0.00,0.00,14.19,2.138,3.814,1.695,3.632,3.814,0,0,SEARCHING,0.000,0.800,-0.016,0.098
21:45:27.111,SEARCHING,7.047,0.662,1.649,0.00,0.00,14.86,2.119,3.751,1.670,3.632,3.751,0,0,SEARCHING,0.000,0.800,-0.010,0.101
21:45:27.311,SEARCHING,7.140,0.687,1.648,0.00,0.00,15.53,2.080,3.751,1.708,3.751,3.751,0,0,SEARCHING,0.000,0.800,0.000,0.084
21:45:27.511,SEARCHING,7.232,0.713,1.648,0.00,0.00,16.07,2.043,3.632,1.708,3.691,3.632,0,0,SEARCHING,0.000,0.800,0.005,0.077
21:45:27.712,SEARCHING,7.324,0.740,1.649,0.00,0.00,16.60,2.007,3.575,1.708,3.575,3.575,0,0,SEARCHING,0.000,0.800,0.000,0.070
21:45:27.912,SEARCHING,7.416,0.768,1.649,0.00,0.00,17.08,1.923,3.520,1.670,3.520,3.467,0,0,SEARCHING,0.000,0.800,0.005,0.063
21:45:28.113,SEARCHING,7.508,0.797,1.649,0.00,0.00,17.47,1.891,3.467,1.708,3.467,3.467,0,0,SEARCHING,0.000,0.800,0.000,0.045
21:45:28.313,SEARCHING,7.599,0.826,1.650,0.00,0.00,17.77,1.845,3.415,1.682,3.415,3.415,0,0,SEARCHING,0.000,0.800,0.000,0.042
21:45:28.514,SEARCHING,7.691,0.855,1.650,0.00,0.00,18.06,1.816,3.365,1.682,3.415,3.365,0,0,SEARCHING,0.000,0.800,0.005,0.035
21:45:28.715,SEARCHING,7.782,0.885,1.650,0.00,0.00,18.31,1.816,3.365,1.658,3.365,3.365,0,0,SEARCHING,0.000,0.800,0.000,0.042
21:45:28.915,SEARCHING,7.873,0.915,1.651,0.00,0.00,18.54,1.747,3.316,1.682,3.365,3.365,0,0,SEARCHING,0.000,0.800,0.000,0.017
21:45:29.116,SEARCHING,7.964,0.946,1.651,0.00,0.00,18.72,1.760,3.316,1.634,3.365,3.316,0,0,SEARCHING,0.000,0.800,0.005,0.035
21:45:29.317,SEARCHING,8.055,0.977,1.652,0.00,0.00,18.97,1.747,3.269,1.611,3.316,3.316,0,0,SEARCHING,0.000,0.800,0.000,0.038
21:45:29.517,SEARCHING,8.146,1.008,1.651,0.00,0.00,19.20,1.670,3.269,1.578,3.223,3.223,0,0,SEARCHING,0.000,0.800,0.000,0.028
21:45:29.718,SEARCHING,8.236,1.040,1.651,0.00,0.00,18.80,1.670,3.178,2.359,3.092,3.178,0,0,SEARCHING,0.000,0.800,-0.010,-0.140
21:45:29.919,SEARCHING,8.327,1.070,1.649,0.00,0.00,17.92,1.720,3.011,2.222,2.972,3.011,0,0,SEARCHING,0.000,0.800,-0.005,-0.105
21:45:30.119,SEARCHING,8.419,1.099,1.648,0.00,0.00,17.23,1.747,2.825,2.159,2.825,2.825,0,0,SEARCHING,0.000,0.800,0.000,-0.087
21:45:30.320,SEARCHING,8.511,1.127,1.649,0.00,0.00,16.66,1.774,2.692,2.138,2.757,2.757,0,0,SEARCHING,0.000,0.800,0.000,-0.077
21:45:30.520,SEARCHING,8.603,1.154,1.649,0.00,0.00,16.18,1.788,2.571,2.099,2.630,2.600,0,0,SEARCHING,0.000,0.800,0.005,-0.066
21:45:30.720,SEARCHING,8.695,1.181,1.650,0.00,0.00,15.74,1.747,2.487,2.043,2.514,2.487,0,0,SEARCHING,0.000,0.800,0.005,-0.066
21:45:30.922,SEARCHING,8.787,1.207,1.651,0.00,0.00,15.22,1.646,2.359,2.043,2.409,2.359,0,0,SEARCHING,0.000,0.800,0.010,-0.094
21:45:31.121,SEARCHING,8.880,1.231,1.651,0.00,0.00,14.56,1.589,2.311,1.990,2.335,2.266,0,0,SEARCHING,0.000,0.800,0.016,-0.101
21:45:31.321,SEARCHING,8.973,1.255,1.653,0.00,0.00,13.90,1.600,2.159,1.876,2.159,2.138,0,0,SEARCHING,0.000,0.800,0.005,-0.073
21:45:31.523,SEARCHING,9.066,1.278,1.654,0.00,0.00,13.42,1.589,2.080,1.788,2.080,2.043,0,0,SEARCHING,0.000,0.800,0.010,-0.056
21:45:31.724,SEARCHING,9.160,1.300,1.652,0.00,0.00,13.21,1.907,2.007,1.682,1.923,1.990,0,0,SEARCHING,0.000,0.800,-0.021,0.056
21:45:31.924,SEARCHING,9.253,1.322,1.648,0.00,0.00,13.69,1.956,1.973,1.611,1.956,1.990,0,0,SEARCHING,0.000,0.800,-0.010,0.087
21:45:32.124,SEARCHING,9.346,1.345,1.646,0.00,0.00,14.35,2.119,1.973,1.486,1.956,1.907,0,0,SEARCHING,0.000,0.800,0.016,0.161
21:45:32.324,SEARCHING,9.439,1.370,1.647,0.00,0.00,15.41,1.860,1.973,1.387,1.891,1.973,0,0,SEARCHING,0.000,0.797,-0.026,0.147
21:45:32.524,SEARCHING,9.530,1.395,1.639,0.00,0.00,16.54,1.860,1.990,1.308,1.816,1.990,0,0,SEARCHING,0.000,0.787,-0.058,0.182
21:45:32.725,SEARCHING,9.606,1.419,1.624,0.00,0.00,17.66,1.733,2.099,1.186,1.733,2.080,0,0,SEARCHING,0.000,0.800,-0.115,0.213
21:45:32.926,SEARCHING,9.697,1.449,1.598,0.00,0.00,19.15,1.682,2.179,1.144,1.634,2.138,0,0,SEARCHING,0.000,0.800,-0.173,0.224
21:45:33.127,SEARCHING,9.787,1.481,1.559,0.00,0.00,20.60,1.589,2.200,1.167,1.600,2.200,0,0,SEARCHING,0.000,0.800,-0.205,0.182
21:45:33.327,SEARCHING,9.877,1.516,1.520,0.00,0.00,21.81,1.525,2.311,1.150,1.611,2.335,0,0,SEARCHING,0.000,0.800,-0.231,0.171
21:45:33.527,SEARCHING,9.965,1.552,1.476,0.00,0.00,22.94,1.476,2.434,1.179,1.747,2.409,0,0,SEARCHING,0.000,0.800,-0.189,0.136
21:45:33.727,SEARCHING,10.054,1.590,1.456,0.00,0.00,23.76,1.421,2.409,1.186,2.288,2.384,0,0,SEARCHING,0.000,0.800,-0.021,0.112
21:45:33.929,SEARCHING,10.141,1.629,1.450,0.00,0.00,24.47,1.404,5.720,1.179,2.222,3.269,0,0,SEARCHING,0.000,0.800,-0.173,0.108
21:45:34.129,SEARCHING,10.228,1.670,1.420,0.00,0.00,25.12,1.338,5.321,1.198,4.487,3.415,0,0,SEARCHING,0.000,0.800,0.084,0.070
21:45:34.329,SEARCHING,10.315,1.711,1.437,0.00,0.00,25.67,1.378,5.085,1.211,4.670,3.575,0,0,SEARCHING,0.000,0.800,0.079,0.080
21:45:34.530,SEARCHING,10.401,1.753,1.452,0.00,0.00,26.23,1.362,4.868,1.224,4.576,3.632,0,0,SEARCHING,0.000,0.800,0.068,0.066
21:45:34.730,SEARCHING,10.487,1.795,1.465,0.00,0.00,26.69,1.354,4.576,1.167,4.487,3.691,0,0,SEARCHING,0.000,0.800,0.058,0.094
21:45:34.931,SEARCHING,10.573,1.839,1.476,0.00,0.00,27.22,1.338,4.317,1.224,4.317,3.691,0,0,SEARCHING,0.000,0.800,0.047,0.056
21:45:35.131,SEARCHING,10.658,1.883,1.485,0.00,0.00,27.58,1.338,4.014,1.237,4.160,3.691,0,0,SEARCHING,0.000,0.800,0.037,0.049
21:45:35.333,SEARCHING,10.743,1.928,1.491,0.00,0.00,27.92,1.346,3.945,1.224,4.086,3.691,0,0,SEARCHING,0.000,0.800,0.031,0.059
21:45:35.534,SEARCHING,10.828,1.973,1.497,0.00,0.00,28.31,1.315,3.814,1.211,3.878,3.632,0,0,SEARCHING,0.000,0.800,0.021,0.052
21:45:35.735,SEARCHING,10.912,2.018,1.501,0.00,0.00,28.63,1.300,3.751,1.237,3.814,3.632,0,0,SEARCHING,0.000,0.800,0.016,0.031
21:45:35.936,SEARCHING,10.997,2.065,1.504,0.00,0.00,28.82,1.271,3.632,1.244,3.691,3.575,0,0,SEARCHING,0.000,0.800,0.010,0.014
21:45:36.137,SEARCHING,11.081,2.111,1.507,0.00,0.00,28.94,1.315,3.691,1.204,3.691,3.575,0,0,SEARCHING,0.000,0.800,0.010,0.056
21:45:36.337,SEARCHING,11.165,2.158,1.509,0.00,0.00,29.28,1.330,3.520,1.224,3.520,3.467,0,0,SEARCHING,0.000,0.800,0.005,0.052
21:45:36.537,SEARCHING,11.248,2.205,1.510,0.00,0.00,29.89,1.421,3.316,2.025,3.365,3.316,0,0,SEARCHING,0.000,0.800,0.005,-0.168
21:45:36.738,SEARCHING,11.332,2.252,1.511,0.00,0.00,28.76,1.467,3.520,2.007,3.520,3.467,0,0,SEARCHING,0.000,0.800,0.005,-0.147
21:45:36.939,SEARCHING,11.416,2.298,1.512,0.00,0.00,27.86,1.515,3.751,1.876,3.751,3.632,0,0,SEARCHING,0.000,0.800,0.010,-0.101
21:45:37.139,SEARCHING,11.501,2.342,1.516,0.00,0.00,27.20,1.505,3.878,1.788,3.945,3.691,0,0,SEARCHING,0.000,0.800,0.021,-0.084
21:45:37.339,SEARCHING,11.587,2.386,1.520,0.00,0.00,26.71,1.567,4.014,1.760,4.014,3.751,0,0,SEARCHING,0.000,0.800,0.021,-0.056
21:45:37.540,SEARCHING,11.673,2.429,1.525,0.00,0.00,26.35,1.578,4.317,1.747,4.160,3.691,0,0,SEARCHING,0.000,0.800,0.037,-0.049
21:45:37.740,SEARCHING,11.759,2.471,1.532,0.00,0.00,26.01,1.589,4.974,1.708,4.317,3.814,0,0,SEARCHING,0.000,0.800,0.037,-0.035
21:45:37.941,SEARCHING,11.845,2.513,1.540,0.00,0.00,25.76,1.623,5.085,1.720,4.576,3.814,0,0,SEARCHING,0.000,0.800,0.052,-0.028
21:45:38.143,SEARCHING,11.932,2.554,1.550,0.00,0.00,25.58,1.611,5.321,1.708,4.670,3.878,0,0,SEARCHING,0.000,0.800,0.052,-0.028
21:45:38.343,SEARCHING,12.018,2.596,1.561,0.00,0.00,25.43,1.634,5.448,1.611,4.670,3.945,0,0,SEARCHING,0.000,0.800,0.047,0.007
21:45:38.544,SEARCHING,12.105,2.637,1.570,0.00,0.00,25.47,1.634,5.448,1.600,4.576,3.878,0,0,SEARCHING,0.000,0.800,0.047,0.010
21:45:38.743,SEARCHING,12.192,2.678,1.580,0.00,0.00,25.14,1.658,5.448,2.099,4.576,3.945,0,0,SEARCHING,0.000,0.800,0.042,-0.101
21:45:38.944,SEARCHING,12.279,2.719,1.588,0.00,0.00,24.53,1.733,5.867,2.043,4.576,3.945,0,0,SEARCHING,0.000,0.800,0.042,-0.070
21:45:39.144,SEARCHING,12.366,2.758,1.596,0.00,0.00,24.07,1.733,6.022,2.025,4.576,4.014,0,0,SEARCHING,0.000,0.800,0.037,-0.066
21:45:39.346,SEARCHING,12.454,2.797,1.603,0.00,0.00,23.67,1.774,5.581,1.973,4.487,4.014,0,0,SEARCHING,0.000,0.800,0.031,-0.045
21:45:39.546,SEARCHING,12.542,2.835,1.610,0.00,0.00,23.34,1.788,5.448,1.956,4.487,4.086,0,0,SEARCHING,0.000,0.800,0.026,-0.038
21:45:39.746,SEARCHING,12.630,2.873,1.615,0.00,0.00,23.11,1.788,5.448,1.956,4.487,4.086,0,0,SEARCHING,0.000,0.800,0.026,-0.038
21:45:39.947,SEARCHING,12.719,2.911,1.620,0.00,0.00,22.86,1.831,5.200,1.923,4.487,4.086,0,0,SEARCHING,0.000,0.800,0.026,-0.021
21:45:40.148,SEARCHING,12.807,2.948,1.625,0.00,0.00,22.73,1.816,5.200,1.907,4.400,4.086,0,0,SEARCHING,0.000,0.800,0.021,-0.021
21:45:40.347,SEARCHING,12.896,2.985,1.629,0.00,0.00,22.61,1.831,5.085,1.891,4.400,4.086,0,0,SEARCHING,0.000,0.800,0.021,-0.014
21:45:40.549,SEARCHING,12.984,3.022,1.634,0.00,0.00,22.51,1.831,4.868,1.860,4.317,4.086,0,0,SEARCHING,0.000,0.800,0.016,-0.007
21:45:40.749,SEARCHING,13.073,3.059,1.637,0.00,0.00,22.43,1.860,4.974,1.923,4.317,4.086,0,0,SEARCHING,0.000,0.800,0.016,-0.014
21:45:40.950,SEARCHING,13.162,3.095,1.640,0.00,0.00,22.32,1.831,5.085,1.923,4.317,4.086,0,0,SEARCHING,0.000,0.800,0.016,-0.021
21:45:41.150,SEARCHING,13.251,3.132,1.643,0.00,0.00,22.22,1.831,4.974,1.845,4.317,4.014,0,0,SEARCHING,0.000,0.800,0.021,-0.003
21:45:41.350,SEARCHING,13.340,3.168,1.647,0.00,0.00,22.16,1.831,4.576,1.845,4.237,4.086,0,0,SEARCHING,0.000,0.800,0.010,-0.003
21:45:41.551,SEARCHING,13.429,3.204,1.649,0.00,0.00,22.22,1.990,4.767,1.860,4.237,4.086,0,0,SEARCHING,0.000,0.800,0.010,0.028
21:45:41.751,SEARCHING,13.517,3.240,1.651,0.00,0.00,22.46,2.061,4.974,1.876,4.237,4.086,0,0,SEARCHING,0.000,0.800,0.010,0.038
21:45:41.952,SEARCHING,13.606,3.277,1.653,0.00,0.00,22.76,2.061,5.085,1.845,4.237,4.086,0,0,SEARCHING,0.000,0.800,0.010,0.045
21:45:42.153,SEARCHING,13.694,3.315,1.655,0.00,0.00,23.08,2.061,5.200,1.860,4.317,4.086,0,0,SEARCHING,0.000,0.800,0.016,0.042
21:45:42.353,SEARCHING,13.783,3.352,1.658,0.00,0.00,23.34,2.061,5.448,1.860,4.317,4.014,0,0,SEARCHING,0.000,0.800,0.021,0.042
21:45:42.554,SEARCHING,13.871,3.391,1.662,0.00,0.00,23.57,2.061,5.720,1.876,4.317,4.086,0,0,SEARCHING,0.000,0.800,0.016,0.038
21:45:42.753,SEARCHING,13.959,3.429,1.664,0.00,0.00,23.81,2.025,6.730,1.923,4.237,4.086,0,0,SEARCHING,0.000,0.800,0.010,0.021
21:45:42.955,SEARCHING,14.046,3.468,1.666,0.00,0.00,23.97,1.990,6.730,1.860,4.317,4.160,0,0,SEARCHING,0.000,0.800,0.010,0.028
21:45:43.155,SEARCHING,14.134,3.507,1.668,0.00,0.00,24.11,2.025,6.538,1.939,4.317,4.086,0,0,SEARCHING,0.000,0.800,0.016,0.017
21:45:43.357,SEARCHING,14.222,3.546,1.671,0.00,0.00,24.25,2.043,6.538,1.891,4.400,4.160,0,0,SEARCHING,0.000,0.800,0.016,0.031
21:45:43.556,SEARCHING,14.309,3.586,1.674,0.00,0.00,24.43,1.990,6.356,1.907,4.317,4.160,0,0,SEARCHING,0.000,0.800,0.010,0.017
21:45:43.758,SEARCHING,14.397,3.626,1.675,0.00,0.00,24.56,1.990,6.356,1.923,4.317,4.160,0,0,SEARCHING,0.000,0.800,0.010,0.014
21:45:43.958,SEARCHING,14.484,3.666,1.677,0.00,0.00,24.60,2.007,6.184,1.923,4.317,4.237,0,0,SEARCHING,0.000,0.800,0.005,0.017
21:45:44.158,SEARCHING,14.571,3.706,1.678,0.00,0.00,24.75,2.043,6.022,1.956,4.317,4.160,0,0,SEARCHING,0.000,0.800,0.010,0.017
21:45:44.359,SEARCHING,14.658,3.746,1.680,0.00,0.00,24.83,2.061,6.022,1.923,4.160,4.237,0,0,SEARCHING,0.000,0.800,-0.005,0.028
21:45:44.560,SEARCHING,14.745,3.787,1.680,0.00,0.00,25.02,2.043,6.022,1.939,4.160,4.237,0,0,SEARCHING,0.000,0.800,-0.005,0.021
21:45:44.759,SEARCHING,14.832,3.827,1.680,0.00,0.00,25.18,2.061,5.720,1.973,4.317,4.237,0,0,SEARCHING,0.000,0.800,0.005,0.017
21:45:44.959,SEARCHING,14.919,3.868,1.682,0.00,0.00,25.30,2.043,5.720,1.939,4.317,4.160,0,0,SEARCHING,0.000,0.800,0.010,0.021
21:45:45.160,SEARCHING,15.006,3.909,1.683,0.00,0.00,25.43,2.043,5.720,1.923,4.237,4.160,0,0,SEARCHING,0.000,0.800,0.005,0.024
21:45:45.361,SEARCHING,15.092,3.951,1.684,0.00,0.00,25.50,2.043,5.581,2.025,4.237,4.237,0,0,SEARCHING,0.000,0.800,0.000,0.003
21:45:45.561,SEARCHING,15.179,3.992,1.685,0.00,0.00,25.55,2.061,5.448,1.939,4.317,4.160,0,0,SEARCHING,0.000,0.800,0.010,0.024
21:45:45.762,SEARCHING,15.266,4.033,1.687,0.00,0.00,25.67,2.025,5.200,2.007,4.317,4.237,0,0,SEARCHING,0.000,0.800,0.005,0.003
21:45:45.963,SEARCHING,15.352,4.075,1.688,0.00,0.00,25.72,1.973,5.200,1.939,4.237,4.160,0,0,SEARCHING,0.000,0.800,0.005,0.007
21:45:46.163,SEARCHING,15.439,4.117,1.689,0.00,0.00,25.76,1.990,5.085,1.990,4.317,4.160,0,0,SEARCHING,0.000,0.800,0.010,0.000
21:45:46.363,SEARCHING,15.525,4.158,1.691,0.00,0.00,25.78,2.043,5.200,1.956,4.317,4.237,0,0,SEARCHING,0.000,0.800,0.005,0.017
21:45:46.565,SEARCHING,15.612,4.200,1.691,0.00,0.00,25.87,2.043,4.974,1.956,4.237,4.237,0,0,SEARCHING,0.000,0.800,0.000,0.017
21:45:46.765,SEARCHING,15.698,4.242,1.692,0.00,0.00,25.97,2.007,4.868,1.990,4.317,4.237,0,0,SEARCHING,0.000,0.800,0.005,0.003
21:45:48.635,SEARCHING,15.784,4.284,1.693,0.00,0.00,25.97,2.007,4.767,1.990,4.317,4.237,0,0,SEARCHING,0.000,0.800,0.005,0.003
21:45:48.648,SEARCHING,15.799,4.291,1.694,0.00,0.00,25.98,2.007,4.767,1.990,4.317,4.237,0,0,SEARCHING,0.000,0.800,0.005,0.003
21:45:48.749,SEARCHING,15.856,4.319,1.695,0.00,0.00,25.99,1.923,4.767,1.956,4.237,4.317,0,0,SEARCHING,0.000,0.800,-0.005,-0.007
21:45:48.935,SEARCHING,15.942,4.362,1.694,0.00,0.00,26.93,6.184,4.670,1.939,4.317,4.237,0,0,SEARCHING,0.000,0.800,0.005,0.283
21:45:49.133,SEARCHING,16.027,4.406,1.695,0.00,0.00,27.00,6.184,4.576,4.868,4.317,4.237,0,0,SEARCHING,0.000,0.800,0.005,0.035
21:45:49.334,SEARCHING,16.113,4.450,1.696,0.00,0.00,27.27,6.022,4.487,4.767,4.317,4.237,0,0,SEARCHING,0.000,0.800,0.005,0.035
21:45:49.534,SEARCHING,16.198,4.494,1.696,0.00,0.00,27.46,5.867,4.400,4.868,4.237,4.237,0,0,SEARCHING,0.000,0.800,0.000,0.028
21:45:49.735,SEARCHING,16.283,4.538,1.696,0.00,0.00,27.63,5.867,4.317,4.767,4.237,4.237,0,0,SEARCHING,0.000,0.800,0.000,0.031
21:45:49.936,SEARCHING,16.368,4.583,1.698,0.00,0.00,27.80,5.867,4.237,4.767,4.317,4.160,0,0,SEARCHING,0.000,0.800,0.010,0.031
21:45:50.135,SEARCHING,16.453,4.628,1.700,0.00,0.00,27.96,5.581,4.160,4.868,4.237,4.086,0,0,SEARCHING,0.000,0.800,0.010,0.021
21:45:50.337,SEARCHING,16.538,4.673,1.703,0.00,0.00,28.11,5.085,4.014,4.767,4.237,4.014,0,0,SEARCHING,0.000,0.800,0.016,0.010
21:45:50.536,SEARCHING,16.623,4.718,1.706,0.00,0.00,28.20,5.448,3.751,4.767,3.945,3.878,0,0,SEARCHING,0.000,0.800,0.005,0.021
21:45:50.737,SEARCHING,16.707,4.763,1.710,0.00,0.00,28.34,4.974,3.691,4.670,4.237,3.751,0,0,SEARCHING,0.000,0.800,0.037,0.010
21:45:50.940,SEARCHING,16.792,4.809,1.718,0.00,0.00,28.43,5.200,3.415,4.487,4.317,3.691,0,0,SEARCHING,0.000,0.800,0.047,0.024
21:45:51.139,SEARCHING,16.876,4.855,1.728,0.00,0.00,28.60,5.085,3.269,4.576,4.237,3.632,0,0,SEARCHING,0.000,0.800,0.047,0.017
21:45:51.339,SEARCHING,16.960,4.901,1.738,0.00,0.00,28.78,5.085,3.269,4.014,4.237,3.467,0,0,SEARCHING,0.000,0.800,0.063,0.042
21:45:51.540,SEARCHING,17.044,4.947,1.751,0.00,0.00,29.25,4.868,3.269,3.134,4.160,3.415,0,0,SEARCHING,0.000,0.800,0.063,0.091
21:45:51.740,SEARCHING,17.128,4.995,1.764,0.00,0.00,29.78,4.670,3.269,3.092,4.160,3.365,0,0,SEARCHING,0.000,0.800,0.068,0.087
21:45:51.941,SEARCHING,17.211,5.043,1.778,0.00,0.00,30.19,4.767,3.223,3.134,4.086,3.223,0,0,SEARCHING,0.000,0.800,0.079,0.087
21:45:52.141,SEARCHING,17.294,5.091,1.794,0.00,0.00,30.60,4.670,3.051,3.092,4.086,3.178,0,0,SEARCHING,0.000,0.800,0.084,0.087
21:45:52.342,SEARCHING,17.362,5.132,1.812,0.00,0.00,31.13,4.670,2.934,2.790,4.014,3.051,0,0,SEARCHING,0.000,0.800,0.094,0.115
21:45:52.542,SEARCHING,17.444,5.182,1.831,0.00,0.00,31.98,4.576,2.724,2.630,3.945,2.972,0,0,SEARCHING,0.000,0.800,0.100,0.129
21:45:52.742,SEARCHING,17.525,5.234,1.853,0.00,0.00,32.86,4.576,2.692,2.692,3.945,2.860,0,0,SEARCHING,0.000,0.800,0.115,0.122
21:45:52.943,SEARCHING,17.606,5.286,1.875,0.00,0.00,33.69,4.487,2.630,2.661,3.878,2.790,0,0,SEARCHING,0.000,0.800,0.121,0.122
21:45:53.144,SEARCHING,17.685,5.340,1.900,0.00,0.00,34.54,4.487,2.514,2.600,3.878,2.661,0,0,SEARCHING,0.000,0.800,0.142,0.129
21:45:53.345,SEARCHING,17.764,5.395,1.928,0.00,0.00,35.50,4.317,2.630,2.359,3.691,2.600,0,0,SEARCHING,0.000,0.800,0.136,0.154
21:45:53.544,SEARCHING,17.842,5.451,1.957,0.00,0.00,36.60,4.317,2.630,2.266,3.691,2.600,0,0,SEARCHING,0.000,0.800,0.136,0.168
21:45:53.744,SEARCHING,17.918,5.509,1.983,0.00,0.00,37.71,4.317,2.542,2.266,3.632,2.571,0,0,SEARCHING,0.000,0.800,0.136,0.168
21:45:53.946,SEARCHING,17.994,5.568,2.010,0.00,0.00,38.85,3.751,2.487,2.222,3.575,2.542,0,0,SEARCHING,0.000,0.800,0.136,0.147
21:45:54.145,SEARCHING,18.068,5.629,2.037,0.00,0.00,39.97,4.160,5.448,2.043,3.415,2.542,0,0,SEARCHING,0.000,0.800,0.121,0.199
21:45:54.345,SEARCHING,18.141,5.692,2.039,0.00,0.00,41.39,3.751,5.200,1.956,3.415,5.085,0,0,SEARCHING,0.000,0.800,-0.115,0.196
21:45:54.547,SEARCHING,18.212,5.756,2.013,0.00,0.00,42.80,3.520,4.974,1.907,3.467,5.085,0,0,SEARCHING,0.000,0.800,-0.110,0.192
21:45:54.747,SEARCHING,18.282,5.822,1.993,0.00,0.00,44.16,3.945,4.767,1.774,3.632,4.767,0,0,SEARCHING,0.000,0.800,-0.079,0.248
21:45:54.952,SEARCHING,18.350,5.890,1.978,0.00,0.00,45.88,3.878,4.670,1.747,3.575,4.670,0,0,SEARCHING,0.000,0.800,-0.079,0.252
21:45:55.150,SEARCHING,18.405,5.948,1.963,0.00,0.00,47.38,3.467,4.400,1.670,3.751,4.400,0,0,SEARCHING,0.000,0.800,-0.047,0.248
21:45:55.350,SEARCHING,18.469,6.019,1.954,0.00,0.00,49.10,3.520,4.086,1.670,3.632,4.086,0,0,SEARCHING,0.000,0.800,-0.037,0.252
21:45:55.550,SEARCHING,18.531,6.092,1.947,0.00,0.00,50.84,3.632,3.814,5.581,3.751,3.814,0,0,SEARCHING,0.000,0.800,-0.005,-0.077
21:45:55.752,SEARCHING,18.592,6.166,1.946,0.00,0.00,50.26,3.316,3.814,5.448,3.691,3.751,0,0,SEARCHING,0.000,0.800,-0.005,-0.094
21:45:55.951,SEARCHING,18.654,6.240,1.944,0.00,0.00,49.66,3.365,3.814,5.448,3.691,3.751,0,0,SEARCHING,0.000,0.800,-0.005,-0.091
21:45:56.152,SEARCHING,18.716,6.313,1.943,0.00,0.00,49.03,3.365,3.751,5.448,3.632,3.751,0,0,SEARCHING,0.000,0.800,-0.010,-0.091
21:45:56.352,SEARCHING,18.780,6.385,1.941,0.00,0.00,48.40,3.316,3.751,5.321,3.691,3.751,0,0,SEARCHING,0.000,0.800,-0.005,-0.091
21:45:56.554,SEARCHING,18.844,6.457,1.940,0.00,0.00,47.78,3.178,3.751,5.321,3.691,3.751,0,0,SEARCHING,0.000,0.800,-0.005,-0.101
21:45:56.755,SEARCHING,18.909,6.527,1.940,0.00,0.00,47.07,3.092,3.691,5.448,3.632,3.691,0,0,SEARCHING,0.000,0.800,-0.005,-0.112
21:45:56.955,SEARCHING,18.974,6.597,1.940,0.00,0.00,46.31,2.860,3.691,5.321,3.691,3.691,0,0,SEARCHING,0.000,0.800,0.000,-0.129
21:45:57.156,SEARCHING,19.041,6.666,1.940,0.00,0.00,45.46,2.896,3.632,5.321,3.632,3.691,0,0,SEARCHING,0.000,0.800,-0.005,-0.126
21:45:57.357,SEARCHING,19.109,6.734,1.939,0.00,0.00,44.57,2.790,3.691,5.448,3.691,3.691,0,0,SEARCHING,0.000,0.800,0.000,-0.140
21:45:57.558,SEARCHING,19.178,6.801,1.936,0.00,0.00,43.61,2.724,3.751,5.448,3.691,3.751,0,0,SEARCHING,0.000,0.800,-0.005,-0.147
21:45:57.757,SEARCHING,19.248,6.867,1.935,0.00,0.00,42.56,2.630,3.751,5.581,3.751,3.751,0,0,SEARCHING,0.000,0.800,0.000,-0.161
21:45:57.958,SEARCHING,19.319,6.931,1.934,0.00,0.00,41.35,2.514,3.751,7.151,3.751,3.751,0,0,SEARCHING,0.000,0.800,0.000,-0.206
21:45:58.158,SEARCHING,19.392,6.994,1.934,0.00,0.00,39.86,2.460,3.814,9.534,3.691,3.814,0,0,SEARCHING,0.000,0.800,-0.010,-0.241
21:45:58.359,SEARCHING,19.466,7.054,1.932,0.00,0.00,38.20,2.487,3.751,9.949,3.751,3.751,0,0,SEARCHING,0.000,0.800,0.000,-0.241
21:45:58.559,SEARCHING,19.542,7.113,1.932,0.00,0.00,36.57,2.542,3.691,9.534,3.691,3.751,0,0,SEARCHING,0.000,0.800,-0.005,-0.231
21:45:58.759,SEARCHING,19.620,7.169,1.931,0.00,0.00,35.01,2.571,3.691,8.475,3.632,3.632,0,0,SEARCHING,0.000,0.800,0.000,-0.217
21:45:58.960,SEARCHING,19.699,7.223,1.931,0.00,0.00,33.54,2.600,3.691,7.890,3.691,3.691,0,0,SEARCHING,0.000,0.800,0.000,-0.206
21:45:59.162,SEARCHING,19.780,7.276,1.930,0.00,0.00,32.16,2.630,3.751,7.151,3.691,3.814,0,0,SEARCHING,0.000,0.800,-0.010,-0.192
21:45:59.362,SEARCHING,19.862,7.326,1.928,0.00,0.00,30.85,2.692,3.814,6.934,3.691,3.814,0,0,SEARCHING,0.000,0.800,-0.010,-0.182
21:45:59.562,SEARCHING,19.945,7.375,1.926,0.00,0.00,29.63,2.757,3.814,6.730,3.691,3.878,0,0,SEARCHING,0.000,0.800,-0.016,-0.171
21:45:59.764,SEARCHING,20.028,7.421,1.923,0.00,0.00,28.47,2.790,3.945,6.184,3.691,3.945,0,0,SEARCHING,0.000,0.800,-0.021,-0.157
21:45:59.963,SEARCHING,20.113,7.466,1.919,0.00,0.00,27.41,2.825,3.945,5.867,3.751,4.014,0,0,SEARCHING,0.000,0.800,-0.021,-0.147
21:46:00.164,SEARCHING,20.199,7.510,1.914,0.00,0.00,26.42,2.790,4.014,5.581,3.691,4.086,0,0,SEARCHING,0.000,0.800,-0.031,-0.143
21:46:00.365,SEARCHING,20.285,7.552,1.907,0.00,0.00,25.43,2.692,4.086,5.321,3.691,4.160,0,0,SEARCHING,0.000,0.800,-0.037,-0.147
21:46:00.565,SEARCHING,20.372,7.593,1.901,0.00,0.00,24.42,2.571,4.160,4.974,3.751,4.160,0,0,SEARCHING,0.000,0.800,-0.031,-0.150
21:46:00.765,SEARCHING,20.460,7.632,1.895,0.00,0.00,23.39,2.542,4.576,4.868,3.751,4.400,0,0,SEARCHING,0.000,0.800,-0.047,-0.150
21:46:00.966,SEARCHING,20.548,7.669,1.887,0.00,0.00,22.38,2.571,8.801,4.767,3.814,4.576,0,0,SEARCHING,0.000,0.800,-0.052,-0.143
21:46:01.166,SEARCHING,20.637,7.705,1.876,0.00,0.00,21.43,2.600,9.534,4.576,3.814,4.576,0,0,SEARCHING,0.000,0.800,-0.052,-0.133
21:46:01.367,SEARCHING,20.727,7.739,1.865,0.00,0.00,20.54,2.571,9.153,4.400,3.878,4.670,0,0,SEARCHING,0.000,0.800,-0.052,-0.129
21:46:01.567,SEARCHING,20.817,7.773,1.855,0.00,0.00,19.66,2.600,9.153,4.317,3.878,4.670,0,0,SEARCHING,0.000,0.800,-0.052,-0.122
21:46:01.767,SEARCHING,20.907,7.804,1.845,0.00,0.00,18.86,2.692,8.801,4.160,3.945,4.576,0,0,SEARCHING,0.000,0.800,-0.042,-0.105
21:46:01.968,SEARCHING,20.998,7.835,1.836,0.00,0.00,18.14,2.600,9.153,4.086,3.945,4.576,0,0,SEARCHING,0.000,0.800,-0.042,-0.112
21:46:02.169,SEARCHING,21.090,7.864,1.828,0.00,0.00,17.41,2.600,8.801,3.878,3.945,4.576,0,0,SEARCHING,0.000,0.800,-0.042,-0.101
21:46:02.369,SEARCHING,21.181,7.893,1.819,0.00,0.00,16.74,2.692,8.475,3.814,3.945,4.487,0,0,SEARCHING,0.000,0.800,-0.037,-0.087
21:46:02.570,SEARCHING,21.274,7.920,1.812,0.00,0.00,16.15,2.692,7.890,3.751,3.945,4.487,0,0,SEARCHING,0.000,0.800,-0.037,-0.084
21:46:02.770,SEARCHING,21.366,7.946,1.805,0.00,0.00,15.59,2.692,7.890,3.632,3.878,4.317,0,0,SEARCHING,0.000,0.800,-0.031,-0.077
21:46:02.970,SEARCHING,21.458,7.972,1.799,0.00,0.00,15.06,2.724,7.627,3.632,4.014,4.487,0,0,SEARCHING,0.000,0.800,-0.031,-0.073
21:46:03.170,SEARCHING,21.551,7.996,1.793,0.00,0.00,14.57,2.692,7.381,3.575,4.086,4.487,0,0,SEARCHING,0.000,0.800,-0.026,-0.073
21:46:03.374,SEARCHING,21.644,8.020,1.787,0.00,0.00,14.07,2.630,7.381,3.467,4.086,4.400,0,0,SEARCHING,0.000,0.800,-0.021,-0.073
21:46:03.574,SEARCHING,21.737,8.043,1.783,0.00,0.00,13.63,2.661,7.151,3.415,4.086,4.400,0,0,SEARCHING,0.000,0.800,-0.021,-0.066
21:46:03.774,SEARCHING,21.831,8.065,1.780,0.00,0.00,13.45,4.086,7.151,3.365,4.086,4.400,0,0,SEARCHING,0.000,0.800,-0.021,0.042
21:46:03.975,SEARCHING,21.924,8.088,1.775,0.00,0.00,13.71,4.014,6.934,3.415,4.086,4.317,0,0,SEARCHING,0.000,0.800,-0.016,0.035
21:46:04.176,SEARCHING,22.017,8.111,1.772,0.00,0.00,13.94,3.945,6.934,3.415,4.086,4.317,0,0,SEARCHING,0.000,0.800,-0.016,0.031
21:46:04.376,SEARCHING,22.110,8.134,1.768,0.00,0.00,14.17,3.945,7.151,3.365,4.086,4.400,0,0,SEARCHING,0.000,0.800,-0.021,0.035
21:46:04.576,SEARCHING,22.203,8.158,1.765,0.00,0.00,14.40,3.878,6.934,3.415,4.160,4.400,0,0,SEARCHING,0.000,0.800,-0.016,0.028
21:46:04.778,SEARCHING,22.296,8.182,1.761,0.00,0.00,14.59,3.945,6.934,3.415,4.086,4.400,0,0,SEARCHING,0.000,0.800,-0.021,0.031
21:46:04.978,SEARCHING,22.389,8.206,1.757,0.00,0.00,14.82,3.945,7.151,3.415,4.160,4.400,0,0,SEARCHING,0.000,0.800,-0.016,0.031
21:46:05.178,SEARCHING,22.482,8.231,1.754,0.00,0.00,15.02,3.878,7.151,3.467,4.160,4.400,0,0,SEARCHING,0.000,0.800,-0.016,0.024
21:46:05.378,SEARCHING,22.575,8.256,1.751,0.00,0.00,15.19,3.878,6.934,3.520,4.086,4.400,0,0,SEARCHING,0.000,0.800,-0.021,0.021
21:46:05.579,SEARCHING,22.667,8.281,1.748,0.00,0.00,15.32,3.878,6.934,3.575,4.160,4.400,0,0,SEARCHING,0.000,0.800,-0.016,0.017
21:46:05.781,SEARCHING,22.760,8.306,1.745,0.00,0.00,15.43,3.878,7.151,3.520,4.160,4.317,0,0,SEARCHING,0.000,0.800,-0.010,0.021
21:46:05.982,SEARCHING,22.852,8.332,1.742,0.00,0.00,15.55,3.878,6.934,3.575,4.237,4.400,0,0,SEARCHING,0.000,0.800,-0.010,0.017
21:46:06.183,SEARCHING,22.945,8.358,1.740,0.00,0.00,15.68,3.878,6.934,3.575,4.237,4.400,0,0,SEARCHING,0.000,0.800,-0.010,0.017
21:46:06.382,SEARCHING,23.037,8.384,1.739,0.00,0.00,15.80,3.945,6.934,3.520,4.160,4.317,0,0,SEARCHING,0.000,0.800,-0.010,0.024
21:46:06.583,SEARCHING,23.130,8.410,1.737,0.00,0.00,15.97,4.014,6.934,3.575,4.237,4.317,0,0,SEARCHING,0.000,0.800,-0.005,0.024
21:46:06.784,SEARCHING,23.222,8.437,1.736,0.00,0.00,16.14,4.014,6.934,3.632,4.160,4.317,0,0,SEARCHING,0.000,0.800,-0.010,0.021
21:46:06.984,SEARCHING,23.314,8.464,1.734,0.00,0.00,16.32,4.160,6.934,3.520,4.237,4.317,0,0,SEARCHING,0.000,0.800,-0.005,0.035
21:46:07.184,SEARCHING,23.406,8.491,1.732,0.00,0.00,16.55,4.237,6.730,3.632,4.237,4.317,0,0,SEARCHING,0.000,0.800,-0.005,0.031
21:46:07.385,SEARCHING,23.498,8.518,1.731,0.00,0.00,16.75,4.237,6.538,3.632,4.237,4.317,0,0,SEARCHING,0.000,0.800,-0.005,0.031
21:46:07.585,SEARCHING,23.590,8.546,1.730,0.00,0.00,16.96,4.237,6.538,3.632,4.237,4.317,0,0,SEARCHING,0.000,0.800,-0.005,0.031
21:46:07.785,SEARCHING,23.682,8.574,1.729,0.00,0.00,17.19,4.317,6.538,3.632,4.237,4.317,0,0,SEARCHING,0.000,0.800,-0.005,0.035
21:46:07.987,SEARCHING,23.774,8.603,1.728,0.00,0.00,17.41,4.237,6.356,3.632,4.237,4.317,0,0,SEARCHING,0.000,0.800,-0.005,0.031
21:46:08.187,SEARCHING,23.865,8.632,1.727,0.00,0.00,17.63,4.237,6.184,3.632,4.237,4.160,0,0,SEARCHING,0.000,0.800,0.005,0.031
21:46:08.387,SEARCHING,23.957,8.661,1.727,0.00,0.00,17.85,4.317,6.184,3.632,4.237,4.317,0,0,SEARCHING,0.000,0.800,-0.005,0.035
21:46:08.588,SEARCHING,24.048,8.690,1.726,0.00,0.00,18.10,4.400,6.184,3.632,4.160,4.317,0,0,SEARCHING,0.000,0.800,-0.010,0.038
21:46:08.789,SEARCHING,24.139,8.720,1.724,0.00,0.00,18.34,4.237,6.184,3.632,4.237,4.317,0,0,SEARCHING,0.000,0.800,-0.005,0.031
21:46:08.990,SEARCHING,24.230,8.751,1.722,0.00,0.00,18.54,4.400,6.022,3.691,4.237,4.317,0,0,SEARCHING,0.000,0.800,-0.005,0.035
21:46:09.191,SEARCHING,24.321,8.781,1.722,0.00,0.00,18.78,4.487,5.867,3.632,4.237,4.317,0,0,SEARCHING,0.000,0.800,-0.005,0.042
21:46:09.391,SEARCHING,24.412,8.812,1.721,0.00,0.00,19.07,4.400,5.720,3.632,4.237,4.317,0,0,SEARCHING,0.000,0.800,-0.005,0.038
21:46:09.591,SEARCHING,24.503,8.844,1.721,0.00,0.00,19.34,4.576,5.720,3.691,4.237,4.317,0,0,SEARCHING,0.000,0.800,-0.005,0.042
21:46:09.792,SEARCHING,24.593,8.876,1.720,0.00,0.00,19.60,4.487,5.581,3.751,4.237,4.317,0,0,SEARCHING,0.000,0.800,-0.005,0.035
21:46:09.993,SEARCHING,24.683,8.908,1.719,0.00,0.00,19.87,4.487,5.321,3.691,4.237,4.317,0,0,SEARCHING,0.000,0.800,-0.005,0.038
21:46:10.193,SEARCHING,24.774,8.941,1.718,0.00,0.00,20.13,4.576,5.321,3.751,4.317,4.317,0,0,SEARCHING,0.000,0.800,0.000,0.038
21:46:10.396,SEARCHING,24.864,8.974,1.717,0.00,0.00,20.40,4.576,5.321,3.691,4.237,4.317,0,0,SEARCHING,0.000,0.800,-0.005,0.042
21:46:10.595,SEARCHING,24.954,9.008,1.717,0.00,0.00,20.67,4.576,5.200,3.691,4.160,4.317,0,0,SEARCHING,0.000,0.800,-0.010,0.042
21:46:10.796,SEARCHING,25.043,9.042,1.715,0.00,0.00,20.95,4.400,5.200,3.691,4.237,4.237,0,0,SEARCHING,0.000,0.800,0.000,0.035
21:46:10.996,SEARCHING,25.133,9.077,1.715,0.00,0.00,21.20,4.400,4.974,3.691,4.237,4.237,0,0,SEARCHING,0.000,0.800,0.000,0.035
21:46:11.196,SEARCHING,25.222,9.111,1.716,0.00,0.00,21.44,4.400,4.974,3.691,4.237,4.317,0,0,SEARCHING,0.000,0.800,-0.005,0.035
21:46:11.396,SEARCHING,25.312,9.147,1.715,0.00,0.00,21.67,4.317,4.868,3.751,4.237,4.237,0,0,SEARCHING,0.000,0.800,0.000,0.028
21:46:11.597,SEARCHING,25.401,9.182,1.715,0.00,0.00,21.86,4.317,4.670,3.691,4.237,4.317,0,0,SEARCHING,0.000,0.800,-0.005,0.031
21:46:11.798,SEARCHING,25.490,9.218,1.714,0.00,0.00,22.08,4.237,4.670,3.691,4.237,4.317,0,0,SEARCHING,0.000,0.800,-0.005,0.028
21:46:11.999,SEARCHING,25.579,9.254,1.713,0.00,0.00,22.27,4.237,4.576,3.751,4.237,4.317,0,0,SEARCHING,0.000,0.800,-0.005,0.024
21:46:12.199,SEARCHING,25.668,9.291,1.712,0.00,0.00,22.44,4.237,4.487,3.751,4.317,4.317,0,0,SEARCHING,0.000,0.800,0.000,0.024
21:46:12.399,SEARCHING,25.756,9.328,1.712,0.00,0.00,22.62,4.237,4.400,3.691,4.237,4.317,0,0,SEARCHING,0.000,0.800,-0.005,0.028
21:46:12.601,SEARCHING,25.845,9.365,1.711,0.00,0.00,22.79,4.237,4.317,3.691,4.237,4.237,0,0,SEARCHING,0.000,0.800,0.000,0.028
21:46:12.801,SEARCHING,25.933,9.402,1.711,0.00,0.00,22.97,4.237,4.237,3.691,4.160,4.317,0,0,SEARCHING,0.000,0.800,-0.010,0.028
21:46:13.002,SEARCHING,26.022,9.439,1.708,0.00,0.00,23.15,4.160,4.160,3.691,4.086,4.237,0,0,SEARCHING,0.000,0.800,-0.010,0.024
21:46:13.202,SEARCHING,26.110,9.477,1.706,0.00,0.00,23.33,4.237,4.086,3.691,4.014,4.237,0,0,SEARCHING,0.000,0.800,-0.016,0.028
21:46:13.402,SEARCHING,26.198,9.515,1.702,0.00,0.00,23.50,4.086,4.014,3.691,3.945,4.160,0,0,SEARCHING,0.000,0.800,-0.016,0.021
21:46:13.603,SEARCHING,26.286,9.554,1.697,0.00,0.00,23.64,4.160,3.751,3.691,3.814,4.237,0,0,SEARCHING,0.000,0.800,-0.031,0.024
21:46:13.804,SEARCHING,26.374,9.592,1.691,0.00,0.00,23.80,4.014,3.632,3.691,3.691,4.160,0,0,SEARCHING,0.000,0.800,-0.037,0.017
21:46:14.004,SEARCHING,26.462,9.631,1.683,0.00,0.00,23.92,4.086,3.520,3.691,3.575,4.160,0,0,SEARCHING,0.000,0.800,-0.047,0.021
21:46:14.206,SEARCHING,26.549,9.670,1.673,0.00,0.00,24.05,4.086,3.520,3.691,3.520,4.160,0,0,SEARCHING,0.000,0.800,-0.052,0.021
21:46:14.405,SEARCHING,26.637,9.709,1.662,0.00,0.00,24.19,4.086,3.365,3.751,3.467,4.160,0,0,SEARCHING,0.000,0.800,-0.058,0.017
21:46:14.607,SEARCHING,26.725,9.749,1.650,0.00,0.00,24.29,4.014,3.365,3.878,3.365,4.086,0,0,SEARCHING,0.000,0.800,-0.063,0.007
21:46:14.807,SEARCHING,26.812,9.788,1.637,0.00,0.00,24.35,4.086,3.178,3.814,3.269,4.014,0,0,SEARCHING,0.000,0.800,-0.068,0.014
21:46:15.008,SEARCHING,26.900,9.828,1.622,0.00,0.00,24.42,4.014,3.092,3.814,3.178,4.014,0,0,SEARCHING,0.000,0.800,-0.079,0.010
21:46:15.207,SEARCHING,26.987,9.868,1.606,0.00,0.00,24.48,3.945,2.790,3.878,3.011,4.014,0,0,SEARCHING,0.000,0.800,-0.100,0.003
21:46:15.408,SEARCHING,27.074,9.908,1.587,0.00,0.00,24.52,3.945,2.757,3.878,2.934,3.878,0,0,SEARCHING,0.000,0.800,-0.100,0.003
21:46:15.608,SEARCHING,27.162,9.947,1.566,0.00,0.00,24.57,3.945,2.790,3.945,2.790,3.814,0,0,SEARCHING,0.000,0.800,-0.115,0.000
21:46:15.809,SEARCHING,27.249,9.987,1.544,0.00,0.00,24.59,3.945,2.661,3.945,2.757,3.751,0,0,SEARCHING,0.000,0.800,-0.115,0.000
21:46:16.010,SEARCHING,27.336,10.027,1.520,0.00,0.00,24.63,4.086,2.600,3.945,2.692,3.751,0,0,SEARCHING,0.000,0.800,-0.126,0.007
21:46:16.211,SEARCHING,27.423,10.067,1.494,0.00,0.00,24.66,4.086,2.266,3.945,2.630,3.691,0,0,SEARCHING,0.000,0.800,-0.131,0.007
21:46:16.411,SEARCHING,27.511,10.107,1.466,0.00,0.00,24.70,4.086,2.222,4.014,2.487,3.632,0,0,SEARCHING,0.000,0.800,-0.152,0.003
21:46:16.613,SEARCHING,27.598,10.148,1.434,0.00,0.00,24.71,4.086,2.222,4.014,2.288,3.520,0,0,SEARCHING,0.000,0.800,-0.184,0.003
21:46:16.811,SEARCHING,27.685,10.188,1.397,0.00,0.00,24.71,4.086,6.934,4.237,2.200,3.415,0,0,SEARCHING,0.000,0.800,-0.194,-0.007
21:46:17.012,SEARCHING,27.772,10.228,1.359,0.00,0.00,24.66,4.086,7.381,4.237,2.222,3.316,0,0,SEARCHING,0.000,0.800,-0.178,-0.007
21:46:17.213,SEARCHING,27.860,10.268,1.322,0.00,0.00,24.61,4.086,7.381,4.237,2.043,3.223,0,0,SEARCHING,0.000,0.800,-0.215,-0.007
21:46:17.413,SEARCHING,27.947,10.308,1.277,0.00,0.00,24.55,4.160,7.151,4.237,1.939,3.092,0,0,SEARCHING,0.000,0.800,-0.231,-0.003
21:46:17.614,SEARCHING,28.034,10.348,1.232,0.00,0.00,24.52,4.160,7.151,4.237,1.939,3.011,0,0,SEARCHING,0.000,0.800,-0.220,-0.003
21:46:17.815,SEARCHING,28.122,10.387,1.187,0.00,0.00,24.49,4.160,7.151,4.237,1.876,2.860,0,0,SEARCHING,0.000,0.800,-0.220,-0.003
21:46:18.015,SEARCHING,28.209,10.427,1.141,0.00,0.00,24.48,4.160,7.151,4.160,1.774,2.790,0,0,SEARCHING,0.000,0.800,-0.246,0.000
21:46:18.215,SEARCHING,28.296,10.467,1.091,0.00,0.00,24.46,4.086,6.934,4.317,1.695,2.630,0,0,SEARCHING,0.000,0.800,-0.252,-0.010
21:46:18.416,SEARCHING,28.384,10.507,1.043,0.00,0.00,24.40,4.086,6.934,4.400,1.733,2.542,0,0,SEARCHING,0.000,0.800,-0.220,-0.014
21:46:18.616,SEARCHING,28.471,10.546,1.001,0.00,0.00,24.33,4.086,7.151,4.237,1.774,2.487,0,0,SEARCHING,0.000,0.800,-0.194,-0.007
21:46:18.818,SEARCHING,28.559,10.586,1.017,0.00,0.00,24.22,4.014,7.151,4.487,5.867,2.487,0,0,SEARCHING,0.000,0.800,0.278,-0.021
21:46:19.018,SEARCHING,28.646,10.625,1.072,0.00,0.00,24.02,4.014,7.151,5.720,5.720,2.661,0,0,SEARCHING,0.000,0.800,0.241,-0.059
21:46:19.219,SEARCHING,28.734,10.664,1.061,0.00,0.00,23.62,4.014,6.934,5.448,5.867,2.630,0,0,SEARCHING,0.000,0.800,0.252,-0.052
21:46:19.419,SEARCHING,28.822,10.702,1.112,0.00,0.00,23.27,4.014,6.934,5.200,5.720,2.724,0,0,SEARCHING,0.000,0.800,0.231,-0.045
21:46:19.619,SEARCHING,28.910,10.740,1.157,0.00,0.00,22.93,4.014,6.934,5.581,5.581,2.790,0,0,SEARCHING,0.000,0.800,0.215,-0.056
21:46:19.820,SEARCHING,28.999,10.777,1.198,0.00,0.00,22.56,4.086,6.934,5.448,5.448,2.934,0,0,SEARCHING,0.000,0.800,0.189,-0.049
21:46:20.021,SEARCHING,29.088,10.814,1.234,0.00,0.00,22.23,4.086,6.730,5.321,5.321,3.051,0,0,SEARCHING,0.000,0.800,0.168,-0.045
21:46:20.222,SEARCHING,29.177,10.850,1.268,0.00,0.00,21.90,4.160,6.730,5.448,5.200,3.134,0,0,SEARCHING,0.000,0.800,0.152,-0.045
21:46:20.423,SEARCHING,29.266,10.885,1.298,0.00,0.00,21.60,4.160,6.730,5.321,5.321,3.223,0,0,SEARCHING,0.000,0.800,0.147,-0.042
21:46:20.624,SEARCHING,29.355,10.921,1.326,0.00,0.00,21.28,4.014,6.538,5.321,5.200,3.223,0,0,SEARCHING,0.000,0.800,0.142,-0.049
21:46:20.823,SEARCHING,29.445,10.955,1.353,0.00,0.00,20.96,4.160,6.356,5.321,5.085,3.365,0,0,SEARCHING,0.000,0.800,0.121,-0.042
21:46:22.646,SEARCHING,29.489,10.972,1.379,0.00,0.00,20.82,4.237,6.356,5.321,5.085,3.316,0,0,SEARCHING,0.000,0.800,0.126,-0.038
21:46:22.672,SEARCHING,29.527,10.986,1.403,0.00,0.00,20.71,4.086,6.356,5.321,4.974,3.365,0,0,SEARCHING,0.000,0.800,0.115,-0.045
21:46:22.830,SEARCHING,29.617,11.020,1.423,0.00,0.00,20.42,4.160,6.356,5.321,4.868,3.467,0,0,SEARCHING,0.000,0.800,0.100,-0.042
21:46:23.025,SEARCHING,29.707,11.054,1.442,0.00,0.00,20.15,4.237,6.184,5.321,4.868,3.575,0,0,SEARCHING,0.000,0.800,0.089,-0.038
21:46:23.224,SEARCHING,29.797,11.086,1.459,0.00,0.00,19.89,4.160,6.184,5.200,4.767,3.632,0,0,SEARCHING,0.000,0.800,0.079,-0.038
21:46:23.424,SEARCHING,29.887,11.119,1.475,0.00,0.00,19.64,4.160,6.022,5.200,4.670,3.691,0,0,SEARCHING,0.000,0.800,0.068,-0.038
21:46:23.624,SEARCHING,29.978,11.151,1.489,0.00,0.00,19.37,4.160,5.867,5.085,4.767,3.691,0,0,SEARCHING,0.000,0.800,0.073,-0.035
21:46:23.825,SEARCHING,30.068,11.183,1.503,0.00,0.00,19.13,4.086,5.867,4.974,4.767,3.751,0,0,SEARCHING,0.000,0.800,0.068,-0.035
21:46:24.026,SEARCHING,30.159,11.214,1.517,0.00,0.00,18.88,4.086,5.720,4.974,4.670,3.751,0,0,SEARCHING,0.000,0.800,0.063,-0.035
21:46:24.227,SEARCHING,30.250,11.245,1.529,0.00,0.00,18.63,4.014,5.720,4.868,4.670,3.814,0,0,SEARCHING,0.000,0.800,0.058,-0.035
21:46:24.428,SEARCHING,30.341,11.275,1.541,0.00,0.00,18.39,4.086,5.581,4.868,4.576,3.814,0,0,SEARCHING,0.000,0.800,0.052,-0.031
21:46:24.628,SEARCHING,30.432,11.306,1.551,0.00,0.00,18.17,4.086,5.448,4.868,4.576,3.878,0,0,SEARCHING,0.000,0.800,0.047,-0.031
21:46:24.830,SEARCHING,30.523,11.335,1.560,0.00,0.00,17.94,4.014,5.321,4.767,4.576,3.878,0,0,SEARCHING,0.000,0.800,0.047,-0.031
21:46:25.030,SEARCHING,30.615,11.365,1.569,0.00,0.00,17.74,4.014,5.200,4.767,4.487,3.878,0,0,SEARCHING,0.000,0.800,0.042,-0.031
21:46:25.230,SEARCHING,30.706,11.394,1.578,0.00,0.00,17.53,4.086,5.085,4.670,4.487,3.945,0,0,SEARCHING,0.000,0.800,0.037,-0.024
21:46:25.433,SEARCHING,30.798,11.423,1.586,0.00,0.00,17.36,4.014,5.085,4.670,4.576,3.878,0,0,SEARCHING,0.000,0.800,0.047,-0.028
21:46:25.632,SEARCHING,30.890,11.451,1.593,0.00,0.00,17.17,4.014,4.974,4.576,4.400,3.751,0,0,SEARCHING,0.000,0.800,0.047,-0.024
21:46:25.832,SEARCHING,30.981,11.479,1.602,0.00,0.00,16.99,3.945,4.868,4.576,4.487,3.945,0,0,SEARCHING,0.000,0.800,0.037,-0.028
21:46:26.033,SEARCHING,31.073,11.507,1.610,0.00,0.00,16.81,3.945,4.767,4.576,4.487,4.014,0,0,SEARCHING,0.000,0.800,0.031,-0.028
21:46:26.233,SEARCHING,31.165,11.535,1.616,0.00,0.00,16.63,3.945,4.670,4.487,4.487,4.014,0,0,SEARCHING,0.000,0.800,0.031,-0.024
21:46:26.433,SEARCHING,31.257,11.562,1.622,0.00,0.00,16.45,3.878,4.576,4.400,4.487,4.014,0,0,SEARCHING,0.000,0.800,0.031,-0.024
21:46:26.634,SEARCHING,31.349,11.589,1.628,0.00,0.00,16.27,4.014,4.576,4.400,4.487,4.014,0,0,SEARCHING,0.000,0.800,0.031,-0.017
21:46:26.836,SEARCHING,31.441,11.616,1.633,0.00,0.00,16.14,3.878,4.487,4.317,4.400,4.160,0,0,SEARCHING,0.000,0.800,0.016,-0.021
21:46:27.037,SEARCHING,31.534,11.643,1.636,0.00,0.00,15.99,3.945,4.400,4.317,4.400,4.086,0,0,SEARCHING,0.000,0.800,0.021,-0.017
21:46:27.237,SEARCHING,31.626,11.669,1.639,0.00,0.00,15.86,3.878,4.317,4.317,4.317,4.086,0,0,SEARCHING,0.000,0.800,0.016,-0.021
21:46:27.438,SEARCHING,31.718,11.695,1.642,0.00,0.00,15.72,3.878,4.237,4.317,4.237,4.086,0,0,SEARCHING,0.000,0.800,0.010,-0.021
21:46:27.638,SEARCHING,31.811,11.721,1.643,0.00,0.00,15.57,3.814,4.086,4.317,4.160,4.014,0,0,SEARCHING,0.000,0.800,0.010,-0.024
21:46:27.843,SEARCHING,31.903,11.747,1.645,0.00,0.00,15.42,3.814,4.086,4.237,4.086,4.014,0,0,SEARCHING,0.000,0.800,0.005,-0.021
21:46:28.043,SEARCHING,31.996,11.772,1.646,0.00,0.00,15.28,3.751,3.878,4.160,3.945,3.945,0,0,SEARCHING,0.000,0.800,0.000,-0.021
21:46:28.244,SEARCHING,32.088,11.798,1.646,0.00,0.00,15.14,3.691,3.814,4.014,3.878,3.814,0,0,SEARCHING,0.000,0.800,0.005,-0.017
21:46:28.445,SEARCHING,32.181,11.823,1.647,0.00,0.00,15.02,3.575,3.751,3.945,3.751,3.691,0,0,SEARCHING,0.000,0.800,0.005,-0.021
21:46:28.644,SEARCHING,32.274,11.847,1.648,0.00,0.00,14.88,3.520,3.632,3.814,3.632,3.632,0,0,SEARCHING,0.000,0.800,0.000,-0.017
21:46:28.847,SEARCHING,32.367,11.872,1.648,0.00,0.00,14.76,3.415,3.575,3.751,3.575,3.575,0,0,SEARCHING,0.000,0.800,0.000,-0.021
21:46:29.047,SEARCHING,32.460,11.896,1.648,0.00,0.00,14.61,3.365,3.520,3.632,3.520,3.467,0,0,SEARCHING,0.000,0.800,0.005,-0.017
21:46:29.247,SEARCHING,32.553,11.920,1.649,0.00,0.00,14.49,3.269,3.415,3.520,3.415,3.415,0,0,SEARCHING,0.000,0.800,0.000,-0.017
21:46:29.446,SEARCHING,32.645,11.944,1.649,0.00,0.00,14.35,3.178,3.316,3.467,3.316,3.316,0,0,SEARCHING,0.000,0.800,0.000,-0.021
21:46:29.647,SEARCHING,32.739,11.968,1.649,0.00,0.00,14.20,3.092,3.223,3.365,3.223,3.223,0,0,SEARCHING,0.000,0.800,0.000,-0.021
21:46:29.848,SEARCHING,32.832,11.991,1.649,0.00,0.00,14.06,2.972,3.134,3.269,3.134,3.134,0,0,SEARCHING,0.000,0.800,0.000,-0.024
21:46:30.050,SEARCHING,32.925,12.015,1.648,0.00,0.00,13.89,2.896,3.011,3.223,3.011,3.051,0,0,SEARCHING,0.000,0.800,-0.005,-0.028
21:46:30.250,SEARCHING,33.018,12.038,1.648,0.00,0.00,13.71,2.825,2.934,3.092,2.934,2.934,0,0,SEARCHING,0.000,0.800,0.000,-0.024
21:46:30.451,SEARCHING,33.111,12.060,1.648,0.00,0.00,13.54,2.724,2.860,2.972,2.860,2.860,0,0,SEARCHING,0.000,0.800,0.000,-0.024
21:46:30.652,SEARCHING,33.205,12.083,1.648,0.00,0.00,13.37,2.630,2.757,2.896,2.757,2.757,0,0,SEARCHING,0.000,0.800,0.000,-0.028
21:46:30.852,SEARCHING,33.298,12.105,1.648,0.00,0.00,13.18,2.542,2.661,2.825,2.661,2.661,0,0,SEARCHING,0.000,0.800,0.000,-0.031
21:46:31.053,SEARCHING,33.392,12.126,1.648,0.00,0.00,12.97,2.434,2.571,2.724,2.571,2.571,0,0,SEARCHING,0.000,0.800,0.000,-0.035
21:46:31.253,SEARCHING,33.485,12.148,1.648,0.00,0.00,12.72,2.359,2.487,2.630,2.487,2.487,0,0,SEARCHING,0.000,0.800,0.000,-0.035
21:46:31.453,SEARCHING,33.579,12.169,1.648,0.00,0.00,12.48,2.266,2.384,2.542,2.384,2.384,0,0,SEARCHING,0.000,0.800,0.000,-0.038
21:46:31.654,SEARCHING,33.673,12.189,1.647,0.00,0.00,12.22,2.179,2.288,2.434,2.288,2.288,0,0,SEARCHING,0.000,0.800,0.000,-0.038
21:46:31.854,SEARCHING,33.766,12.209,1.647,0.00,0.00,11.94,2.080,2.222,2.359,2.222,2.222,0,0,SEARCHING,0.000,0.800,0.000,-0.045
21:46:32.055,SEARCHING,33.860,12.229,1.647,0.00,0.00,11.63,2.007,2.119,2.266,2.119,2.119,0,0,SEARCHING,0.000,0.800,0.000,-0.045
21:46:32.255,SEARCHING,33.954,12.248,1.647,0.00,0.00,11.31,1.923,2.025,2.159,2.025,2.025,0,0,SEARCHING,0.000,0.800,0.000,-0.045
21:46:32.456,SEARCHING,34.049,12.267,1.647,0.00,0.00,10.98,1.816,1.939,2.061,1.939,1.939,0,0,SEARCHING,0.000,0.800,0.000,-0.052
21:46:32.657,SEARCHING,34.143,12.285,1.647,0.00,0.00,10.61,1.733,1.845,1.990,1.845,1.845,0,0,SEARCHING,0.000,0.800,0.000,-0.059
21:46:32.858,SEARCHING,34.236,12.302,1.647,0.00,0.00,10.20,1.646,1.760,1.891,1.760,1.760,0,0,SEARCHING,0.000,0.736,0.000,-0.063
21:46:33.059,SEARCHING,34.321,12.317,1.647,0.00,0.00,9.77,1.567,1.670,1.802,1.682,1.682,0,0,SEARCHING,0.000,0.664,0.000,-0.066
21:46:33.259,SEARCHING,34.398,12.330,1.647,0.00,0.00,9.30,1.496,1.600,1.733,1.600,1.600,0,0,SEARCHING,0.000,0.608,0.000,-0.073
21:46:33.460,SEARCHING,34.468,12.341,1.647,0.00,0.00,8.78,1.430,1.536,1.658,1.536,1.536,0,0,SEARCHING,0.000,0.559,0.000,-0.077
21:46:33.659,SEARCHING,34.533,12.351,1.647,0.00,0.00,8.24,1.370,1.467,1.600,1.467,1.476,0,0,SEARCHING,0.000,0.510,-0.005,-0.084
21:46:33.859,SEARCHING,34.592,12.359,1.647,0.00,0.00,7.64,1.308,1.421,1.546,1.421,1.421,0,0,SEARCHING,0.000,0.475,0.000,-0.094
21:46:34.060,SEARCHING,34.648,12.367,1.647,0.00,0.00,6.99,1.257,1.370,1.496,1.370,1.362,0,0,SEARCHING,0.000,0.441,0.005,-0.101
21:46:34.262,SEARCHING,34.699,12.373,1.647,0.00,0.00,6.28,1.204,1.315,1.448,1.315,1.315,0,0,SEARCHING,0.000,0.406,0.000,-0.112
21:46:34.463,SEARCHING,34.747,12.378,1.647,0.00,0.00,5.50,1.167,1.278,1.412,1.278,1.278,0,0,SEARCHING,0.000,0.383,0.000,-0.119
21:46:34.662,SEARCHING,34.792,12.382,1.647,0.00,0.00,4.66,1.122,1.230,1.378,1.230,1.230,0,0,SEARCHING,0.000,0.354,0.000,-0.133
21:46:34.862,SEARCHING,34.834,12.385,1.647,0.00,0.00,3.75,1.084,1.198,1.338,1.198,1.198,0,0,SEARCHING,0.000,0.335,0.000,-0.140
21:46:35.063,SEARCHING,34.873,12.387,1.647,0.00,0.00,2.76,1.050,1.167,1.308,1.167,1.167,0,0,SEARCHING,0.000,0.316,0.000,-0.150
21:46:35.263,SEARCHING,34.911,12.389,1.647,0.00,0.00,1.70,1.012,1.133,1.285,1.133,1.133,0,0,SEARCHING,0.000,0.297,0.000,-0.168
21:46:35.464,SEARCHING,34.946,12.389,1.647,0.00,0.00,0.54,0.986,1.105,1.264,1.105,1.105,0,0,SEARCHING,0.000,0.283,0.000,-0.178
21:46:35.665,SEARCHING,34.979,12.389,1.647,0.00,0.00,-0.72,0.953,1.079,1.244,1.079,1.079,0,0,SEARCHING,0.000,0.268,0.000,-0.196
21:46:35.864,SEARCHING,35.011,12.389,1.647,0.00,0.00,-2.09,0.930,1.059,1.224,1.054,1.059,0,0,SEARCHING,0.000,0.257,-0.005,-0.206
21:46:36.066,SEARCHING,35.041,12.387,1.647,0.00,0.00,-3.55,0.901,1.031,1.217,1.035,1.035,0,0,SEARCHING,0.000,0.243,0.000,-0.231
21:46:36.266,SEARCHING,35.070,12.385,1.647,0.00,0.00,-5.16,0.877,1.017,1.211,1.022,1.022,0,0,SEARCHING,0.000,0.235,0.000,-0.252
21:46:36.467,SEARCHING,35.098,12.382,1.646,0.00,0.00,-6.91,0.854,1.004,1.204,1.004,1.008,0,0,SEARCHING,0.000,0.227,-0.005,-0.273
21:46:36.668,SEARCHING,35.125,12.379,1.646,0.00,0.00,-8.81,0.841,0.995,1.211,0.995,0.995,0,0,SEARCHING,0.000,0.222,0.000,-0.290
21:46:36.868,SEARCHING,35.151,12.374,1.646,0.00,0.00,-10.87,0.823,0.982,1.217,0.978,0.982,0,0,SEARCHING,0.000,0.216,-0.005,-0.315
21:46:37.068,SEARCHING,35.176,12.369,1.645,0.00,0.00,-13.08,0.803,0.982,1.230,0.978,0.978,0,0,SEARCHING,0.000,0.213,0.000,-0.346
21:46:37.269,SEARCHING,35.201,12.363,1.645,0.00,0.00,-15.50,0.797,0.974,1.271,0.974,0.978,0,0,SEARCHING,0.000,0.209,-0.005,-0.374
21:46:37.469,SEARCHING,35.225,12.356,1.644,0.00,0.00,-18.12,0.789,0.982,1.308,0.986,0.982,0,0,SEARCHING,0.000,0.211,0.005,-0.402
21:46:37.669,SEARCHING,35.249,12.347,1.645,0.00,0.00,-20.94,0.786,0.995,1.362,0.995,0.995,0,0,SEARCHING,0.000,0.215,0.000,-0.430
21:46:37.870,SEARCHING,35.273,12.337,1.645,0.00,0.00,-23.96,0.778,1.008,1.439,1.008,1.012,0,0,SEARCHING,0.000,0.218,-0.005,-0.472
21:46:38.072,SEARCHING,35.297,12.326,1.645,0.00,0.00,-27.23,0.784,1.040,1.525,1.040,1.040,0,0,SEARCHING,0.000,0.229,0.000,-0.496
21:46:38.272,SEARCHING,35.321,12.313,1.645,0.00,0.00,-30.72,0.792,1.074,1.611,1.069,1.074,0,0,SEARCHING,0.000,0.242,-0.005,-0.514
21:46:38.472,SEARCHING,35.346,12.297,1.645,0.00,0.00,-34.21,0.806,1.122,1.578,1.127,1.127,0,0,SEARCHING,0.000,0.260,0.000,-0.486
21:46:38.673,SEARCHING,35.372,12.279,1.645,0.00,0.00,-37.52,0.817,1.179,1.536,1.173,1.179,0,0,SEARCHING,0.000,0.283,-0.005,-0.458
21:46:38.873,SEARCHING,35.399,12.257,1.645,0.00,0.00,-40.64,0.832,1.237,1.505,1.237,1.244,0,0,SEARCHING,0.000,0.307,-0.005,-0.430
21:46:39.073,SEARCHING,35.427,12.231,1.644,0.00,0.00,-43.52,0.854,1.315,1.457,1.315,1.315,0,0,SEARCHING,0.000,0.342,0.000,-0.388
21:46:39.273,SEARCHING,35.457,12.202,1.644,0.00,0.00,-46.16,0.867,1.378,1.439,1.378,1.354,0,0,SEARCHING,0.000,0.370,0.016,-0.367
21:46:39.475,SEARCHING,35.488,12.169,1.646,0.00,0.00,-48.63,0.894,1.476,1.412,1.476,1.476,0,0,SEARCHING,0.000,0.418,0.000,-0.329
21:46:39.675,SEARCHING,35.521,12.130,1.647,0.00,0.00,-50.82,0.908,1.505,1.370,1.505,1.515,0,0,SEARCHING,0.000,0.434,-0.005,-0.297
21:46:39.875,SEARCHING,35.553,12.089,1.646,0.00,0.00,-52.80,0.923,1.448,1.323,1.439,1.448,0,0,SEARCHING,0.000,0.411,-0.005,-0.262
21:46:40.075,SEARCHING,35.582,12.050,1.646,0.00,0.00,-54.53,0.953,1.404,1.293,1.404,1.404,0,0,SEARCHING,0.000,0.397,0.000,-0.220
21:46:40.276,SEARCHING,35.609,12.012,1.646,0.00,0.00,-55.99,0.970,1.346,1.264,1.346,1.346,0,0,SEARCHING,0.000,0.375,0.000,-0.192
21:46:40.477,SEARCHING,35.633,11.975,1.646,0.00,0.00,-57.23,0.995,1.300,1.217,1.300,1.300,0,0,SEARCHING,0.000,0.361,0.000,-0.147
21:46:40.678,SEARCHING,35.656,11.938,1.646,0.00,0.00,-58.21,0.991,1.264,1.198,1.264,1.257,0,0,SEARCHING,0.000,0.345,0.005,-0.140
21:46:40.878,SEARCHING,35.677,11.903,1.646,0.00,0.00,-59.11,1.008,1.217,1.156,1.211,1.211,0,0,SEARCHING,0.000,0.329,0.000,-0.101
21:46:41.078,SEARCHING,35.697,11.870,1.646,0.00,0.00,-59.76,1.026,1.179,1.133,1.179,1.179,0,0,SEARCHING,0.000,0.317,0.000,-0.073
21:46:41.280,SEARCHING,35.716,11.837,1.646,0.00,0.00,-60.20,1.031,1.150,1.095,1.144,1.150,0,0,SEARCHING,0.000,0.306,-0.005,-0.045
21:46:41.479,SEARCHING,35.734,11.806,1.646,0.00,0.00,-60.47,1.022,1.105,1.064,1.105,1.105,0,0,SEARCHING,0.000,0.288,0.000,-0.031
21:46:41.680,SEARCHING,35.751,11.776,1.646,0.00,0.00,-60.65,1.026,1.079,1.031,1.079,1.074,0,0,SEARCHING,0.000,0.279,0.005,-0.003
21:46:41.881,SEARCHING,35.767,11.747,1.646,0.00,0.00,-60.64,1.022,1.045,1.004,1.040,1.040,0,0,SEARCHING,0.000,0.263,0.000,0.014
21:46:42.082,SEARCHING,35.783,11.720,1.646,0.00,0.00,-60.53,1.004,1.017,0.970,1.012,1.012,0,0,SEARCHING,0.000,0.248,0.000,0.028
21:46:42.282,SEARCHING,35.795,11.698,1.647,0.00,0.00,-60.36,0.995,0.991,0.949,0.991,0.986,0,0,SEARCHING,0.000,0.236,0.005,0.038
21:46:42.481,SEARCHING,35.809,11.674,1.647,0.00,0.00,-60.07,0.982,0.961,0.926,0.961,0.961,0,0,SEARCHING,0.000,0.223,0.000,0.049
21:46:42.682,SEARCHING,35.822,11.651,1.648,0.00,0.00,-59.69,0.970,0.942,0.894,0.942,0.942,0,0,SEARCHING,0.000,0.212,0.000,0.070
21:46:42.884,SEARCHING,35.835,11.630,1.648,0.00,0.00,-59.18,0.949,0.912,0.873,0.912,0.912,0,0,SEARCHING,0.000,0.200,0.000,0.073
21:46:43.084,SEARCHING,35.847,11.609,1.648,0.00,0.00,-58.67,0.926,0.890,0.847,0.890,0.890,0,0,SEARCHING,0.000,0.200,0.000,0.080
21:46:43.284,SEARCHING,35.859,11.589,1.648,0.00,0.00,-58.09,0.912,0.870,0.826,0.870,0.870,0,0,SEARCHING,0.000,0.200,0.000,0.091
21:46:43.485,SEARCHING,35.870,11.572,1.648,0.00,0.00,-57.53,0.894,0.851,0.803,0.847,0.851,0,0,SEARCHING,0.000,0.200,-0.005,0.101
21:46:43.685,SEARCHING,35.883,11.552,1.647,0.00,0.00,-56.83,0.867,0.829,0.778,0.829,0.829,0,0,SEARCHING,0.000,0.200,0.000,0.105
21:46:43.886,SEARCHING,35.896,11.532,1.647,0.00,0.00,-56.09,0.847,0.803,0.755,0.806,0.803,0,0,SEARCHING,0.000,0.200,0.005,0.115
21:46:44.086,INSPECTING,35.904,11.520,1.648,0.00,0.00,-55.00,0.823,0.795,0.741,0.792,0.795,0,0,INSPECT_LEFT,0.000,0.100,0.000,0.600
21:46:44.288,INSPECTING,35.911,11.510,1.699,0.00,0.00,-52.94,0.781,0.786,0.722,0.786,0.786,0,0,INSPECT_TOP,0.000,0.100,0.500,0.000
21:46:44.487,INSPECTING,35.919,11.501,1.799,0.00,0.00,-52.94,0.773,0.776,0.713,0.776,0.776,0,0,INSPECT_TOP,0.000,0.100,0.500,0.000
21:46:44.688,INSPECTING,35.926,11.491,1.796,0.00,0.00,-52.94,0.768,0.763,0.702,0.760,0.763,0,0,INSPECT_LEFT,0.000,0.100,0.000,0.600
21:46:44.893,INSPECTING,35.933,11.482,1.849,0.00,0.00,-50.88,0.736,0.758,0.689,0.755,0.753,0,0,INSPECT_TOP,0.000,0.100,0.500,0.000
21:46:45.094,INSPECTING,35.941,11.472,1.949,0.00,0.00,-50.88,0.729,0.745,0.677,0.745,0.745,0,0,INSPECT_TOP,0.000,0.100,0.500,0.000
21:46:45.295,INSPECTING,35.948,11.463,2.049,0.00,0.00,-50.88,0.729,0.733,0.669,0.733,0.736,0,0,INSPECT_BOTTOM,0.000,0.100,-0.500,0.000
21:46:45.495,INSPECTING,35.956,11.454,2.049,0.00,0.00,-50.88,0.722,0.722,0.658,0.722,0.722,0,0,INSPECT_TOP,0.000,0.100,0.500,0.000
21:46:45.695,TURNING,35.960,11.448,2.098,0.00,0.00,-49.28,0.702,0.717,0.650,0.720,0.720,0,0,TURNING,0.000,0.050,0.000,1.400
21:46:45.896,TURNING,35.965,11.444,2.098,0.00,0.00,-39.65,0.587,0.753,0.650,0.755,0.755,0,0,TURNING,0.000,0.050,0.000,1.400
21:46:46.096,TURNING,35.969,11.441,2.098,0.00,0.00,-30.02,0.521,0.706,0.667,0.706,0.706,0,0,TURNING,0.000,0.050,0.000,1.400
21:46:46.297,TURNING,35.975,11.438,2.098,0.00,0.00,-20.40,0.479,0.605,0.708,0.602,0.602,0,0,TURNING,0.000,0.050,0.000,1.400
21:46:46.498,TURNING,35.981,11.436,2.098,0.00,0.00,-10.77,0.450,0.537,0.671,0.538,0.540,0,0,TURNING,0.000,0.050,0.000,1.400
21:46:46.698,TURNING,35.986,11.436,2.098,0.00,0.00,-1.15,0.443,0.501,0.579,0.502,0.500,0,0,TURNING,0.000,0.050,0.000,1.400
21:46:46.899,TURNING,35.992,11.436,2.098,0.00,0.00,8.48,0.445,0.482,0.524,0.482,0.481,0,0,TURNING,0.000,0.050,0.000,1.400
21:46:47.099,TURNING,35.998,11.437,2.098,0.00,0.00,18.10,0.465,0.478,0.491,0.478,0.478,0,0,TURNING,0.000,0.050,0.000,1.400
21:46:47.300,TURNING,36.004,11.439,2.098,0.00,0.00,27.73,0.491,0.476,0.462,0.476,0.477,0,0,TURNING,0.000,0.050,0.000,1.400
21:46:47.502,TURNING,36.009,11.443,2.098,0.00,0.00,37.36,0.525,0.478,0.443,0.478,0.479,0,0,TURNING,0.000,0.050,0.000,1.400
21:46:47.702,TURNING,36.013,11.447,2.098,0.00,0.00,46.98,0.581,0.499,0.437,0.499,0.499,0,0,TURNING,0.000,0.050,0.000,1.400
21:46:47.902,TURNING,36.017,11.451,2.098,0.00,0.00,56.61,0.675,0.536,0.445,0.535,0.538,0,0,TURNING,0.000,0.050,0.000,1.400
21:46:48.103,TURNING,36.020,11.456,2.098,0.00,0.00,66.23,0.826,0.605,0.473,0.601,0.602,0,0,TURNING,0.000,0.050,0.000,1.400
21:46:48.303,TURNING,36.022,11.462,2.098,0.00,0.00,75.86,1.127,0.704,0.515,0.708,0.702,0,0,TURNING,0.000,0.050,0.000,1.400
21:46:48.504,TURNING,36.023,11.468,2.098,0.00,0.00,85.48,1.720,0.873,0.588,0.873,0.873,0,0,TURNING,0.000,0.050,0.000,1.400
21:46:48.705,TURNING,36.023,11.474,2.098,0.00,0.00,95.11,3.134,1.192,0.702,1.179,1.179,0,0,TURNING,0.000,0.050,0.000,1.400
