timestamp,state,x,y,z,roll_deg,pitch_deg,yaw_deg,dist_left,dist_center,dist_right,dist_top,dist_bottom,dtof_alert,collision_event,best_dir,max_space,cmd_vx,cmd_vz,cmd_yaw
23:27:12.951,SEARCHING,0.000,0.000,0.000,0.00,0.00,0.00,10.000,10.000,10.000,10.000,10.000,0,0,SEARCHING,0.000,0.526,0.000,0.000
23:27:14.321,SEARCHING,0.056,0.000,1.000,0.00,0.00,0.00,10.000,10.000,10.000,10.000,10.000,0,0,SEARCHING,0.000,0.734,0.000,0.000
23:27:14.523,SEARCHING,0.208,0.000,1.000,0.00,0.00,0.01,4.735,5.208,4.080,5.218,5.143,0,0,SEARCHING,0.000,0.784,0.000,0.010
23:27:14.723,SEARCHING,0.366,0.000,1.000,0.00,0.00,0.54,2.065,2.727,1.022,2.715,2.696,0,0,SEARCHING,0.000,0.796,0.000,0.186
23:27:14.925,SEARCHING,0.526,0.005,1.000,0.00,0.00,3.89,1.797,2.389,0.724,2.387,2.391,0,0,SEARCHING,0.000,0.799,0.000,0.476
23:27:15.124,SEARCHING,0.682,0.023,1.000,0.00,0.00,9.79,1.592,2.035,2.354,2.041,2.030,0,0,SEARCHING,0.000,0.766,0.000,0.318
23:27:15.326,SEARCHING,0.828,0.051,1.000,0.00,0.00,11.22,1.432,1.786,2.654,1.779,1.774,0,0,SEARCHING,0.000,0.672,0.000,-0.102
23:27:15.528,SEARCHING,0.952,0.074,1.000,0.00,0.00,9.36,1.368,1.694,2.659,1.688,1.682,0,0,SEARCHING,0.000,0.578,0.000,-0.233
23:27:15.728,SEARCHING,1.063,0.090,1.000,0.00,0.00,6.45,1.315,1.666,2.732,1.668,1.655,0,0,SEARCHING,0.000,0.530,0.000,-0.284
23:27:15.929,SEARCHING,1.167,0.099,1.000,0.00,0.00,2.98,1.203,1.690,2.944,1.688,1.692,0,0,SEARCHING,0.000,0.511,0.000,-0.345
23:27:16.129,SEARCHING,1.269,0.101,1.000,0.00,0.00,-1.23,1.187,1.758,3.301,1.759,1.757,0,0,SEARCHING,0.000,0.523,0.000,-0.401
23:27:16.330,SEARCHING,1.376,0.095,1.000,0.00,0.00,-5.98,1.217,1.900,3.876,1.899,1.897,0,0,SEARCHING,0.000,0.574,0.000,-0.433
23:27:16.531,SEARCHING,1.495,0.077,1.000,0.00,0.00,-11.05,1.281,2.148,5.235,2.147,2.134,0,0,SEARCHING,0.000,0.672,0.000,-0.458
23:27:16.732,SEARCHING,1.634,0.044,1.000,0.00,0.00,-16.32,1.375,2.504,5.613,2.513,2.500,0,0,SEARCHING,0.000,0.767,0.000,-0.454
23:27:16.932,SEARCHING,1.782,-0.006,1.000,0.00,0.00,-21.39,1.485,2.882,5.305,2.879,2.662,0,0,SEARCHING,0.000,0.792,0.000,-0.417
23:27:17.133,SEARCHING,1.913,-0.062,1.002,0.00,0.00,-25.44,1.727,3.624,4.607,3.635,2.731,0,0,SEARCHING,0.000,0.798,0.056,-0.344
23:27:17.333,SEARCHING,2.027,-0.120,1.017,0.00,0.00,-28.27,1.877,4.720,4.260,5.224,2.813,0,0,SEARCHING,0.000,0.800,0.133,-0.275
23:27:17.534,SEARCHING,2.139,-0.182,1.044,0.00,0.00,-30.55,2.056,5.385,3.847,6.151,3.523,0,0,SEARCHING,0.000,0.800,0.134,-0.218
23:27:17.734,SEARCHING,2.248,-0.249,1.072,0.00,0.00,-32.35,2.187,5.306,3.640,6.132,3.051,0,0,SEARCHING,0.000,0.800,0.165,-0.173
23:27:17.935,SEARCHING,2.356,-0.319,1.105,0.00,0.00,-33.79,2.282,5.168,3.533,6.052,3.812,0,0,SEARCHING,0.000,0.800,0.145,-0.141
23:27:18.136,SEARCHING,2.461,-0.391,1.135,0.00,0.00,-34.96,2.420,5.100,3.406,5.979,2.968,0,0,SEARCHING,0.000,0.800,0.171,-0.113
23:27:18.337,SEARCHING,2.566,-0.465,1.169,0.00,0.00,-35.89,2.546,4.997,3.303,5.891,3.728,0,0,SEARCHING,0.000,0.800,0.153,-0.087
23:27:18.537,SEARCHING,2.669,-0.541,1.198,0.00,0.00,-36.59,2.638,4.907,3.161,5.698,3.571,0,0,SEARCHING,0.000,0.800,0.136,-0.065
23:27:18.739,SEARCHING,2.771,-0.617,1.225,0.00,0.00,-37.09,2.885,4.875,3.087,5.533,3.752,0,0,SEARCHING,0.000,0.800,0.120,-0.038
23:27:18.939,SEARCHING,2.873,-0.695,1.249,0.00,0.00,-37.31,3.249,4.780,3.021,5.372,3.296,0,0,SEARCHING,0.000,0.800,0.128,-0.005
23:27:19.140,SEARCHING,2.975,-0.772,1.274,0.00,0.00,-37.19,3.640,4.759,2.930,5.310,3.414,0,0,SEARCHING,0.000,0.800,0.125,0.032
23:27:19.341,SEARCHING,3.077,-0.849,1.299,0.00,0.00,-36.80,3.726,4.809,2.912,5.248,3.527,0,0,SEARCHING,0.000,0.800,0.122,0.051
23:27:19.541,SEARCHING,3.180,-0.926,1.323,0.00,0.00,-36.29,3.701,4.894,2.891,5.235,3.579,0,0,SEARCHING,0.000,0.800,0.112,0.058
23:27:19.741,SEARCHING,3.284,-1.001,1.345,0.00,0.00,-35.75,3.642,5.007,2.903,5.179,3.655,0,0,SEARCHING,0.000,0.800,0.100,0.057
23:27:19.942,SEARCHING,3.388,-1.075,1.364,0.00,0.00,-35.24,3.610,5.281,2.875,5.073,3.670,0,0,SEARCHING,0.000,0.800,0.093,0.056
23:27:20.143,SEARCHING,3.493,-1.149,1.383,0.00,0.00,-34.72,3.563,5.507,2.855,5.196,3.748,0,0,SEARCHING,0.000,0.800,0.087,0.056
23:27:20.344,SEARCHING,3.598,-1.221,1.400,0.00,0.00,-34.21,3.482,6.140,2.852,5.249,3.653,0,0,SEARCHING,0.000,0.800,0.092,0.055
23:27:20.544,SEARCHING,3.704,-1.293,1.419,0.00,0.00,-33.72,3.475,7.090,2.832,5.206,3.597,0,0,SEARCHING,0.000,0.800,0.099,0.053
23:27:20.744,SEARCHING,3.811,-1.364,1.439,0.00,0.00,-33.25,3.428,7.368,2.852,5.168,3.512,0,0,SEARCHING,0.000,0.800,0.104,0.050
23:27:20.945,SEARCHING,3.918,-1.433,1.460,0.00,0.00,-32.79,3.428,7.380,2.809,5.100,3.403,0,0,SEARCHING,0.000,0.800,0.111,0.050
23:27:21.145,SEARCHING,4.026,-1.502,1.483,0.00,0.00,-32.34,3.417,7.278,2.837,5.027,3.310,0,0,SEARCHING,0.000,0.800,0.119,0.049
23:27:21.347,SEARCHING,4.135,-1.570,1.507,0.00,0.00,-31.89,3.371,7.161,2.818,4.979,3.189,0,0,SEARCHING,0.000,0.800,0.127,0.048
23:27:21.548,SEARCHING,4.243,-1.638,1.533,0.00,0.00,-31.47,3.326,7.009,2.867,4.905,3.065,0,0,SEARCHING,0.000,0.800,0.139,0.042
23:27:21.747,SEARCHING,4.353,-1.704,1.562,0.00,0.00,-31.11,3.281,6.954,2.902,4.873,2.935,0,0,SEARCHING,0.000,0.800,0.153,0.037
23:27:21.948,SEARCHING,4.463,-1.770,1.593,0.00,0.00,-30.79,3.297,6.875,2.897,4.775,2.820,0,0,SEARCHING,0.000,0.800,0.165,0.034
23:27:22.148,SEARCHING,4.573,-1.835,1.627,0.00,0.00,-30.48,3.249,6.689,2.891,4.701,2.702,0,0,SEARCHING,0.000,0.800,0.178,0.032
23:27:22.349,SEARCHING,4.683,-1.900,1.663,0.00,0.00,-30.21,3.190,6.565,2.918,4.612,2.636,0,0,SEARCHING,0.000,0.800,0.190,0.026
23:27:22.550,SEARCHING,4.794,-1.964,1.701,0.00,0.00,-29.97,3.262,6.423,2.926,4.514,2.618,0,0,SEARCHING,0.000,0.800,0.193,0.027
23:27:22.750,SEARCHING,4.905,-2.028,1.740,0.00,0.00,-29.70,3.403,6.249,2.916,4.426,2.618,0,0,SEARCHING,0.000,0.800,0.191,0.033
23:27:22.951,SEARCHING,5.016,-2.091,1.778,0.00,0.00,-29.38,3.410,6.192,2.945,4.361,2.708,0,0,SEARCHING,0.000,0.800,0.179,0.037
23:27:23.151,SEARCHING,5.128,-2.154,1.812,0.00,0.00,-29.03,3.494,6.042,2.937,4.270,2.849,0,0,SEARCHING,0.000,0.800,0.158,0.040
23:27:23.351,SEARCHING,5.240,-2.215,1.843,0.00,0.00,-28.65,3.516,5.912,2.998,4.192,2.926,0,0,SEARCHING,0.000,0.800,0.136,0.042
23:27:23.552,SEARCHING,5.352,-2.276,1.869,0.00,0.00,-28.30,3.497,5.820,3.149,4.131,2.975,0,0,SEARCHING,0.000,0.800,0.121,0.033
23:27:23.754,SEARCHING,5.465,-2.337,1.892,0.00,0.00,-28.07,3.460,5.630,3.403,4.026,3.053,0,0,SEARCHING,0.000,0.800,0.106,0.015
23:27:23.954,SEARCHING,5.578,-2.397,1.913,0.00,0.00,-27.99,3.423,5.499,3.457,3.960,3.145,0,0,SEARCHING,0.000,0.800,0.090,0.003
23:27:24.154,SEARCHING,5.691,-2.457,1.930,0.00,0.00,-27.98,3.383,5.358,3.431,3.886,3.174,0,0,SEARCHING,0.000,0.800,0.076,-0.001
23:27:24.355,SEARCHING,5.804,-2.517,1.945,0.00,0.00,-28.00,3.318,5.225,3.445,3.840,3.191,0,0,SEARCHING,0.000,0.800,0.068,-0.005
23:27:24.555,SEARCHING,5.917,-2.577,1.958,0.00,0.00,-28.07,3.305,5.101,3.453,3.859,3.219,0,0,SEARCHING,0.000,0.800,0.063,-0.008
23:27:24.755,SEARCHING,6.030,-2.638,1.971,0.00,0.00,-28.16,3.262,4.935,3.560,3.826,3.261,0,0,SEARCHING,0.000,0.800,0.058,-0.015
23:27:24.957,SEARCHING,6.143,-2.698,1.980,0.00,0.00,-28.33,3.232,4.818,3.589,3.779,3.362,0,0,SEARCHING,0.000,0.800,0.020,-0.022
23:27:25.157,SEARCHING,6.270,-2.767,1.982,0.00,0.00,-28.57,3.245,4.707,3.571,3.792,3.728,0,0,SEARCHING,0.000,0.800,0.005,-0.023
23:27:25.358,SEARCHING,6.410,-2.843,1.982,0.00,0.00,-28.83,3.232,4.507,3.753,3.734,4.031,0,0,SEARCHING,0.000,0.800,0.001,-0.026
23:27:25.558,SEARCHING,6.550,-2.921,1.982,0.00,0.00,-29.20,3.215,4.388,4.069,3.778,4.274,0,0,SEARCHING,0.000,0.800,0.000,-0.043
23:27:25.759,SEARCHING,6.689,-3.000,1.982,0.00,0.00,-29.73,3.193,4.233,4.099,3.761,4.228,0,0,SEARCHING,0.000,0.800,0.000,-0.052
23:27:25.958,SEARCHING,6.828,-3.080,1.982,0.00,0.00,-30.33,3.215,3.716,4.091,3.814,3.918,0,0,SEARCHING,0.000,0.800,0.000,-0.053
23:27:26.159,SEARCHING,6.966,-3.161,1.982,0.00,0.00,-30.94,3.217,3.362,3.968,3.758,3.615,0,0,SEARCHING,0.000,0.800,0.000,-0.050
23:27:26.360,SEARCHING,7.102,-3.244,1.982,0.00,0.00,-31.50,3.199,3.415,3.930,3.740,3.581,0,0,SEARCHING,0.000,0.800,0.000,-0.047
23:27:26.560,SEARCHING,7.239,-3.328,1.982,0.00,0.00,-32.03,3.194,3.527,3.842,3.605,3.573,0,0,SEARCHING,0.000,0.800,0.000,-0.045
23:27:26.762,SEARCHING,7.374,-3.414,1.982,0.00,0.00,-32.53,3.239,3.494,3.826,3.484,3.496,0,0,SEARCHING,0.000,0.800,0.000,-0.041
23:27:26.962,SEARCHING,7.508,-3.500,1.982,0.00,0.00,-32.98,3.273,3.316,3.802,3.318,3.341,0,0,SEARCHING,0.000,0.800,0.000,-0.037
23:27:27.162,SEARCHING,7.642,-3.588,1.982,0.00,0.00,-33.38,3.286,3.167,3.717,3.185,3.161,0,0,SEARCHING,0.000,0.800,0.000,-0.032
23:27:27.362,SEARCHING,7.776,-3.676,1.982,0.00,0.00,-33.73,3.273,2.991,3.694,3.007,2.990,0,0,SEARCHING,0.000,0.800,0.000,-0.029
23:27:27.563,SEARCHING,7.909,-3.765,1.982,0.00,0.00,-34.06,3.315,2.717,3.675,2.841,2.830,0,0,SEARCHING,0.000,0.800,0.000,-0.027
23:27:27.764,SEARCHING,8.041,-3.855,1.982,0.00,0.00,-34.35,3.345,2.627,3.675,2.709,2.707,0,0,SEARCHING,0.000,0.800,0.000,-0.023
23:27:27.965,SEARCHING,8.173,-3.946,1.982,0.00,0.00,-34.61,3.336,2.412,3.701,2.551,2.541,0,0,SEARCHING,0.000,0.800,0.000,-0.023
23:27:28.166,SEARCHING,8.304,-4.037,1.982,0.00,0.00,-34.89,3.318,2.292,3.745,2.369,2.368,0,0,SEARCHING,0.000,0.800,0.000,-0.026
23:27:28.367,SEARCHING,8.435,-4.129,1.982,0.00,0.00,-35.19,3.263,2.208,3.750,2.228,2.236,0,0,SEARCHING,0.000,0.800,0.000,-0.029
23:27:28.567,SEARCHING,8.566,-4.221,1.982,0.00,0.00,-35.57,3.087,2.012,3.842,2.049,2.042,0,0,SEARCHING,0.000,0.800,0.000,-0.041
23:27:28.769,SEARCHING,8.696,-4.315,1.982,0.00,0.00,-36.09,2.336,1.867,3.965,1.880,1.882,0,0,SEARCHING,0.000,0.791,0.000,-0.077
23:27:28.967,SEARCHING,8.818,-4.406,1.982,0.00,0.00,-37.36,1.886,1.719,3.875,1.724,1.720,0,0,SEARCHING,0.000,0.696,0.000,-0.166
23:27:29.170,SEARCHING,8.921,-4.487,1.982,0.00,0.00,-39.54,1.623,1.573,3.447,1.573,1.572,0,0,SEARCHING,0.000,0.578,0.000,-0.227
23:27:29.369,SEARCHING,9.003,-4.557,1.982,0.00,0.00,-42.32,1.448,1.453,3.037,1.449,1.453,0,0,SEARCHING,0.000,0.479,0.000,-0.267
23:27:29.570,SEARCHING,9.069,-4.620,1.982,0.00,0.00,-45.50,1.345,1.426,2.773,1.423,1.421,0,0,SEARCHING,0.000,0.422,0.000,-0.292
23:27:29.772,SEARCHING,9.124,-4.680,1.982,0.00,0.00,-48.93,1.215,1.379,2.441,1.393,1.411,0,0,SEARCHING,0.000,0.386,0.000,-0.314
23:27:29.974,SEARCHING,9.183,-4.752,1.982,0.00,0.00,-52.64,1.097,3.691,2.250,3.379,3.821,0,0,SEARCHING,0.000,0.656,0.000,-0.346
23:27:30.175,SEARCHING,9.266,-4.867,1.982,0.00,0.00,-56.75,1.026,3.876,2.024,3.703,3.921,0,0,SEARCHING,0.000,0.765,0.000,-0.375
23:27:30.374,SEARCHING,9.346,-5.000,1.982,0.00,0.00,-61.07,0.985,3.167,1.812,3.138,3.141,0,0,SEARCHING,0.000,0.792,0.000,-0.377
23:27:30.575,SEARCHING,9.419,-5.142,1.982,0.00,0.00,-64.06,3.443,2.547,1.603,2.550,2.543,0,0,SEARCHING,0.000,0.798,0.000,0.018
23:27:30.775,SEARCHING,9.490,-5.285,1.982,0.00,0.00,-62.75,3.651,2.372,1.535,2.363,2.373,0,0,SEARCHING,0.000,0.800,0.000,0.225
23:27:30.976,SEARCHING,9.566,-5.425,1.982,0.00,0.00,-59.84,3.506,2.538,1.536,2.526,2.500,0,0,SEARCHING,0.000,0.800,0.000,0.280
23:27:31.177,SEARCHING,9.650,-5.562,1.982,0.00,0.00,-56.59,3.403,2.908,1.540,2.940,2.946,0,0,SEARCHING,0.000,0.800,0.000,0.286
23:27:31.378,SEARCHING,9.741,-5.693,1.982,0.00,0.00,-53.34,3.264,3.163,1.570,3.190,3.206,0,0,SEARCHING,0.000,0.800,0.000,0.276
23:27:31.578,SEARCHING,9.840,-5.819,1.982,0.00,0.00,-50.26,3.167,3.432,1.603,3.404,3.422,0,0,SEARCHING,0.000,0.800,0.000,0.257
23:27:31.778,SEARCHING,9.945,-5.939,1.982,0.00,0.00,-47.41,3.016,3.402,1.860,3.380,3.750,0,0,SEARCHING,0.000,0.800,0.000,0.217
23:27:31.979,SEARCHING,10.044,-6.044,1.980,0.00,0.00,-45.48,2.890,3.231,2.106,3.219,4.187,0,0,SEARCHING,0.000,0.800,-0.050,0.142
23:27:32.180,SEARCHING,10.135,-6.134,1.968,0.00,0.00,-44.37,2.814,3.080,2.172,3.070,4.290,0,0,SEARCHING,0.000,0.800,-0.090,0.103
23:27:32.380,SEARCHING,10.227,-6.223,1.948,0.00,0.00,-43.54,2.707,2.977,2.201,2.960,4.345,0,0,SEARCHING,0.000,0.800,-0.115,0.080
23:27:32.582,SEARCHING,10.320,-6.311,1.924,0.00,0.00,-42.89,2.597,2.872,2.222,2.862,4.416,0,0,SEARCHING,0.000,0.800,-0.135,0.062
23:27:32.782,SEARCHING,10.414,-6.398,1.896,0.00,0.00,-42.38,2.482,2.759,2.214,2.733,4.413,0,0,SEARCHING,0.000,0.800,-0.154,0.049
23:27:32.983,SEARCHING,10.509,-6.484,1.864,0.00,0.00,-42.00,2.385,2.618,2.233,2.588,4.389,0,0,SEARCHING,0.000,0.800,-0.174,0.033
23:27:33.184,SEARCHING,10.604,-6.569,1.828,0.00,0.00,-41.76,2.319,2.519,2.275,2.475,4.347,0,0,SEARCHING,0.000,0.800,-0.196,0.017
23:27:33.384,SEARCHING,10.700,-6.654,1.788,0.00,0.00,-41.66,2.221,2.396,2.222,2.353,4.212,0,0,SEARCHING,0.000,0.800,-0.212,0.006
23:27:33.586,SEARCHING,10.796,-6.739,1.744,0.00,0.00,-41.62,2.331,2.341,2.228,2.250,4.130,0,0,SEARCHING,0.000,0.800,-0.230,0.008
23:27:33.786,SEARCHING,10.891,-6.824,1.697,0.00,0.00,-41.39,3.037,2.741,2.204,2.120,4.019,0,0,SEARCHING,0.000,0.800,-0.253,0.057
23:27:33.986,SEARCHING,10.988,-6.908,1.645,0.00,0.00,-40.61,3.859,3.558,2.236,1.995,3.984,0,0,SEARCHING,0.000,0.800,-0.279,0.115
23:27:34.186,SEARCHING,11.086,-6.991,1.588,0.00,0.00,-39.39,4.198,3.990,2.290,1.876,4.077,0,0,SEARCHING,0.000,0.800,-0.316,0.147
23:27:34.388,SEARCHING,11.186,-7.071,1.522,0.00,0.00,-37.99,4.338,4.172,2.366,1.749,4.048,0,0,SEARCHING,0.000,0.800,-0.360,0.154
23:27:34.590,SEARCHING,11.287,-7.149,1.448,0.00,0.00,-36.58,4.393,4.203,2.426,1.693,3.879,0,0,SEARCHING,0.000,0.800,-0.389,0.152
23:27:34.789,SEARCHING,11.391,-7.224,1.370,0.00,0.00,-35.20,4.362,4.205,2.473,1.868,3.660,0,0,SEARCHING,0.000,0.800,-0.363,0.146
23:27:34.990,SEARCHING,11.496,-7.297,1.301,0.00,0.00,-33.90,4.287,4.182,2.518,2.038,3.471,0,0,SEARCHING,0.000,0.800,-0.297,0.138
23:27:35.191,SEARCHING,11.603,-7.367,1.246,0.00,0.00,-32.67,4.270,4.182,2.568,2.162,3.335,0,0,SEARCHING,0.000,0.800,-0.230,0.129
23:27:35.391,SEARCHING,11.711,-7.435,1.203,0.00,0.00,-31.51,4.429,4.224,2.628,2.307,3.187,0,0,SEARCHING,0.000,0.800,-0.176,0.126
23:27:35.591,SEARCHING,11.821,-7.501,1.170,0.00,0.00,-30.36,4.532,4.369,2.660,2.410,3.084,0,0,SEARCHING,0.000,0.800,-0.134,0.125
23:27:35.792,SEARCHING,11.932,-7.565,1.145,0.00,0.00,-29.23,4.435,4.485,2.751,2.478,3.034,0,0,SEARCHING,0.000,0.800,-0.105,0.119
23:27:35.992,SEARCHING,12.044,-7.626,1.125,0.00,0.00,-28.19,4.319,4.606,2.805,2.532,3.007,0,0,SEARCHING,0.000,0.800,-0.086,0.108
23:27:36.194,SEARCHING,12.158,-7.686,1.109,0.00,0.00,-27.24,4.176,4.585,2.829,2.543,2.956,0,0,SEARCHING,0.000,0.800,-0.073,0.099
23:27:36.395,SEARCHING,12.272,-7.744,1.095,0.00,0.00,-26.38,4.052,4.489,2.905,2.614,2.936,0,0,SEARCHING,0.000,0.800,-0.060,0.087
23:27:36.594,SEARCHING,12.387,-7.800,1.085,0.00,0.00,-25.63,3.938,4.360,2.957,2.675,2.890,0,0,SEARCHING,0.000,0.800,-0.020,0.076
23:27:36.795,SEARCHING,12.517,-7.862,1.083,0.00,0.00,-24.90,3.811,4.325,3.029,2.718,2.848,0,0,SEARCHING,0.000,0.800,-0.005,0.063
23:27:36.995,SEARCHING,12.663,-7.928,1.083,0.00,0.00,-24.22,3.693,4.296,3.103,2.766,2.873,0,0,SEARCHING,0.000,0.800,-0.001,0.051
23:27:37.197,SEARCHING,12.809,-7.993,1.083,0.00,0.00,-23.69,3.605,4.167,3.183,2.694,2.909,0,0,SEARCHING,0.000,0.800,-0.000,0.039
23:27:38.838,SEARCHING,12.955,-8.057,1.083,0.00,0.00,-23.29,3.546,4.069,3.204,2.599,2.924,0,0,SEARCHING,0.000,0.800,-0.015,0.029
23:27:38.847,SEARCHING,13.044,-8.095,1.078,0.00,0.00,-23.10,3.546,4.069,3.204,2.599,2.924,0,0,SEARCHING,0.000,0.800,-0.043,0.025
23:27:38.957,SEARCHING,13.147,-8.139,1.069,0.00,0.00,-22.90,3.468,3.911,3.152,2.445,2.882,0,0,SEARCHING,0.000,0.800,-0.056,0.024
23:27:39.146,SEARCHING,13.265,-8.188,1.056,0.00,0.00,-22.68,3.363,3.710,3.015,2.260,2.831,0,0,SEARCHING,0.000,0.800,-0.086,0.026
23:27:39.344,SEARCHING,13.383,-8.237,1.038,0.00,0.00,-22.44,3.294,3.550,2.978,2.153,2.756,0,0,SEARCHING,0.000,0.800,-0.110,0.026
23:27:39.545,SEARCHING,13.501,-8.286,1.014,0.00,0.00,-22.19,3.235,3.487,2.908,2.095,2.701,0,0,SEARCHING,0.000,0.800,-0.124,0.027
23:27:39.745,SEARCHING,13.620,-8.334,0.989,0.00,0.00,-21.94,3.151,3.347,2.808,2.045,2.635,0,0,SEARCHING,0.000,0.800,-0.131,0.030
23:27:39.945,SEARCHING,13.739,-8.382,0.964,0.00,0.00,-21.66,3.085,3.238,2.754,2.109,2.590,0,0,SEARCHING,0.000,0.800,-0.117,0.030
23:27:40.146,SEARCHING,13.858,-8.429,0.941,0.00,0.00,-21.38,3.027,3.211,2.717,2.133,2.560,0,0,SEARCHING,0.000,0.800,-0.103,0.030
23:27:40.347,SEARCHING,13.977,-8.475,0.921,0.00,0.00,-21.10,2.953,3.165,2.630,2.193,2.510,0,0,SEARCHING,0.000,0.800,-0.082,0.032
23:27:40.547,SEARCHING,14.097,-8.521,0.906,0.00,0.00,-20.81,2.866,3.063,2.560,2.229,2.457,0,0,SEARCHING,0.000,0.800,-0.050,0.032
23:27:40.748,SEARCHING,14.216,-8.566,0.898,0.00,0.00,-20.50,2.832,2.981,2.494,2.233,2.450,0,0,SEARCHING,0.000,0.800,-0.012,0.036
23:27:40.949,SEARCHING,14.351,-8.616,0.897,0.00,0.00,-20.13,2.740,2.884,2.484,2.248,2.436,0,0,SEARCHING,0.000,0.800,-0.003,0.033
23:27:41.149,SEARCHING,14.502,-8.671,0.897,0.00,0.00,-19.77,2.656,2.752,2.442,2.249,2.425,0,0,SEARCHING,0.000,0.800,-0.001,0.029
23:27:41.350,SEARCHING,14.653,-8.724,0.897,0.00,0.00,-19.47,2.562,2.921,2.574,2.282,2.439,0,0,SEARCHING,0.000,0.800,-0.000,0.016
23:27:41.550,SEARCHING,14.803,-8.778,0.897,0.00,0.00,-19.36,2.482,2.933,2.561,2.268,2.439,0,0,SEARCHING,0.000,0.800,-0.000,-0.000
23:27:41.752,SEARCHING,14.954,-8.831,0.897,0.00,0.00,-19.40,2.396,2.718,2.558,2.187,2.435,0,0,SEARCHING,0.000,0.800,-0.017,-0.010
23:27:41.952,SEARCHING,15.075,-8.873,0.892,0.00,0.00,-19.54,2.357,3.119,2.531,2.065,2.404,0,0,SEARCHING,0.000,0.800,-0.057,-0.020
23:27:42.153,SEARCHING,15.196,-8.916,0.878,0.00,0.00,-19.75,2.306,3.165,2.642,1.954,2.365,0,0,SEARCHING,0.000,0.800,-0.088,-0.030
23:27:42.353,SEARCHING,15.316,-8.960,0.859,0.00,0.00,-20.13,2.274,3.127,3.132,1.858,2.314,0,0,SEARCHING,0.000,0.800,-0.111,-0.063
23:27:42.555,SEARCHING,15.436,-9.005,0.836,0.00,0.00,-20.88,2.226,3.078,3.304,1.720,2.260,0,0,SEARCHING,0.000,0.800,-0.141,-0.099
23:27:42.755,SEARCHING,15.555,-9.051,0.806,0.00,0.00,-21.88,2.199,3.017,3.356,1.617,2.193,0,0,SEARCHING,0.000,0.800,-0.175,-0.117
23:27:42.955,SEARCHING,15.674,-9.100,0.768,0.00,0.00,-22.99,2.184,2.918,3.300,1.494,2.116,0,0,SEARCHING,0.000,0.800,-0.215,-0.122
23:27:43.156,SEARCHING,15.791,-9.151,0.724,0.00,0.00,-24.11,2.148,2.798,3.201,1.437,1.973,0,0,SEARCHING,0.000,0.800,-0.228,-0.122
23:27:43.358,SEARCHING,15.907,-9.204,0.679,0.00,0.00,-25.24,2.077,2.708,3.114,1.497,1.885,0,0,SEARCHING,0.000,0.800,-0.198,-0.125
23:27:43.557,SEARCHING,16.023,-9.260,0.643,0.00,0.00,-26.40,2.021,2.566,2.963,1.606,1.783,0,0,SEARCHING,0.000,0.800,-0.131,-0.126
23:27:43.758,SEARCHING,16.137,-9.318,0.622,0.00,0.00,-27.54,1.982,2.409,2.837,1.662,1.716,0,0,SEARCHING,0.000,0.800,-0.039,-0.124
23:27:43.958,SEARCHING,16.250,-9.378,0.617,0.00,0.00,-28.67,1.935,2.299,2.787,1.680,1.700,0,0,SEARCHING,0.000,0.800,-0.009,-0.124
23:27:44.160,SEARCHING,16.389,-9.456,0.617,0.00,0.00,-30.10,1.900,2.140,2.677,1.689,1.687,0,0,SEARCHING,0.000,0.800,-0.002,-0.124
23:27:44.360,SEARCHING,16.527,-9.538,0.617,0.00,0.00,-31.51,1.858,2.003,2.556,1.676,1.685,0,0,SEARCHING,0.000,0.794,-0.001,-0.121
23:27:44.560,SEARCHING,16.657,-9.620,0.617,0.00,0.00,-32.87,1.814,1.848,2.421,1.691,1.689,0,0,SEARCHING,0.000,0.726,-0.000,-0.115
23:27:44.761,SEARCHING,16.774,-9.697,0.617,0.00,0.00,-34.17,1.691,1.688,2.312,1.660,1.664,0,0,SEARCHING,0.000,0.639,-0.000,-0.117
23:27:44.962,SEARCHING,16.873,-9.765,0.617,0.00,0.00,-35.60,1.533,1.559,2.190,1.554,1.553,0,0,SEARCHING,0.000,0.541,-0.000,-0.139
23:27:45.162,SEARCHING,16.956,-9.826,0.617,0.00,0.00,-37.30,1.417,1.517,1.799,1.534,1.531,0,0,SEARCHING,0.000,0.478,-0.000,-0.147
23:27:45.362,SEARCHING,17.029,-9.884,0.617,0.00,0.00,-38.95,1.325,1.598,1.909,1.612,1.594,0,0,SEARCHING,0.000,0.461,-0.000,-0.158
23:27:45.563,SEARCHING,17.102,-9.945,0.617,0.00,0.00,-40.98,1.218,1.758,1.953,1.670,1.665,0,0,SEARCHING,0.000,0.508,-0.000,-0.213
23:27:45.763,SEARCHING,17.183,-10.018,0.617,0.00,0.00,-43.65,1.080,2.013,1.880,1.659,1.686,0,0,SEARCHING,0.000,0.614,-0.000,-0.272
23:27:45.964,SEARCHING,17.272,-10.107,0.617,0.00,0.00,-47.01,0.983,1.974,1.807,1.658,1.674,0,0,SEARCHING,0.000,0.639,-0.000,-0.330
23:27:46.165,SEARCHING,17.354,-10.201,0.617,0.00,0.00,-50.89,1.080,1.797,1.708,1.650,1.674,0,0,SEARCHING,0.000,0.590,-0.000,-0.319
23:27:46.365,SEARCHING,17.423,-10.291,0.617,0.00,0.00,-54.07,1.404,1.606,1.597,1.579,1.591,0,0,SEARCHING,0.000,0.525,-0.000,-0.181
23:27:46.566,SEARCHING,17.482,-10.374,0.617,0.00,0.00,-55.53,1.635,1.496,1.512,1.492,1.492,0,0,SEARCHING,0.000,0.482,-0.000,-0.042
23:27:46.767,SEARCHING,17.535,-10.451,0.617,0.00,0.00,-55.62,1.807,1.418,1.434,1.419,1.414,0,0,SEARCHING,0.000,0.437,-0.000,0.050
23:27:46.967,SEARCHING,17.582,-10.520,0.617,0.00,0.00,-54.67,1.856,1.323,1.332,1.323,1.321,0,0,SEARCHING,0.000,0.382,-0.000,0.130
23:27:47.167,SEARCHING,17.625,-10.579,0.617,0.00,0.00,-52.98,1.765,1.249,1.241,1.250,1.245,0,0,SEARCHING,0.000,0.339,-0.000,0.171
23:27:47.368,SEARCHING,17.665,-10.630,0.617,0.00,0.00,-50.95,1.570,1.218,1.163,1.212,1.218,0,0,SEARCHING,0.000,0.307,-0.000,0.180
23:27:47.569,SEARCHING,17.704,-10.676,0.617,0.00,0.00,-48.89,1.441,1.189,1.090,1.193,1.183,0,0,SEARCHING,0.000,0.285,-0.000,0.180
23:27:47.769,SEARCHING,17.741,-10.718,0.617,0.00,0.00,-46.86,1.267,1.174,1.008,1.177,1.192,0,0,SEARCHING,0.000,0.268,-0.000,0.170
23:27:47.970,SEARCHING,17.778,-10.756,0.617,0.00,0.00,-44.93,1.208,1.175,0.952,1.172,1.188,0,0,SEARCHING,0.000,0.260,-0.000,0.170
23:27:48.171,SEARCHING,17.815,-10.791,0.617,0.00,0.00,-42.91,1.134,1.753,0.876,2.171,1.157,0,0,SEARCHING,0.000,0.327,0.145,0.191
23:27:48.371,SEARCHING,17.872,-10.843,0.661,0.00,0.00,-41.09,1.067,2.684,0.850,2.713,1.713,0,0,SEARCHING,0.000,0.655,0.297,0.199
23:27:48.572,SEARCHING,17.961,-10.918,0.717,0.00,0.00,-39.30,1.006,2.519,0.813,2.515,1.886,0,0,SEARCHING,0.000,0.765,0.217,0.191
23:27:48.772,SEARCHING,18.059,-10.996,0.755,0.00,0.00,-37.56,0.915,2.019,0.752,2.005,1.940,0,0,SEARCHING,0.000,0.739,0.103,0.190
23:27:48.973,SEARCHING,18.144,-11.060,0.770,0.00,0.00,-35.83,0.852,1.820,0.716,1.817,1.820,0,0,SEARCHING,0.000,0.592,0.025,0.185
23:27:49.174,SEARCHING,18.214,-11.109,0.773,0.00,0.00,-34.16,0.779,1.599,2.968,1.582,1.591,0,0,SEARCHING,0.000,0.476,0.006,-0.100
23:27:49.374,SEARCHING,18.287,-11.161,0.773,0.00,0.00,-38.24,0.778,1.576,4.139,1.579,1.576,0,0,SEARCHING,0.000,0.417,0.001,-0.645
23:27:49.575,SEARCHING,18.356,-11.223,0.773,0.00,0.00,-46.31,0.970,2.489,2.872,2.496,2.057,0,0,SEARCHING,0.000,0.613,0.031,-0.683
23:27:49.775,SEARCHING,18.430,-11.307,0.784,0.00,0.00,-51.32,1.263,3.108,0.701,3.131,2.138,0,0,SEARCHING,0.000,0.755,0.117,-0.164
23:27:49.976,SEARCHING,18.507,-11.404,0.811,0.00,0.00,-51.87,1.435,3.346,4.838,3.361,2.185,0,0,SEARCHING,0.000,0.789,0.173,-0.227
23:27:50.176,SEARCHING,18.584,-11.506,0.847,0.00,0.00,-54.44,1.618,3.657,3.222,3.656,2.269,0,0,SEARCHING,0.000,0.797,0.193,-0.272
23:27:50.377,SEARCHING,18.656,-11.611,0.887,0.00,0.00,-56.68,1.952,4.301,2.800,4.310,2.387,0,0,SEARCHING,0.000,0.799,0.211,-0.194
23:27:50.578,SEARCHING,18.725,-11.719,0.930,0.00,0.00,-58.12,1.990,4.775,2.646,4.744,2.480,0,0,SEARCHING,0.000,0.800,0.223,-0.128
23:27:50.778,SEARCHING,18.792,-11.828,0.975,0.00,0.00,-59.15,2.006,5.312,2.503,5.315,2.602,0,0,SEARCHING,0.000,0.800,0.232,-0.097
23:27:50.982,SEARCHING,18.857,-11.938,1.021,0.00,0.00,-59.94,2.057,5.779,2.425,5.672,2.696,0,0,SEARCHING,0.000,0.800,0.233,-0.074
23:27:51.180,SEARCHING,18.920,-12.050,1.068,0.00,0.00,-60.54,2.109,6.168,2.379,5.824,2.825,0,0,SEARCHING,0.000,0.800,0.227,-0.056
23:27:51.380,SEARCHING,18.983,-12.161,1.112,0.00,0.00,-60.98,2.157,7.009,2.321,5.841,2.965,0,0,SEARCHING,0.000,0.800,0.211,-0.039
23:27:51.581,SEARCHING,19.045,-12.273,1.154,0.00,0.00,-61.27,2.163,7.246,2.234,5.774,3.067,0,0,SEARCHING,0.000,0.800,0.194,-0.023
23:27:51.782,SEARCHING,19.106,-12.386,1.191,0.00,0.00,-61.39,2.218,7.158,2.161,5.689,3.188,0,0,SEARCHING,0.000,0.800,0.177,-0.002
23:27:51.983,SEARCHING,19.168,-12.498,1.226,0.00,0.00,-61.36,2.192,7.152,2.064,5.599,3.240,0,0,SEARCHING,0.000,0.800,0.164,0.011
23:27:52.182,SEARCHING,19.229,-12.610,1.258,0.00,0.00,-61.16,2.190,7.128,2.023,5.465,3.351,0,0,SEARCHING,0.000,0.800,0.149,0.030
23:27:52.383,SEARCHING,19.291,-12.722,1.287,0.00,0.00,-60.89,2.197,7.034,2.391,5.380,3.363,0,0,SEARCHING,0.000,0.800,0.138,0.011
23:27:52.588,SEARCHING,19.353,-12.834,1.314,0.00,0.00,-61.01,2.189,6.946,2.691,5.303,3.474,0,0,SEARCHING,0.000,0.800,0.128,-0.039
23:27:52.787,SEARCHING,19.415,-12.946,1.339,0.00,0.00,-61.50,2.215,6.875,2.690,5.293,3.553,0,0,SEARCHING,0.000,0.800,0.117,-0.061
23:27:52.988,SEARCHING,19.475,-13.059,1.362,0.00,0.00,-62.06,2.272,6.684,2.632,5.212,3.609,0,0,SEARCHING,0.000,0.800,0.109,-0.056
23:27:53.188,SEARCHING,19.535,-13.172,1.384,0.00,0.00,-62.52,2.308,6.538,2.574,5.202,3.675,0,0,SEARCHING,0.000,0.800,0.101,-0.044
23:27:53.389,SEARCHING,19.594,-13.286,1.403,0.00,0.00,-62.88,2.388,6.416,2.568,5.160,3.742,0,0,SEARCHING,0.000,0.800,0.093,-0.033
23:27:53.589,SEARCHING,19.652,-13.400,1.422,0.00,0.00,-63.12,2.506,6.233,2.593,5.100,3.791,0,0,SEARCHING,0.000,0.800,0.087,-0.019
23:27:53.790,SEARCHING,19.710,-13.514,1.438,0.00,0.00,-63.26,2.519,6.069,2.663,5.027,3.859,0,0,SEARCHING,0.000,0.800,0.077,-0.016
23:27:53.991,SEARCHING,19.767,-13.629,1.453,0.00,0.00,-63.42,2.540,5.993,2.679,5.023,3.873,0,0,SEARCHING,0.000,0.800,0.072,-0.016
23:27:54.191,SEARCHING,19.824,-13.743,1.468,0.00,0.00,-63.56,2.586,5.888,2.679,4.983,3.723,0,0,SEARCHING,0.000,0.800,0.074,-0.014
23:27:54.392,SEARCHING,19.881,-13.858,1.483,0.00,0.00,-63.67,2.599,5.814,2.665,4.943,3.941,0,0,SEARCHING,0.000,0.800,0.069,-0.010
23:27:54.592,SEARCHING,19.938,-13.973,1.496,0.00,0.00,-63.74,2.607,5.533,2.645,4.939,3.927,0,0,SEARCHING,0.000,0.800,0.064,-0.007
23:27:54.792,SEARCHING,19.994,-14.087,1.509,0.00,0.00,-63.79,2.639,5.559,2.622,4.938,4.024,0,0,SEARCHING,0.000,0.800,0.060,-0.003
23:27:54.993,SEARCHING,20.051,-14.202,1.520,0.00,0.00,-63.80,2.614,5.408,2.621,4.880,4.026,0,0,SEARCHING,0.000,0.800,0.054,-0.000
23:27:55.194,SEARCHING,20.107,-14.317,1.529,0.00,0.00,-63.80,2.647,5.322,2.594,4.917,4.105,0,0,SEARCHING,0.000,0.800,0.018,0.002
23:27:55.395,SEARCHING,20.171,-14.446,1.531,0.00,0.00,-63.77,2.645,5.217,2.595,4.874,4.147,0,0,SEARCHING,0.000,0.800,0.004,0.004
23:27:55.596,SEARCHING,20.242,-14.590,1.531,0.00,0.00,-63.70,2.701,5.091,2.586,4.869,4.006,0,0,SEARCHING,0.000,0.800,0.017,0.009
23:27:55.796,SEARCHING,20.299,-14.705,1.537,0.00,0.00,-63.60,2.673,4.966,2.585,4.869,3.893,0,0,SEARCHING,0.000,0.800,0.057,0.011
23:27:55.996,SEARCHING,20.356,-14.819,1.549,0.00,0.00,-63.50,2.684,4.896,2.592,4.786,4.026,0,0,SEARCHING,0.000,0.800,0.044,0.011
23:27:56.196,SEARCHING,20.413,-14.934,1.557,0.00,0.00,-63.41,2.697,4.796,2.582,4.770,4.061,0,0,SEARCHING,0.000,0.800,0.032,0.011
23:27:56.397,SEARCHING,20.470,-15.048,1.562,0.00,0.00,-63.29,2.668,4.720,2.584,4.693,4.167,0,0,SEARCHING,0.000,0.800,0.008,0.013
23:27:56.597,SEARCHING,20.542,-15.191,1.562,0.00,0.00,-63.14,2.690,4.676,2.574,4.590,4.187,0,0,SEARCHING,0.000,0.800,0.002,0.013
23:27:56.799,SEARCHING,20.615,-15.334,1.562,0.00,0.00,-62.99,2.681,4.561,2.592,4.479,4.159,0,0,SEARCHING,0.000,0.800,0.000,0.013
23:27:56.999,SEARCHING,20.688,-15.476,1.562,0.00,0.00,-62.85,2.683,4.442,2.613,4.416,4.207,0,0,SEARCHING,0.000,0.800,0.000,0.010
23:27:57.199,SEARCHING,20.761,-15.618,1.562,0.00,0.00,-62.75,2.665,4.330,2.607,4.292,4.215,0,0,SEARCHING,0.000,0.800,0.000,0.006
23:27:57.400,SEARCHING,20.834,-15.761,1.562,0.00,0.00,-62.68,2.608,4.205,2.562,4.195,4.032,0,0,SEARCHING,0.000,0.800,0.000,0.006
23:27:57.600,SEARCHING,20.908,-15.903,1.562,0.00,0.00,-62.61,2.599,4.093,2.534,4.086,3.999,0,0,SEARCHING,0.000,0.800,0.000,0.006
23:27:57.801,SEARCHING,20.981,-16.045,1.562,0.00,0.00,-62.49,2.969,3.927,2.499,3.947,3.905,0,0,SEARCHING,0.000,0.800,0.000,0.027
23:27:58.002,SEARCHING,21.056,-16.186,1.562,0.00,0.00,-61.85,5.022,3.826,2.471,3.829,3.792,0,0,SEARCHING,0.000,0.800,0.000,0.114
23:27:58.202,SEARCHING,21.133,-16.327,1.562,0.00,0.00,-60.32,5.179,3.831,2.504,3.845,3.834,0,0,SEARCHING,0.000,0.800,0.000,0.154
23:27:58.403,SEARCHING,21.214,-16.464,1.562,0.00,0.00,-58.69,3.235,3.938,2.592,3.924,3.884,0,0,SEARCHING,0.000,0.800,0.000,0.103
23:27:58.605,SEARCHING,21.298,-16.600,1.562,0.00,0.00,-57.72,2.994,3.965,2.667,3.992,3.929,0,0,SEARCHING,0.000,0.800,0.000,0.057
23:27:58.804,SEARCHING,21.384,-16.735,1.562,0.00,0.00,-57.18,4.152,3.913,2.634,3.974,3.944,0,0,SEARCHING,0.000,0.800,0.000,0.061
23:27:59.004,SEARCHING,21.472,-16.869,1.562,0.00,0.00,-56.22,4.580,3.873,2.473,3.935,3.937,0,0,SEARCHING,0.000,0.800,0.000,0.117
23:27:59.205,SEARCHING,21.562,-17.001,1.562,0.00,0.00,-54.74,4.564,3.926,2.394,3.932,3.932,0,0,SEARCHING,0.000,0.800,0.000,0.146
23:27:59.407,SEARCHING,21.656,-17.131,1.562,0.00,0.00,-53.13,2.844,3.986,2.414,3.978,3.944,0,0,SEARCHING,0.000,0.800,0.000,0.105
23:27:59.608,SEARCHING,21.753,-17.258,1.562,0.00,0.00,-52.23,2.475,3.954,2.418,3.971,3.982,0,0,SEARCHING,0.000,0.800,0.000,0.039
23:27:59.807,SEARCHING,21.852,-17.384,1.562,0.00,0.00,-51.92,3.414,3.864,2.397,3.888,3.906,0,0,SEARCHING,0.000,0.800,0.000,0.042
23:28:00.007,SEARCHING,21.951,-17.509,1.562,0.00,0.00,-51.12,4.119,3.810,2.367,3.826,3.826,0,0,SEARCHING,0.000,0.800,0.000,0.111
23:28:00.208,SEARCHING,22.053,-17.633,1.562,0.00,0.00,-49.71,4.106,3.780,2.351,3.776,3.801,0,0,SEARCHING,0.000,0.800,0.000,0.136
23:28:00.409,SEARCHING,22.158,-17.754,1.562,0.00,0.00,-48.12,4.349,3.687,2.412,3.645,3.808,0,0,SEARCHING,0.000,0.800,0.000,0.142
23:28:00.609,SEARCHING,22.266,-17.871,1.562,0.00,0.00,-46.42,5.507,3.543,2.432,3.526,3.878,0,0,SEARCHING,0.000,0.800,0.000,0.165
23:28:00.811,SEARCHING,22.378,-17.986,1.562,0.00,0.00,-44.43,6.294,3.411,2.499,3.373,3.973,0,0,SEARCHING,0.000,0.800,-0.016,0.185
23:28:01.011,SEARCHING,22.471,-18.074,1.556,0.00,0.00,-42.70,5.414,3.263,2.541,3.232,4.066,0,0,SEARCHING,0.000,0.800,-0.056,0.184
23:28:01.211,SEARCHING,22.566,-18.160,1.544,0.00,0.00,-41.13,3.328,3.140,2.559,3.114,4.045,0,0,SEARCHING,0.000,0.800,-0.077,0.136
23:28:01.411,SEARCHING,22.663,-18.243,1.527,0.00,0.00,-40.29,2.481,2.976,2.594,2.951,4.069,0,0,SEARCHING,0.000,0.800,-0.096,0.042
23:28:01.612,SEARCHING,22.761,-18.326,1.507,0.00,0.00,-40.16,4.717,2.852,2.560,2.827,3.964,0,0,SEARCHING,0.000,0.800,-0.109,0.045
23:28:01.813,SEARCHING,22.859,-18.408,1.485,0.00,0.00,-39.22,6.673,2.732,2.539,2.714,3.891,0,0,SEARCHING,0.000,0.800,-0.124,0.150
23:28:02.014,SEARCHING,22.959,-18.487,1.459,0.00,0.00,-37.64,6.925,2.604,2.539,2.477,3.899,0,0,SEARCHING,0.000,0.800,-0.147,0.187
23:28:02.213,SEARCHING,23.061,-18.564,1.428,0.00,0.00,-35.88,6.906,2.443,2.455,2.410,3.844,0,0,SEARCHING,0.000,0.800,-0.180,0.199
23:28:02.415,SEARCHING,23.166,-18.638,1.391,0.00,0.00,-34.07,2.825,2.334,2.319,2.331,3.777,0,0,SEARCHING,0.000,0.800,-0.190,0.153
23:28:02.615,SEARCHING,23.273,-18.709,1.352,0.00,0.00,-33.17,2.102,2.263,2.502,2.209,3.452,0,0,SEARCHING,0.000,0.800,-0.199,0.031
23:28:02.815,SEARCHING,23.380,-18.779,1.312,0.00,0.00,-33.01,5.047,3.764,2.719,2.136,3.597,0,0,SEARCHING,0.000,0.800,-0.214,0.063
23:28:03.016,SEARCHING,23.488,-18.848,1.268,0.00,0.00,-32.08,5.665,3.953,2.700,2.014,3.511,0,0,SEARCHING,0.000,0.800,-0.237,0.129
23:28:03.217,SEARCHING,23.597,-18.915,1.219,0.00,0.00,-30.78,5.189,4.050,2.655,1.958,3.419,0,0,SEARCHING,0.000,0.800,-0.262,0.146
23:28:03.417,SEARCHING,23.708,-18.979,1.175,0.00,0.00,-29.46,4.968,4.125,2.681,3.699,3.293,0,0,SEARCHING,0.000,0.800,-0.090,0.142
23:28:03.617,SEARCHING,23.820,-19.041,1.165,0.00,0.00,-28.21,4.263,4.225,2.647,4.190,3.350,0,0,SEARCHING,0.000,0.800,0.024,0.126
23:28:03.819,SEARCHING,23.933,-19.100,1.172,0.00,0.00,-27.12,3.335,4.361,2.618,4.327,3.612,0,0,SEARCHING,0.000,0.800,0.059,0.101
23:28:04.019,SEARCHING,24.047,-19.158,1.185,0.00,0.00,-26.30,3.760,4.385,2.628,4.387,3.238,0,0,SEARCHING,0.000,0.800,0.079,0.090
23:28:04.220,SEARCHING,24.162,-19.214,1.202,0.00,0.00,-25.48,3.707,4.524,2.606,4.501,3.253,0,0,SEARCHING,0.000,0.800,0.097,0.090
23:28:04.420,SEARCHING,24.278,-19.268,1.221,0.00,0.00,-24.65,3.624,4.598,2.592,4.601,3.572,0,0,SEARCHING,0.000,0.800,0.082,0.089
23:28:04.621,SEARCHING,24.395,-19.321,1.237,0.00,0.00,-23.85,3.553,4.579,2.633,4.634,3.564,0,0,SEARCHING,0.000,0.800,0.085,0.084
23:28:04.821,SEARCHING,24.512,-19.372,1.254,0.00,0.00,-23.10,3.438,4.638,2.576,4.661,3.781,0,0,SEARCHING,0.000,0.800,0.080,0.079
23:28:05.022,SEARCHING,24.630,-19.422,1.270,0.00,0.00,-22.39,3.364,4.671,2.576,4.669,3.570,0,0,SEARCHING,0.000,0.800,0.078,0.077
23:28:05.222,SEARCHING,24.749,-19.470,1.286,0.00,0.00,-21.70,3.283,4.677,2.539,4.672,3.647,0,0,SEARCHING,0.000,0.800,0.080,0.073
23:28:05.423,SEARCHING,24.868,-19.517,1.302,0.00,0.00,-21.05,3.241,4.742,2.554,4.734,3.661,0,0,SEARCHING,0.000,0.800,0.080,0.069
23:28:05.624,SEARCHING,24.988,-19.562,1.317,0.00,0.00,-20.43,3.163,4.744,2.529,4.756,3.960,0,0,SEARCHING,0.000,0.800,0.068,0.066
23:28:05.824,SEARCHING,25.108,-19.606,1.330,0.00,0.00,-19.85,3.068,4.772,2.521,4.717,3.621,0,0,SEARCHING,0.000,0.800,0.065,0.060
23:28:06.024,SEARCHING,25.228,-19.649,1.342,0.00,0.00,-19.32,3.006,4.771,2.530,4.777,3.887,0,0,SEARCHING,0.000,0.800,0.041,0.055
23:28:06.225,SEARCHING,25.349,-19.691,1.350,0.00,0.00,-18.83,2.999,4.768,2.511,4.794,4.020,0,0,SEARCHING,0.000,0.800,0.035,0.052
23:28:06.425,SEARCHING,25.471,-19.732,1.356,0.00,0.00,-18.35,2.945,4.755,2.510,4.769,3.819,0,0,SEARCHING,0.000,0.800,0.027,0.051
23:28:06.626,SEARCHING,25.592,-19.772,1.361,0.00,0.00,-17.91,2.922,4.715,2.558,4.721,3.933,0,0,SEARCHING,0.000,0.800,0.028,0.045
23:28:06.827,SEARCHING,25.714,-19.811,1.366,0.00,0.00,-17.55,2.886,4.645,2.804,4.646,4.005,0,0,SEARCHING,0.000,0.800,0.012,0.026
23:28:07.028,SEARCHING,25.836,-19.849,1.370,0.00,0.00,-17.40,2.836,4.561,2.804,4.561,4.055,0,0,SEARCHING,0.000,0.800,0.023,0.010
23:28:07.228,SEARCHING,25.958,-19.887,1.375,0.00,0.00,-17.32,2.866,4.467,2.696,4.449,3.783,0,0,SEARCHING,0.000,0.800,0.027,0.012
23:28:07.429,SEARCHING,26.081,-19.925,1.379,0.00,0.00,-17.18,2.829,4.357,2.597,4.402,3.704,0,0,SEARCHING,0.000,0.800,0.022,0.019
23:28:07.629,SEARCHING,26.203,-19.963,1.383,0.00,0.00,-16.97,2.843,4.242,2.570,4.240,3.780,0,0,SEARCHING,0.000,0.800,0.011,0.025
23:28:07.830,SEARCHING,26.341,-20.005,1.384,0.00,0.00,-16.68,2.878,4.113,2.536,4.115,3.853,0,0,SEARCHING,0.000,0.800,0.003,0.032
23:28:08.030,SEARCHING,26.494,-20.050,1.384,0.00,0.00,-16.29,2.932,3.984,2.505,3.953,3.647,0,0,SEARCHING,0.000,0.800,0.001,0.039
23:28:08.231,SEARCHING,26.648,-20.094,1.384,0.00,0.00,-15.79,3.121,3.868,2.453,3.869,3.733,0,0,SEARCHING,0.000,0.800,0.000,0.055
23:28:08.432,SEARCHING,26.802,-20.137,1.384,0.00,0.00,-15.07,3.303,3.807,2.447,3.807,3.649,0,0,SEARCHING,0.000,0.800,0.000,0.074
23:28:08.632,SEARCHING,26.957,-20.178,1.384,0.00,0.00,-14.17,3.316,3.742,2.452,3.742,3.709,0,0,SEARCHING,0.000,0.800,0.000,0.083
23:28:08.833,SEARCHING,27.112,-20.216,1.384,0.00,0.00,-13.22,3.232,3.695,2.481,3.698,3.679,0,0,SEARCHING,0.000,0.800,0.000,0.080
23:28:09.034,SEARCHING,27.268,-20.251,1.384,0.00,0.00,-12.33,3.110,3.614,2.479,3.647,3.613,0,0,SEARCHING,0.000,0.800,0.000,0.072
23:28:09.235,SEARCHING,27.425,-20.284,1.384,0.00,0.00,-11.54,3.027,3.522,2.481,3.526,3.522,0,0,SEARCHING,0.000,0.800,0.000,0.063
23:28:09.434,SEARCHING,27.582,-20.316,1.384,0.00,0.00,-10.86,2.930,3.383,2.517,3.383,3.397,0,0,SEARCHING,0.000,0.800,0.000,0.053
23:28:09.635,SEARCHING,27.739,-20.345,1.384,0.00,0.00,-10.29,2.824,3.201,2.487,3.214,3.229,0,0,SEARCHING,0.000,0.800,0.000,0.044
23:28:09.836,SEARCHING,27.897,-20.373,1.384,0.00,0.00,-9.81,2.730,3.067,2.385,3.085,3.085,0,0,SEARCHING,0.000,0.800,0.000,0.042
23:28:10.037,SEARCHING,28.054,-20.400,1.384,0.00,0.00,-9.31,2.598,2.926,2.231,2.943,2.939,0,0,SEARCHING,0.000,0.800,0.000,0.046
23:28:10.237,SEARCHING,28.212,-20.425,1.384,0.00,0.00,-8.76,2.445,2.769,2.153,2.780,2.777,0,0,SEARCHING,0.000,0.800,0.000,0.049
23:28:10.438,SEARCHING,28.371,-20.448,1.384,0.00,0.00,-8.23,2.318,2.609,2.105,2.610,2.604,0,0,SEARCHING,0.000,0.800,0.000,0.041
23:28:10.638,SEARCHING,28.529,-20.471,1.384,0.00,0.00,-7.79,2.194,2.466,2.041,2.464,2.467,0,0,SEARCHING,0.000,0.800,0.000,0.034
23:28:10.841,SEARCHING,28.688,-20.492,1.384,0.00,0.00,-7.44,2.058,2.320,1.977,2.320,2.321,0,0,SEARCHING,0.000,0.800,0.000,0.023
23:28:11.041,SEARCHING,28.846,-20.512,1.384,0.00,0.00,-7.22,1.960,2.192,1.942,2.195,2.188,0,0,SEARCHING,0.000,0.800,0.000,0.012
23:28:12.305,SEARCHING,29.005,-20.532,1.384,0.00,0.00,-7.12,1.912,2.139,1.924,2.141,2.137,0,0,SEARCHING,0.000,0.800,0.000,0.002
23:28:12.355,SEARCHING,29.164,-20.552,1.384,0.00,0.00,-7.12,1.819,2.034,1.876,2.035,2.034,0,0,SEARCHING,0.000,0.798,0.000,-0.006
23:28:12.529,SEARCHING,29.316,-20.571,1.384,0.00,0.00,-7.28,1.563,1.751,1.746,1.754,1.751,0,0,SEARCHING,0.000,0.682,0.000,-0.034
23:28:12.725,SEARCHING,29.442,-20.588,1.384,0.00,0.00,-7.78,1.437,1.614,1.649,1.611,1.613,0,0,SEARCHING,0.000,0.566,0.000,-0.058
23:28:12.925,SEARCHING,29.548,-20.603,1.384,0.00,0.00,-8.53,1.337,1.507,1.581,1.505,1.507,0,0,SEARCHING,0.000,0.484,0.000,-0.079
23:28:13.126,SEARCHING,29.639,-20.617,1.384,0.00,0.00,-9.51,1.255,1.421,1.528,1.420,1.418,0,0,SEARCHING,0.000,0.422,0.000,-0.100
23:28:13.328,SEARCHING,29.719,-20.631,1.384,0.00,0.00,-10.74,1.182,1.345,1.470,1.345,1.345,0,0,SEARCHING,0.000,0.374,0.000,-0.120
23:28:13.529,SEARCHING,29.789,-20.645,1.384,0.00,0.00,-12.18,1.118,1.284,1.403,1.286,1.285,0,0,SEARCHING,0.000,0.336,0.000,-0.136
23:28:13.727,SEARCHING,29.852,-20.660,1.384,0.00,0.00,-13.78,1.064,1.228,1.335,1.230,1.230,0,0,SEARCHING,0.000,0.305,0.000,-0.146
23:28:13.927,SEARCHING,29.910,-20.675,1.384,0.00,0.00,-15.49,1.017,1.188,1.272,1.187,1.187,0,0,SEARCHING,0.000,0.281,0.000,-0.154
23:28:14.128,SEARCHING,29.962,-20.690,1.384,0.00,0.00,-17.28,0.973,1.148,1.213,1.147,1.150,0,0,SEARCHING,0.000,0.261,0.000,-0.159
23:28:14.329,SEARCHING,30.011,-20.706,1.384,0.00,0.00,-19.12,0.937,1.115,1.163,1.116,1.114,0,0,SEARCHING,0.000,0.253,0.000,-0.163
23:28:14.530,SEARCHING,30.058,-20.723,1.384,0.00,0.00,-21.00,0.904,1.084,1.111,1.084,1.084,0,0,SEARCHING,0.000,0.251,0.000,-0.165
23:28:14.730,SEARCHING,30.105,-20.742,1.384,0.00,0.00,-22.88,0.870,1.056,1.061,1.059,1.057,0,0,SEARCHING,0.000,0.250,0.000,-0.165
23:28:14.930,SEARCHING,30.151,-20.762,1.384,0.00,0.00,-24.77,0.840,1.032,1.014,1.032,1.031,0,0,SEARCHING,0.000,0.250,0.000,-0.164
23:28:15.131,SEARCHING,30.196,-20.784,1.384,0.00,0.00,-26.64,0.813,1.011,0.962,1.009,1.011,0,0,SEARCHING,0.000,0.250,0.000,-0.159
23:28:15.333,SEARCHING,30.240,-20.807,1.384,0.00,0.00,-28.43,0.785,0.988,0.916,0.985,0.988,0,0,SEARCHING,0.000,0.250,0.000,-0.151
23:28:15.533,SEARCHING,30.284,-20.831,1.384,0.00,0.00,-30.13,0.758,0.966,0.871,0.965,0.963,0,0,SEARCHING,0.000,0.250,0.000,-0.143
23:28:15.735,SEARCHING,30.327,-20.857,1.384,0.00,0.00,-31.73,0.733,0.942,0.827,0.940,0.939,0,0,SEARCHING,0.000,0.250,0.000,-0.132
23:28:15.935,SEARCHING,30.369,-20.884,1.384,0.00,0.00,-33.19,0.707,0.915,0.783,0.920,0.916,0,0,SEARCHING,0.000,0.250,0.000,-0.119
23:28:16.136,SEARCHING,30.410,-20.911,1.384,0.00,0.00,-34.50,0.681,0.892,0.742,0.893,0.895,0,0,SEARCHING,0.000,0.250,0.000,-0.105
23:28:16.336,SEARCHING,30.451,-20.940,1.384,0.00,0.00,-35.64,0.659,0.867,0.701,0.867,0.867,0,0,SEARCHING,0.000,0.250,0.000,-0.088
23:28:16.537,SEARCHING,30.492,-20.970,1.384,0.00,0.00,-36.57,0.634,0.824,0.662,0.826,0.825,0,0,SEARCHING,0.000,0.250,0.000,-0.068
23:28:16.736,INSPECTING,30.515,-20.987,1.387,0.00,0.00,-37.00,0.608,0.778,0.627,0.780,0.781,0,0,INSPECT_TOP,0.000,0.166,0.204,-0.029
23:28:16.937,INSPECTING,30.535,-21.002,1.436,0.00,0.00,-37.13,0.596,0.757,0.613,0.759,0.760,0,0,INSPECT_TOP,0.000,0.157,0.353,-0.007
23:28:17.138,INSPECTING,30.555,-21.017,1.510,0.00,0.00,-37.17,0.583,0.733,0.595,0.736,0.734,0,0,INSPECT_TOP,0.000,0.151,0.389,-0.002
23:28:17.339,INSPECTING,30.574,-21.031,1.588,0.00,0.00,-37.18,0.569,0.713,0.577,0.714,0.711,0,0,INSPECT_TOP,0.000,0.146,0.397,-0.000
23:28:17.540,INSPECTING,30.592,-21.045,1.668,0.00,0.00,-37.18,0.555,0.693,0.560,0.694,0.690,0,0,INSPECT_TOP,0.000,0.142,0.399,-0.000
23:28:17.740,INSPECTING,30.610,-21.059,1.748,0.00,0.00,-37.18,0.541,0.673,0.545,0.674,0.672,0,0,INSPECT_TOP,0.000,0.138,0.400,-0.000
23:28:17.941,INSPECTING,30.627,-21.072,1.828,0.00,0.00,-37.18,0.525,0.653,0.528,0.656,0.653,0,0,INSPECT_TOP,0.000,0.134,0.400,-0.000
23:28:18.142,INSPECTING,30.644,-21.085,1.908,0.00,0.00,-37.18,0.512,0.634,0.514,0.637,0.634,0,0,INSPECT_TOP,0.000,0.130,0.400,-0.000
23:28:18.342,INSPECTING,30.660,-21.097,1.988,0.00,0.00,-37.18,0.499,0.617,0.498,0.618,0.616,0,0,INSPECT_TOP,0.000,0.126,0.400,-0.000
23:28:18.543,INSPECTING,30.676,-21.109,2.068,0.00,0.00,-37.18,0.486,0.601,0.484,0.598,0.598,0,0,INSPECT_TOP,0.000,0.122,0.400,-0.000
23:28:18.744,INSPECTING,30.692,-21.121,2.148,0.00,0.00,-37.18,0.475,0.582,0.470,0.580,0.581,0,0,INSPECT_TOP,0.000,0.119,0.400,-0.000
23:28:18.944,INSPECTING,30.706,-21.132,2.228,0.00,0.00,-37.18,0.462,0.563,0.456,0.563,0.565,0,0,INSPECT_TOP,0.000,0.115,0.400,-0.000
23:28:19.144,INSPECTING,30.721,-21.143,2.308,0.00,0.00,-37.18,0.454,0.545,0.442,0.547,0.547,0,0,INSPECT_TOP,0.000,0.112,0.400,-0.000
23:28:19.345,INSPECTING,30.735,-21.154,2.388,0.00,0.00,-37.18,0.441,0.532,0.430,0.532,0.529,0,0,INSPECT_TOP,0.000,0.109,0.400,-0.000
23:28:19.546,INSPECTING,30.749,-21.164,2.468,0.00,0.00,-37.18,0.431,0.518,0.417,0.517,0.515,0,0,INSPECT_TOP,0.000,0.106,0.400,-0.000
23:28:19.748,INSPECTING,30.762,-21.174,2.548,0.00,0.00,-37.18,0.420,0.504,0.405,0.502,0.502,0,0,INSPECT_TOP,0.000,0.102,0.400,-0.000
23:28:19.948,TURNING,30.770,-21.180,2.619,0.00,0.00,-37.66,0.411,0.490,0.395,0.489,0.489,0,0,TURNING,0.000,0.075,0.196,-0.714
23:28:20.231,TURNING,30.778,-21.187,2.644,0.00,0.00,-47.88,0.423,0.459,0.379,0.459,0.459,1,0,TURNING,0.000,0.056,0.047,-1.235
23:28:20.382,TURNING,30.779,-21.189,2.650,0.00,0.00,-50.96,0.462,0.421,0.362,0.421,0.421,1,0,TURNING,0.000,0.051,0.011,-1.360
23:28:20.633,TURNING,30.784,-21.197,2.651,0.00,0.00,-65.98,0.447,0.396,0.353,0.396,0.396,1,0,TURNING,0.000,0.050,0.003,-1.391
23:28:20.783,TURNING,30.787,-21.204,2.651,0.00,0.00,-77.93,0.385,0.369,0.356,0.369,0.369,1,0,TURNING,0.000,0.050,0.001,-1.398
23:28:21.039,TURNING,30.787,-21.216,2.651,0.00,0.00,-97.96,0.334,0.350,0.370,0.350,0.350,1,0,TURNING,0.000,0.050,0.000,-1.399
23:28:21.185,TURNING,30.786,-21.224,2.651,0.00,0.00,-109.99,0.315,0.350,0.396,0.350,0.350,1,0,TURNING,0.000,0.050,0.000,-1.400
23:28:21.350,TURNING,30.781,-21.233,2.651,0.00,0.00,-126.03,0.320,0.403,0.548,0.403,0.404,0,0,TURNING,0.000,0.050,0.000,-1.400
23:28:21.552,TURNING,30.774,-21.240,2.651,0.00,0.00,-142.07,0.369,0.526,1.074,0.525,0.529,0,0,TURNING,0.000,0.050,0.000,-1.400
23:28:21.752,TURNING,30.766,-21.245,2.651,0.00,0.00,-158.12,0.486,1.020,1.928,1.026,1.022,0,0,TURNING,0.000,0.050,0.000,-1.400
23:28:21.954,TURNING,30.756,-21.247,2.651,0.00,0.00,-174.16,0.926,1.754,3.878,1.738,1.738,0,0,TURNING,0.000,0.050,0.000,-1.400
23:28:22.155,TURNING,30.746,-21.247,2.651,-0.00,0.00,169.80,1.575,3.682,4.110,2.075,3.699,0,0,TURNING,0.000,0.050,0.000,-1.400
23:28:22.355,TURNING,30.737,-21.244,2.651,-0.00,0.00,153.75,3.232,4.487,2.743,2.121,4.443,0,0,TURNING,0.000,0.050,0.000,-1.400
23:28:22.556,RETURNING,30.728,-21.239,2.650,-0.00,0.00,144.96,4.499,3.153,1.931,2.126,3.155,0,0,RETURNING,0.000,0.425,-0.109,-0.448
23:28:22.756,RETURNING,30.650,-21.182,2.626,-0.00,0.00,143.21,4.813,2.750,1.777,2.174,2.760,0,0,RETURNING,0.000,0.710,-0.132,-0.030
23:28:22.958,RETURNING,30.553,-21.110,2.601,-0.00,0.00,143.56,4.810,2.599,1.669,2.177,2.622,0,0,RETURNING,0.000,0.778,-0.109,0.080
23:28:23.157,RETURNING,30.451,-21.036,2.581,-0.00,0.00,144.45,4.844,2.527,1.577,2.264,2.549,0,0,RETURNING,0.000,0.795,-0.080,0.106
23:28:23.359,RETURNING,30.347,-20.962,2.568,-0.00,0.00,145.45,4.792,2.503,1.562,2.296,2.508,0,0,RETURNING,0.000,0.799,-0.025,0.107
23:28:23.559,RETURNING,30.241,-20.890,2.564,-0.00,0.00,146.39,4.549,2.486,1.533,2.316,2.514,0,0,RETURNING,0.000,0.800,-0.006,0.098
23:28:23.758,RETURNING,30.120,-20.812,2.562,-0.00,0.00,147.36,4.321,2.598,1.516,2.320,2.603,0,0,RETURNING,0.000,0.800,-0.037,0.087
23:28:23.959,RETURNING,30.012,-20.743,2.554,-0.00,0.00,148.11,4.238,2.598,1.496,2.330,2.607,0,0,RETURNING,0.000,0.799,-0.051,0.077
23:28:24.159,RETURNING,29.903,-20.676,2.544,-0.00,0.00,148.78,4.075,2.592,1.486,2.332,2.597,0,0,RETURNING,0.000,0.799,-0.052,0.067
23:28:24.359,RETURNING,29.794,-20.611,2.533,-0.00,0.00,149.36,3.990,2.595,1.445,2.374,2.610,0,0,RETURNING,0.000,0.798,-0.036,0.060
23:28:24.560,RETURNING,29.684,-20.546,2.528,-0.00,0.00,149.89,3.918,2.616,1.422,2.428,2.613,0,0,RETURNING,0.000,0.798,-0.009,0.055
23:28:24.760,RETURNING,29.545,-20.467,2.528,-0.00,0.00,150.50,3.850,2.583,1.376,2.417,2.533,0,0,RETURNING,0.000,0.797,-0.002,0.051
23:28:24.961,RETURNING,29.406,-20.389,2.528,-0.00,0.00,151.07,3.802,2.613,1.320,2.378,2.564,0,0,RETURNING,0.000,0.796,-0.001,0.049
23:28:25.161,RETURNING,29.267,-20.312,2.528,-0.00,0.00,151.62,3.733,2.594,1.258,2.413,2.586,0,0,RETURNING,0.000,0.796,-0.000,0.048
23:28:25.361,RETURNING,29.126,-20.237,2.528,-0.00,0.00,152.18,3.727,2.503,1.271,2.404,2.487,0,0,RETURNING,0.000,0.795,-0.000,0.046
23:28:25.562,RETURNING,28.985,-20.164,2.528,-0.00,0.00,152.68,4.984,2.366,1.292,2.339,2.365,0,0,RETURNING,0.000,0.794,-0.000,0.043
23:28:25.763,RETURNING,28.844,-20.091,2.528,-0.00,0.00,153.19,5.455,2.204,1.258,2.189,2.194,0,0,RETURNING,0.000,0.793,-0.000,0.047
23:28:25.964,RETURNING,28.704,-20.021,2.528,-0.00,0.00,153.73,5.298,2.056,1.236,2.057,2.054,0,0,RETURNING,0.000,0.752,-0.000,0.046
23:28:26.164,RETURNING,28.574,-19.958,2.528,-0.00,0.00,154.24,5.252,1.902,1.228,1.904,1.908,0,0,RETURNING,0.000,0.674,-0.000,0.041
23:28:26.365,RETURNING,28.457,-19.902,2.528,-0.00,0.00,154.69,5.110,1.777,1.205,1.771,1.757,0,0,RETURNING,0.000,0.596,-0.000,0.037
23:28:26.565,RETURNING,28.354,-19.854,2.528,-0.00,0.00,155.10,5.015,1.643,1.171,1.638,1.635,0,0,RETURNING,0.000,0.519,-0.000,0.035
23:28:26.765,RETURNING,28.264,-19.812,2.528,-0.00,0.00,155.49,4.979,1.538,1.176,1.518,1.545,0,0,RETURNING,0.000,0.459,-0.000,0.031
23:28:26.967,RETURNING,28.184,-19.776,2.528,-0.00,0.00,156.98,4.943,1.434,1.201,1.401,1.437,0,0,RETURNING,0.000,0.410,-0.000,0.346
23:28:27.168,RETURNING,28.110,-19.748,2.528,-0.00,0.00,161.51,4.580,1.349,1.303,1.310,1.353,0,0,RETURNING,0.000,0.371,-0.000,0.431
23:28:27.367,RETURNING,28.032,-19.725,2.528,-0.00,0.00,165.19,2.682,2.123,1.233,2.173,2.122,0,0,RETURNING,0.000,0.537,-0.000,0.065
23:28:27.568,RETURNING,27.914,-19.694,2.528,-0.00,0.00,165.03,2.187,2.243,1.134,2.291,2.219,0,0,RETURNING,0.000,0.695,-0.000,-0.096
23:28:27.768,RETURNING,27.777,-19.656,2.528,-0.00,0.00,163.77,2.842,2.161,1.017,2.169,2.159,0,0,RETURNING,0.000,0.723,-0.000,-0.108
23:28:27.969,RETURNING,27.641,-19.615,2.528,-0.00,0.00,162.74,3.996,2.035,0.889,2.040,2.035,0,0,RETURNING,0.000,0.668,-0.000,-0.051
23:28:28.169,RETURNING,27.519,-19.576,2.528,-0.00,0.00,162.38,4.057,1.904,0.758,1.907,1.903,0,0,RETURNING,0.000,0.591,-0.000,0.003
23:28:28.371,RETURNING,27.412,-19.542,2.528,-0.00,0.00,162.64,4.106,1.796,0.637,1.798,1.792,0,0,RETURNING,0.000,0.513,-0.000,0.058
23:28:28.571,RETURNING,27.318,-19.514,2.528,-0.00,0.00,163.52,3.977,1.703,0.577,1.701,1.699,0,0,RETURNING,0.000,0.450,-0.000,0.104
23:28:28.771,RETURNING,27.235,-19.490,2.528,-0.00,0.00,164.69,3.866,1.618,0.631,1.618,1.619,0,0,RETURNING,0.000,0.405,-0.000,0.087
23:28:28.971,RETURNING,27.159,-19.470,2.528,-0.00,0.00,165.70,3.774,1.552,0.663,1.550,1.552,0,0,RETURNING,0.000,0.370,-0.000,0.077
23:28:29.173,RETURNING,27.089,-19.452,2.528,-0.00,0.00,166.31,3.700,1.486,0.770,1.488,1.486,0,0,RETURNING,0.000,0.349,-0.000,0.266
23:28:29.374,RETURNING,27.022,-19.438,2.528,-0.00,0.00,171.42,3.562,1.440,0.998,1.427,1.439,0,0,RETURNING,0.000,0.332,-0.000,0.570
23:28:29.576,RETURNING,26.948,-19.431,2.517,-0.00,0.00,175.43,2.197,4.293,1.181,2.187,4.289,0,0,RETURNING,0.000,0.565,-0.202,0.027
23:28:29.776,RETURNING,26.849,-19.422,2.474,-0.00,0.00,174.24,2.684,4.521,1.151,2.470,4.496,0,0,RETURNING,0.000,0.658,-0.227,-0.209
23:28:29.977,RETURNING,26.741,-19.409,2.429,-0.00,0.00,172.22,3.157,4.690,1.070,2.588,4.674,0,0,RETURNING,0.000,0.690,-0.215,-0.213
23:28:30.179,RETURNING,26.631,-19.393,2.387,-0.00,0.00,170.39,3.248,4.848,0.982,2.662,4.801,0,0,RETURNING,0.000,0.707,-0.206,-0.180
23:28:30.378,RETURNING,26.519,-19.372,2.346,-0.00,0.00,168.91,3.262,4.866,0.892,2.692,4.861,0,0,RETURNING,0.000,0.718,-0.203,-0.139
23:28:30.578,RETURNING,26.406,-19.349,2.306,-0.00,0.00,167.81,3.262,4.868,0.798,2.761,4.853,0,0,RETURNING,0.000,0.726,-0.195,-0.097
23:28:30.781,RETURNING,26.292,-19.324,2.267,-0.00,0.00,167.10,3.254,4.858,0.706,2.800,4.861,0,0,RETURNING,0.000,0.731,-0.186,-0.052
23:28:30.980,RETURNING,26.177,-19.297,2.230,-0.00,0.00,166.83,3.238,4.801,0.611,2.972,4.830,0,0,RETURNING,0.000,0.734,-0.170,-0.002
23:28:31.181,RETURNING,26.063,-19.271,2.198,-0.00,0.00,167.04,3.155,4.697,0.516,3.149,4.774,0,0,RETURNING,0.000,0.734,-0.146,0.048
23:28:31.382,RETURNING,25.949,-19.245,2.170,-0.00,0.00,167.59,3.069,4.631,0.715,3.212,4.634,0,0,RETURNING,0.000,0.732,-0.126,0.033
23:28:31.581,RETURNING,25.834,-19.220,2.145,-0.00,0.00,167.30,3.004,4.537,1.208,3.266,4.516,0,0,RETURNING,0.000,0.731,-0.112,-0.104
23:28:31.783,RETURNING,25.720,-19.193,2.124,-0.00,0.00,166.05,2.993,4.493,1.185,3.293,4.452,0,0,RETURNING,0.000,0.734,-0.100,-0.150
23:28:31.984,RETURNING,25.606,-19.163,2.104,-0.00,0.00,164.69,2.977,4.461,1.101,3.336,4.476,0,0,RETURNING,0.000,0.740,-0.095,-0.140
23:28:32.184,RETURNING,25.492,-19.131,2.085,-0.00,0.00,163.51,2.993,4.458,1.014,3.381,4.485,0,0,RETURNING,0.000,0.746,-0.090,-0.113
23:28:32.384,RETURNING,25.377,-19.096,2.067,-0.00,0.00,162.60,3.042,4.427,0.922,3.435,4.430,0,0,RETURNING,0.000,0.751,-0.085,-0.081
23:28:32.585,RETURNING,25.263,-19.059,2.051,-0.00,0.00,162.01,3.078,4.361,0.833,3.472,4.373,0,0,RETURNING,0.000,0.754,-0.077,-0.046
23:28:32.786,RETURNING,25.148,-19.022,2.036,-0.00,0.00,161.73,3.115,4.304,0.741,3.504,4.286,0,0,RETURNING,0.000,0.756,-0.067,-0.010
23:28:32.988,RETURNING,25.033,-18.984,2.023,-0.00,0.00,161.80,3.063,4.157,0.653,3.511,4.152,0,0,RETURNING,0.000,0.757,-0.060,0.029
23:28:33.188,RETURNING,24.918,-18.946,2.013,-0.00,0.00,162.26,2.988,4.051,1.320,3.577,4.035,0,0,RETURNING,0.000,0.755,-0.020,0.002
23:28:33.388,RETURNING,24.789,-18.905,2.011,-0.00,0.00,161.58,2.913,3.943,1.564,3.597,3.935,0,0,RETURNING,0.000,0.755,-0.005,-0.118
23:28:33.589,RETURNING,24.645,-18.855,2.011,-0.00,0.00,160.07,2.872,3.873,1.496,3.561,3.873,0,0,RETURNING,0.000,0.759,-0.001,-0.139
23:28:33.789,RETURNING,24.503,-18.801,2.011,-0.00,0.00,158.52,2.851,3.850,1.378,3.482,3.853,0,0,RETURNING,0.000,0.765,-0.000,-0.123
23:28:33.990,RETURNING,24.361,-18.744,2.011,-0.00,0.00,157.21,2.813,3.806,3.489,3.408,3.798,0,0,RETURNING,0.000,0.770,-0.000,-0.132
23:28:34.191,RETURNING,24.219,-18.682,2.011,-0.00,0.00,155.40,2.783,3.767,5.349,3.380,3.768,0,0,RETURNING,0.000,0.775,-0.000,-0.186
23:28:34.392,RETURNING,24.079,-18.615,2.011,-0.00,0.00,153.23,2.771,3.778,5.564,3.363,3.797,0,0,RETURNING,0.000,0.781,-0.000,-0.186
23:28:34.593,RETURNING,23.940,-18.542,2.011,-0.00,0.00,151.17,2.763,3.814,5.589,3.360,3.822,0,0,RETURNING,0.000,0.787,-0.000,-0.168
23:28:34.794,RETURNING,23.803,-18.464,2.011,-0.00,0.00,149.33,2.736,3.793,5.899,3.364,3.833,0,0,RETURNING,0.000,0.791,-0.000,-0.147
23:28:34.994,RETURNING,23.668,-18.381,2.011,-0.00,0.00,147.72,2.719,3.842,6.070,3.350,3.850,0,0,RETURNING,0.000,0.794,-0.000,-0.129
23:28:35.195,RETURNING,23.535,-18.295,2.011,-0.00,0.00,146.31,2.660,3.847,6.027,3.389,3.838,0,0,RETURNING,0.000,0.797,-0.000,-0.112
23:28:35.395,RETURNING,23.403,-18.205,2.011,-0.00,0.00,145.09,2.612,3.796,5.957,3.390,3.820,0,0,RETURNING,0.000,0.798,-0.000,-0.097
23:28:35.596,RETURNING,23.273,-18.113,2.011,-0.00,0.00,144.03,2.595,3.786,5.731,3.332,3.778,0,0,RETURNING,0.000,0.799,-0.000,-0.083
23:28:35.797,RETURNING,23.144,-18.018,2.011,-0.00,0.00,143.13,2.544,3.709,5.427,3.258,3.743,0,0,RETURNING,0.000,0.800,-0.000,-0.071
23:28:35.997,RETURNING,23.017,-17.921,2.011,-0.00,0.00,142.36,2.500,3.661,5.260,3.171,3.666,0,0,RETURNING,0.000,0.800,-0.015,-0.060
23:28:36.198,RETURNING,22.916,-17.843,2.006,-0.00,0.00,141.84,2.456,3.618,5.105,3.086,3.611,0,0,RETURNING,0.000,0.800,-0.045,-0.052
23:28:36.398,RETURNING,22.815,-17.763,1.996,-0.00,0.00,141.39,2.423,3.589,5.111,3.041,3.551,0,0,RETURNING,0.000,0.800,-0.054,-0.047
23:28:36.599,RETURNING,22.715,-17.683,1.986,-0.00,0.00,140.98,2.383,3.526,5.129,3.088,3.555,0,0,RETURNING,0.000,0.800,-0.054,-0.043
23:28:36.799,RETURNING,22.616,-17.602,1.976,-0.00,0.00,140.60,2.348,3.459,5.108,3.086,3.484,0,0,RETURNING,0.000,0.800,-0.018,-0.039
23:28:37.001,RETURNING,22.505,-17.510,1.975,-0.00,0.00,140.22,2.290,3.451,5.002,3.154,3.428,0,0,RETURNING,0.000,0.800,-0.004,-0.036
23:28:37.200,RETURNING,22.383,-17.408,1.975,-0.00,0.00,139.82,2.253,3.394,4.856,3.137,3.350,0,0,RETURNING,0.000,0.799,-0.001,-0.032
23:28:37.401,RETURNING,22.261,-17.304,1.975,-0.00,0.00,139.47,2.187,3.326,4.748,3.150,3.287,0,0,RETURNING,0.000,0.799,-0.000,-0.028
23:28:37.601,RETURNING,22.140,-17.200,1.975,-0.00,0.00,139.16,2.130,3.243,4.669,3.058,3.255,0,0,RETURNING,0.000,0.799,-0.000,-0.026
23:28:37.802,RETURNING,22.019,-17.095,1.975,-0.00,0.00,138.87,2.073,3.119,4.528,3.077,3.138,0,0,RETURNING,0.000,0.799,-0.000,-0.024
23:28:38.002,RETURNING,21.899,-16.990,1.975,-0.00,0.00,138.60,2.019,3.016,4.429,2.989,3.005,0,0,RETURNING,0.000,0.799,-0.000,-0.022
23:28:38.203,RETURNING,21.779,-16.884,1.975,-0.00,0.00,138.35,1.919,2.897,4.294,2.865,2.895,0,0,RETURNING,0.000,0.798,-0.000,-0.021
23:28:38.404,RETURNING,21.660,-16.778,1.975,-0.00,0.00,138.10,1.785,2.759,4.142,2.717,2.768,0,0,RETURNING,0.000,0.798,-0.000,-0.024
23:28:38.604,RETURNING,21.542,-16.671,1.975,-0.00,0.00,137.82,1.720,2.595,3.998,2.602,2.603,0,0,RETURNING,0.000,0.798,-0.000,-0.025
23:28:38.805,RETURNING,21.424,-16.563,1.975,-0.00,0.00,137.54,1.662,2.436,3.841,2.453,2.434,0,0,RETURNING,0.000,0.797,-0.000,-0.024
23:28:39.007,RETURNING,21.306,-16.456,1.975,-0.00,0.00,137.26,1.603,2.279,3.661,2.293,2.296,0,0,RETURNING,0.000,0.797,-0.000,-0.023
23:28:39.206,RETURNING,21.189,-16.347,1.975,-0.00,0.00,137.00,1.556,2.126,3.510,2.130,2.124,0,0,RETURNING,0.000,0.797,-0.000,-0.022
23:28:39.407,RETURNING,21.074,-16.239,1.975,-0.00,0.00,136.76,1.505,1.983,3.396,1.985,1.984,0,0,RETURNING,0.000,0.756,-0.000,-0.021
23:28:39.608,RETURNING,20.969,-16.140,1.975,-0.00,0.00,136.53,1.457,1.834,3.266,1.833,1.839,0,0,RETURNING,0.000,0.673,-0.000,-0.020
23:28:39.808,RETURNING,20.875,-16.051,1.975,-0.00,0.00,136.30,1.409,1.719,3.140,1.715,1.705,0,0,RETURNING,0.000,0.596,-0.000,-0.019
23:28:40.008,RETURNING,20.793,-15.972,1.975,-0.00,0.00,136.08,1.368,1.615,3.025,1.607,1.597,0,0,RETURNING,0.000,0.529,-0.000,-0.018
23:28:40.209,RETURNING,20.719,-15.901,1.975,-0.00,0.00,135.87,1.339,1.534,2.918,1.535,1.496,0,0,RETURNING,0.000,0.477,-0.000,-0.017
23:28:40.410,RETURNING,20.653,-15.836,1.975,-0.00,0.00,135.68,1.307,1.501,2.853,1.546,1.538,0,0,RETURNING,0.000,0.441,-0.000,-0.016
23:28:40.611,RETURNING,20.592,-15.776,1.975,-0.00,0.00,134.75,1.250,1.637,2.774,1.634,1.531,0,0,RETURNING,0.000,0.441,-0.000,-0.129
23:28:40.812,RETURNING,20.533,-15.716,1.977,-0.00,0.00,133.89,1.160,1.749,2.718,1.834,1.739,0,0,RETURNING,0.000,0.498,0.024,-0.039
23:28:41.014,RETURNING,20.477,-15.657,1.980,-0.00,0.00,133.64,1.090,1.779,2.655,1.875,1.867,0,0,RETURNING,0.000,0.521,0.006,-0.023
23:28:41.213,RETURNING,20.401,-15.577,1.980,-0.00,0.00,133.37,0.998,2.063,2.557,1.916,1.925,0,0,RETURNING,0.000,0.613,0.001,-0.027
23:28:41.413,RETURNING,20.313,-15.483,1.980,-0.00,0.00,133.01,0.883,2.165,2.493,2.012,2.100,0,0,RETURNING,0.000,0.689,0.000,-0.043
23:28:41.614,RETURNING,20.218,-15.381,1.980,-0.00,0.00,132.42,0.750,2.139,2.558,2.065,2.125,0,0,RETURNING,0.000,0.695,0.000,-0.073
23:28:41.814,RETURNING,20.127,-15.279,1.980,-0.00,0.00,131.42,0.695,2.074,2.747,2.030,2.076,0,0,RETURNING,0.000,0.660,0.000,-0.106
23:28:42.015,RETURNING,20.042,-15.181,1.980,-0.00,0.00,130.19,0.745,2.321,2.817,1.925,2.319,0,0,RETURNING,0.000,0.682,-0.032,-0.099
23:28:42.216,RETURNING,19.967,-15.092,1.968,-0.00,0.00,129.38,0.796,2.737,2.945,1.815,2.963,0,0,RETURNING,0.000,0.755,-0.156,-0.073
23:28:42.417,RETURNING,19.890,-14.997,1.930,-0.00,0.00,128.82,0.857,3.079,2.929,1.699,3.150,0,0,RETURNING,0.000,0.771,-0.269,-0.046
23:28:42.617,RETURNING,19.812,-14.900,1.872,-0.00,0.00,128.52,0.902,3.071,2.808,1.581,3.064,0,0,RETURNING,0.000,0.774,-0.332,-0.018
23:28:42.817,RETURNING,19.735,-14.803,1.803,-0.00,0.00,128.44,0.950,2.937,2.729,1.489,2.935,0,0,RETURNING,0.000,0.774,-0.374,0.002
23:28:43.019,RETURNING,19.658,-14.706,1.728,-0.00,0.00,128.53,1.016,2.833,2.628,1.595,2.798,0,0,RETURNING,0.000,0.774,-0.358,0.020
23:28:43.219,RETURNING,19.581,-14.609,1.660,-0.00,0.00,128.79,1.014,2.714,2.468,1.756,2.785,0,0,RETURNING,0.000,0.774,-0.298,0.033
23:28:43.420,RETURNING,19.503,-14.513,1.603,-0.00,0.00,129.12,1.018,2.608,2.360,1.921,2.744,0,0,RETURNING,0.000,0.775,-0.232,0.039
23:28:43.621,RETURNING,19.425,-14.417,1.558,-0.00,0.00,129.46,0.936,2.497,2.246,2.061,3.625,0,0,RETURNING,0.000,0.776,-0.233,0.031
23:28:43.822,RETURNING,19.345,-14.321,1.510,-0.00,0.00,129.67,0.868,2.331,2.127,2.154,3.966,0,0,RETURNING,0.000,0.776,-0.251,0.014
23:28:44.022,RETURNING,19.266,-14.226,1.461,-0.00,0.00,129.77,0.859,2.213,1.998,2.261,3.927,0,0,RETURNING,0.000,0.763,-0.238,0.009
23:28:44.223,RETURNING,19.190,-14.135,1.414,-0.00,0.00,129.87,0.905,2.085,1.866,2.184,3.815,0,0,RETURNING,0.000,0.706,-0.232,0.019
23:28:44.424,RETURNING,19.120,-14.051,1.367,-0.00,0.00,130.13,0.953,2.003,1.758,2.074,3.687,0,0,RETURNING,0.000,0.657,-0.243,0.038
23:28:46.176,RETURNING,19.055,-13.974,1.317,-0.00,0.00,130.54,0.964,1.935,1.686,2.000,3.639,0,0,RETURNING,0.000,0.612,-0.260,0.050
23:28:46.195,RETURNING,19.016,-13.928,1.262,-0.00,0.00,130.84,0.964,1.935,1.686,2.000,3.639,0,0,RETURNING,0.000,0.595,-0.268,0.052
23:28:46.319,RETURNING,18.961,-13.866,1.211,-0.00,0.00,131.25,0.946,1.841,1.570,1.863,3.344,0,0,RETURNING,0.000,0.572,-0.275,0.052
23:28:46.508,RETURNING,18.904,-13.801,1.155,-0.00,0.00,131.74,0.937,1.715,1.480,1.740,3.134,0,0,RETURNING,0.000,0.511,-0.295,0.054
23:28:46.707,RETURNING,18.851,-13.743,1.095,-0.00,0.00,132.24,0.938,1.650,1.424,1.662,2.969,0,0,RETURNING,0.000,0.470,-0.310,0.054
23:28:46.907,RETURNING,18.803,-13.689,1.033,-0.00,0.00,132.73,0.922,1.603,1.399,1.586,2.806,0,0,RETURNING,0.000,0.436,-0.322,0.051
23:28:47.108,RETURNING,18.754,-13.637,0.968,-0.00,0.00,133.19,0.923,1.889,1.353,1.520,2.655,0,0,RETURNING,0.000,0.485,-0.330,0.049
23:28:47.309,RETURNING,18.693,-13.573,0.902,-0.00,0.00,133.64,0.915,2.774,1.307,1.446,2.511,0,0,RETURNING,0.000,0.657,-0.342,0.048
23:28:47.509,RETURNING,18.614,-13.490,0.832,-0.00,0.00,134.08,0.916,3.263,2.487,1.354,2.309,0,0,RETURNING,0.000,0.756,-0.356,0.022
23:28:47.710,RETURNING,18.528,-13.401,0.760,-0.00,0.00,133.90,0.917,3.348,4.959,1.318,2.145,0,0,RETURNING,0.000,0.780,-0.364,-0.057
23:28:47.910,RETURNING,18.441,-13.310,0.690,-0.00,0.00,133.25,0.961,3.308,5.199,1.435,1.958,0,0,RETURNING,0.000,0.785,-0.296,-0.073
23:28:48.111,RETURNING,18.356,-13.219,0.637,-0.00,0.00,132.62,0.981,3.202,5.149,1.570,1.831,0,0,RETURNING,0.000,0.784,-0.180,-0.064
23:28:48.313,RETURNING,18.271,-13.126,0.608,-0.00,0.00,132.09,1.029,3.055,4.974,1.674,1.696,0,0,RETURNING,0.000,0.783,-0.054,-0.048
23:28:48.512,RETURNING,18.188,-13.033,0.600,-0.00,0.00,131.73,1.076,2.940,4.913,1.689,1.661,0,0,RETURNING,0.000,0.781,-0.013,-0.030
23:28:48.714,RETURNING,18.094,-12.928,0.599,-0.00,0.00,131.48,1.115,2.851,4.810,1.737,1.650,0,0,RETURNING,0.000,0.780,-0.003,-0.017
23:28:48.914,RETURNING,17.991,-12.811,0.599,-0.00,0.00,131.35,1.159,2.701,4.771,1.713,1.640,0,0,RETURNING,0.000,0.779,-0.001,-0.004
23:28:49.115,RETURNING,17.888,-12.694,0.599,-0.00,0.00,131.34,1.668,2.628,4.687,1.731,1.653,0,0,RETURNING,0.000,0.779,-0.000,0.022
23:28:49.315,RETURNING,17.785,-12.577,0.599,-0.00,0.00,131.82,1.905,2.499,4.623,1.711,1.655,0,0,RETURNING,0.000,0.779,-0.000,0.067
23:28:49.516,RETURNING,17.680,-12.462,0.599,-0.00,0.00,132.65,1.926,3.657,4.563,1.738,1.644,0,0,RETURNING,0.000,0.781,-0.000,0.077
23:28:49.716,RETURNING,17.574,-12.347,0.599,-0.00,0.00,133.51,1.873,2.637,4.594,1.705,1.650,0,0,RETURNING,0.000,0.783,-0.000,0.070
