timestamp,state,x,y,z,roll_deg,pitch_deg,yaw_deg,dist_left,dist_center,dist_right,dist_top,dist_bottom,dtof_alert,collision_event,best_dir,max_space,cmd_vx,cmd_vz,cmd_yaw
23:14:12.773,SEARCHING,0.000,0.000,1.000,0.00,0.00,0.00,7.648,7.327,7.333,7.327,7.328,0,0,SEARCHING,0.000,0.240,0.000,-0.010
23:14:12.941,SEARCHING,0.052,-0.000,1.000,0.00,0.00,0.01,2.212,1.106,1.128,1.107,1.107,0,0,SEARCHING,0.000,0.320,0.000,0.040
23:14:13.142,SEARCHING,0.111,0.000,1.000,0.00,0.00,0.69,2.144,1.009,1.026,1.009,1.010,0,0,SEARCHING,0.000,0.267,0.000,0.090
23:14:13.342,SEARCHING,0.163,0.001,1.000,0.00,0.00,1.87,2.093,0.960,0.968,0.957,0.959,0,0,SEARCHING,0.000,0.254,0.000,0.123
23:14:13.543,SEARCHING,0.214,0.004,1.000,0.00,0.00,3.40,2.006,0.907,0.896,0.900,0.897,0,0,SEARCHING,0.000,0.251,0.000,0.153
23:14:13.743,SEARCHING,0.264,0.007,1.000,0.00,0.00,5.29,1.960,0.875,0.849,0.880,0.869,0,0,SEARCHING,0.000,0.250,0.000,0.183
23:14:13.944,SEARCHING,0.309,0.012,1.002,0.00,0.00,7.28,1.861,0.942,0.788,0.962,0.913,0,0,SEARCHING,0.000,0.250,0.019,0.213
23:14:14.144,SEARCHING,0.353,0.019,1.004,0.00,0.00,9.63,1.772,0.981,0.735,0.994,1.012,0,0,SEARCHING,0.000,0.250,0.005,0.248
23:14:14.345,SEARCHING,0.402,0.028,1.004,0.00,0.00,12.62,1.691,1.628,0.686,1.622,1.568,0,0,SEARCHING,0.000,0.299,0.001,0.284
23:14:14.545,SEARCHING,0.476,0.047,1.004,0.00,0.00,16.09,1.613,2.066,0.629,2.060,2.007,0,0,SEARCHING,0.000,0.522,0.000,0.336
23:14:14.745,SEARCHING,0.584,0.082,1.004,0.00,0.00,20.06,1.472,2.010,0.685,2.006,2.005,0,0,SEARCHING,0.000,0.600,0.000,0.336
23:14:14.946,SEARCHING,0.695,0.126,1.004,0.00,0.00,23.64,1.348,1.816,1.855,1.804,1.816,0,0,SEARCHING,0.000,0.593,0.000,0.189
23:14:15.146,SEARCHING,0.801,0.174,1.004,0.00,0.00,24.82,1.250,1.663,1.987,1.655,1.658,0,0,SEARCHING,0.000,0.553,0.000,0.006
23:14:15.346,SEARCHING,0.897,0.219,1.004,0.00,0.00,24.59,1.190,1.575,1.912,1.569,1.569,0,0,SEARCHING,0.000,0.489,0.000,-0.050
23:14:15.547,SEARCHING,0.983,0.257,1.004,0.00,0.00,23.91,1.121,1.488,1.802,1.480,1.487,0,0,SEARCHING,0.000,0.433,0.000,-0.074
23:14:15.748,SEARCHING,1.059,0.290,1.004,0.00,0.00,22.99,1.077,1.440,1.729,1.430,1.429,0,0,SEARCHING,0.000,0.395,0.000,-0.089
23:14:15.948,SEARCHING,1.130,0.320,1.004,0.00,0.00,21.93,1.035,1.392,1.669,1.395,1.392,0,0,SEARCHING,0.000,0.369,0.000,-0.099
23:14:16.149,SEARCHING,1.197,0.346,1.004,0.00,0.00,20.75,0.998,1.349,1.624,1.351,1.352,0,0,SEARCHING,0.000,0.344,0.000,-0.110
23:14:16.349,SEARCHING,1.261,0.369,1.004,0.00,0.00,19.45,0.974,1.298,1.591,1.298,1.297,0,0,SEARCHING,0.000,0.321,0.000,-0.119
23:14:16.549,SEARCHING,1.319,0.389,1.004,0.00,0.00,18.05,0.947,1.221,1.557,1.221,1.222,0,0,SEARCHING,0.000,0.292,0.000,-0.128
23:14:16.751,SEARCHING,1.373,0.406,1.004,0.00,0.00,16.55,0.929,1.171,1.549,1.168,1.169,0,0,SEARCHING,0.000,0.266,0.000,-0.136
23:14:16.950,SEARCHING,1.423,0.421,1.004,0.00,0.00,14.96,0.913,1.102,1.543,1.101,1.101,0,0,SEARCHING,0.000,0.254,0.000,-0.143
23:14:17.152,SEARCHING,1.472,0.433,1.004,0.00,0.00,13.29,0.905,1.077,1.552,1.080,1.079,0,0,SEARCHING,0.000,0.251,0.000,-0.149
23:14:17.352,SEARCHING,1.521,0.444,1.004,0.00,0.00,11.57,0.901,1.058,1.562,1.059,1.064,0,0,SEARCHING,0.000,0.250,0.000,-0.153
23:14:17.552,SEARCHING,1.570,0.453,1.004,0.00,0.00,9.80,0.894,1.049,1.568,1.046,1.048,0,0,SEARCHING,0.000,0.250,0.000,-0.156
23:14:17.753,SEARCHING,1.620,0.461,1.004,0.00,0.00,7.98,0.854,1.041,1.604,1.037,1.035,0,0,SEARCHING,0.000,0.250,0.000,-0.169
23:14:17.953,SEARCHING,1.669,0.467,1.004,0.00,0.00,5.95,0.804,1.043,1.653,1.037,1.036,0,0,SEARCHING,0.000,0.250,0.000,-0.195
23:14:18.153,SEARCHING,1.719,0.471,1.004,0.00,0.00,3.55,0.749,1.041,1.720,1.038,1.039,0,0,SEARCHING,0.000,0.250,0.000,-0.236
23:14:18.354,SEARCHING,1.769,0.473,1.004,0.00,0.00,0.72,0.736,1.057,1.808,1.056,1.065,0,0,SEARCHING,0.000,0.250,0.000,-0.262
23:14:18.555,SEARCHING,1.819,0.473,1.004,0.00,0.00,-2.34,0.741,1.089,1.863,1.094,1.098,0,0,SEARCHING,0.000,0.250,0.000,-0.270
23:14:18.755,SEARCHING,1.869,0.470,1.004,0.00,0.00,-5.44,0.750,1.144,2.118,1.128,1.131,0,0,SEARCHING,0.000,0.250,0.000,-0.270
23:14:18.956,SEARCHING,1.919,0.464,1.004,0.00,0.00,-8.49,0.766,1.218,2.704,1.214,1.217,0,0,SEARCHING,0.000,0.251,0.000,-0.254
23:14:19.156,SEARCHING,1.969,0.455,1.004,0.00,0.00,-11.24,0.787,1.305,3.689,1.314,1.319,0,0,SEARCHING,0.000,0.268,0.000,-0.202
23:14:19.357,SEARCHING,2.023,0.443,1.004,0.00,0.00,-13.24,0.801,1.371,4.688,1.360,1.343,0,0,SEARCHING,0.000,0.296,0.000,-0.118
23:14:19.558,SEARCHING,2.083,0.429,1.004,0.00,0.00,-14.20,0.813,1.422,5.183,1.389,1.431,0,0,SEARCHING,0.000,0.325,0.000,-0.034
23:14:19.758,SEARCHING,2.147,0.412,1.004,0.00,0.00,-14.41,0.797,1.388,5.274,1.388,1.413,0,0,SEARCHING,0.000,0.329,0.000,-0.003
23:14:19.959,SEARCHING,2.210,0.396,1.004,0.00,0.00,-14.44,0.779,1.360,5.215,1.363,1.382,0,0,SEARCHING,0.000,0.317,0.000,-0.006
23:14:20.160,SEARCHING,2.270,0.381,1.004,0.00,0.00,-14.57,0.754,1.316,5.119,1.326,1.332,0,0,SEARCHING,0.000,0.302,0.000,-0.026
23:14:20.361,SEARCHING,2.327,0.365,1.004,0.00,0.00,-14.95,0.738,1.288,5.116,1.289,1.292,0,0,SEARCHING,0.000,0.287,0.000,-0.044
23:14:20.560,SEARCHING,2.382,0.351,1.004,0.00,0.00,-15.51,0.733,1.245,5.061,1.240,1.244,0,0,SEARCHING,0.000,0.271,0.000,-0.056
23:14:20.761,SEARCHING,2.433,0.336,1.004,0.00,0.00,-16.20,0.725,1.187,5.064,1.187,1.191,0,0,SEARCHING,0.000,0.256,0.000,-0.066
23:14:20.963,SEARCHING,2.482,0.322,1.004,0.00,0.00,-16.96,0.725,1.139,5.082,1.150,1.151,0,0,SEARCHING,0.000,0.252,0.000,-0.067
23:14:21.162,SEARCHING,2.529,0.307,1.004,0.00,0.00,-17.74,0.721,1.144,5.169,1.136,1.153,0,0,SEARCHING,0.000,0.250,0.000,-0.066
23:14:21.363,SEARCHING,2.577,0.291,1.004,0.00,0.00,-18.47,0.724,1.164,5.296,1.141,1.145,0,0,SEARCHING,0.000,0.250,0.000,-0.057
23:14:21.564,SEARCHING,2.624,0.275,1.004,0.00,0.00,-19.09,0.724,1.224,5.321,1.129,1.127,0,0,SEARCHING,0.000,0.251,0.000,-0.049
23:14:21.764,SEARCHING,2.672,0.259,1.004,0.00,0.00,-19.62,0.724,1.234,5.538,1.115,1.121,0,0,SEARCHING,0.000,0.255,0.000,-0.037
23:14:21.965,SEARCHING,2.720,0.241,1.004,0.00,0.00,-19.97,0.717,1.195,5.639,1.196,1.220,0,0,SEARCHING,0.000,0.252,0.000,-0.023
23:14:22.165,SEARCHING,2.767,0.224,1.004,0.00,0.00,-20.21,0.703,1.163,5.636,1.179,1.246,0,0,SEARCHING,0.000,0.250,0.000,-0.023
23:14:22.366,SEARCHING,2.809,0.208,1.002,0.00,0.00,-20.48,0.700,1.136,5.569,1.150,1.270,0,0,SEARCHING,0.000,0.250,-0.045,-0.033
23:14:22.567,SEARCHING,2.847,0.194,0.991,0.00,0.00,-20.82,0.696,1.155,5.520,1.165,1.269,0,0,SEARCHING,0.000,0.250,-0.064,-0.041
23:14:22.768,SEARCHING,2.884,0.180,0.980,0.00,0.00,-21.26,0.679,1.175,5.473,1.207,1.258,0,0,SEARCHING,0.000,0.250,-0.022,-0.057
23:14:22.968,SEARCHING,2.921,0.165,0.977,0.00,0.00,-21.90,0.641,1.224,5.285,1.227,1.228,0,0,SEARCHING,0.000,0.250,-0.005,-0.094
23:14:23.168,SEARCHING,2.967,0.146,0.977,0.00,0.00,-23.20,0.594,1.294,5.208,1.222,1.255,0,0,SEARCHING,0.000,0.255,-0.001,-0.151
23:14:23.369,SEARCHING,3.016,0.125,0.977,0.00,0.00,-25.16,0.592,1.520,5.066,1.488,1.493,0,0,SEARCHING,0.000,0.303,-0.000,-0.196
23:14:23.570,SEARCHING,3.076,0.095,0.977,0.00,0.00,-27.41,0.641,1.792,5.066,1.740,1.758,0,0,SEARCHING,0.000,0.400,-0.000,-0.180
23:14:23.771,SEARCHING,3.156,0.052,0.977,0.00,0.00,-29.27,0.693,2.216,5.083,2.231,2.201,0,0,SEARCHING,0.000,0.577,-0.000,-0.130
23:14:23.972,SEARCHING,3.268,-0.012,0.977,0.00,0.00,-30.55,0.746,2.763,5.028,2.763,2.546,0,0,SEARCHING,0.000,0.739,0.016,-0.083
23:14:24.172,SEARCHING,3.373,-0.075,0.983,0.00,0.00,-31.13,0.822,3.123,4.919,3.053,2.749,0,0,SEARCHING,0.000,0.785,0.056,-0.041
23:14:24.374,SEARCHING,3.482,-0.141,0.995,0.00,0.00,-31.40,0.845,3.401,4.844,3.319,2.720,0,0,SEARCHING,0.000,0.796,0.091,-0.020
23:14:24.573,SEARCHING,3.591,-0.208,1.017,0.00,0.00,-31.53,0.873,3.611,4.726,3.436,2.584,0,0,SEARCHING,0.000,0.799,0.149,-0.010
23:14:24.774,SEARCHING,3.700,-0.275,1.048,0.00,0.00,-31.56,0.929,3.567,4.635,3.484,2.908,0,0,SEARCHING,0.000,0.800,0.155,0.005
23:14:24.975,SEARCHING,3.809,-0.342,1.078,0.00,0.00,-31.50,0.922,3.546,4.531,3.481,2.873,0,0,SEARCHING,0.000,0.800,0.136,0.005
23:14:25.176,SEARCHING,3.918,-0.409,1.104,0.00,0.00,-31.46,0.970,3.479,4.420,3.469,2.947,0,0,SEARCHING,0.000,0.800,0.123,0.007
23:14:25.377,SEARCHING,4.027,-0.475,1.128,0.00,0.00,-31.39,0.991,3.396,4.310,3.406,2.226,0,0,SEARCHING,0.000,0.800,0.164,0.008
23:14:25.577,SEARCHING,4.136,-0.542,1.163,0.00,0.00,-31.32,0.999,3.307,4.161,3.329,3.022,0,0,SEARCHING,0.000,0.800,0.134,0.004
23:14:25.778,SEARCHING,4.246,-0.609,1.184,0.00,0.00,-31.30,1.040,3.186,4.040,3.212,3.126,0,0,SEARCHING,0.000,0.800,0.039,0.003
23:14:25.978,SEARCHING,4.355,-0.675,1.189,0.00,0.00,-31.28,1.058,3.041,3.892,3.045,3.041,0,0,SEARCHING,0.000,0.800,0.009,-0.001
23:14:26.179,SEARCHING,4.492,-0.758,1.189,0.00,0.00,-31.32,1.082,2.918,3.775,2.862,2.908,0,0,SEARCHING,0.000,0.800,0.002,-0.006
23:14:26.379,SEARCHING,4.629,-0.841,1.189,0.00,0.00,-31.39,1.109,2.773,3.671,2.757,2.777,0,0,SEARCHING,0.000,0.800,0.001,-0.007
23:14:26.581,SEARCHING,4.765,-0.925,1.189,0.00,0.00,-31.47,1.136,2.615,3.606,2.617,2.616,0,0,SEARCHING,0.000,0.800,0.000,-0.007
23:14:26.780,SEARCHING,4.902,-1.008,1.189,0.00,0.00,-31.54,1.135,2.388,3.562,2.380,2.459,0,0,SEARCHING,0.000,0.800,0.000,-0.007
23:14:26.981,SEARCHING,5.038,-1.092,1.189,0.00,0.00,-31.64,1.165,2.288,3.487,2.303,2.356,0,0,SEARCHING,0.000,0.800,0.000,-0.009
23:14:27.182,SEARCHING,5.174,-1.176,1.189,0.00,0.00,-31.73,1.174,2.158,3.404,2.144,2.138,0,0,SEARCHING,0.000,0.791,0.000,-0.010
23:14:27.382,SEARCHING,5.306,-1.258,1.189,0.00,0.00,-31.85,1.207,2.064,3.331,2.002,2.045,0,0,SEARCHING,0.000,0.753,0.000,-0.010
23:14:27.583,SEARCHING,5.430,-1.335,1.189,0.00,0.00,-31.96,1.239,1.920,3.251,1.904,1.867,0,0,SEARCHING,0.000,0.682,0.000,-0.009
23:14:27.784,SEARCHING,5.541,-1.405,1.189,0.00,0.00,-32.06,1.245,1.761,3.201,1.756,1.749,0,0,SEARCHING,0.000,0.605,0.000,-0.010
23:14:27.984,SEARCHING,5.640,-1.466,1.189,0.00,0.00,-32.18,1.242,1.676,3.138,1.674,1.670,0,0,SEARCHING,0.000,0.542,0.000,-0.013
23:14:28.185,SEARCHING,5.728,-1.522,1.189,0.00,0.00,-32.33,1.299,3.427,3.060,1.533,1.559,0,0,SEARCHING,0.000,0.589,0.000,-0.012
23:14:30.068,SEARCHING,5.829,-1.587,1.200,0.00,0.00,-32.45,1.292,4.857,3.011,2.951,2.556,0,0,SEARCHING,0.000,0.749,0.146,-0.012
23:14:30.269,SEARCHING,5.934,-1.653,1.226,0.00,0.00,-32.58,1.225,4.923,2.959,4.376,2.902,0,0,SEARCHING,0.000,0.788,0.161,-0.021
23:14:30.469,SEARCHING,6.041,-1.722,1.262,0.00,0.00,-32.85,1.108,4.821,2.874,4.803,3.920,0,0,SEARCHING,0.000,0.797,0.186,-0.043
23:14:30.670,SEARCHING,6.148,-1.791,1.298,0.00,0.00,-33.38,1.022,4.733,2.845,4.773,3.618,0,0,SEARCHING,0.000,0.799,0.191,-0.075
23:14:30.872,SEARCHING,6.254,-1.862,1.337,0.00,0.00,-34.21,0.914,4.630,2.773,4.621,3.722,0,0,SEARCHING,0.000,0.800,0.186,-0.113
23:14:31.072,SEARCHING,6.359,-1.935,1.373,0.00,0.00,-35.45,0.806,4.480,2.703,4.475,3.648,0,0,SEARCHING,0.000,0.800,0.172,-0.166
23:14:31.271,SEARCHING,6.463,-2.011,1.406,0.00,0.00,-37.28,1.589,4.197,2.547,4.218,3.744,0,0,SEARCHING,0.000,0.800,0.128,-0.155
23:14:31.472,SEARCHING,6.564,-2.089,1.428,0.00,0.00,-38.05,2.958,3.823,2.419,3.857,3.703,0,0,SEARCHING,0.000,0.800,0.060,-0.049
23:14:31.674,SEARCHING,6.665,-2.168,1.437,0.00,0.00,-38.44,3.273,3.645,2.359,3.675,3.558,0,0,SEARCHING,0.000,0.800,0.015,-0.044
23:14:31.874,SEARCHING,6.777,-2.258,1.438,0.00,0.00,-39.02,4.954,3.522,2.315,3.538,3.479,0,0,SEARCHING,0.000,0.800,0.003,-0.108
23:14:32.076,SEARCHING,6.900,-2.360,1.438,0.00,0.00,-40.77,5.287,3.297,2.179,3.299,3.263,0,0,SEARCHING,0.000,0.800,0.001,-0.208
23:14:32.277,SEARCHING,7.019,-2.467,1.438,0.00,0.00,-43.26,4.855,2.954,2.039,2.951,2.930,0,0,SEARCHING,0.000,0.800,0.000,-0.214
23:14:32.477,SEARCHING,7.134,-2.579,1.438,0.00,0.00,-45.59,4.456,2.732,1.909,2.700,2.720,0,0,SEARCHING,0.000,0.800,0.000,-0.182
23:14:32.679,SEARCHING,7.244,-2.695,1.438,0.00,0.00,-47.51,4.020,2.440,1.776,2.476,2.462,0,0,SEARCHING,0.000,0.800,0.000,-0.142
23:14:32.879,SEARCHING,7.350,-2.814,1.438,0.00,0.00,-48.95,3.678,2.270,1.646,2.285,2.276,0,0,SEARCHING,0.000,0.800,0.000,-0.099
23:14:33.081,SEARCHING,7.455,-2.936,1.438,0.00,0.00,-49.94,3.408,2.099,1.538,2.103,2.099,0,0,SEARCHING,0.000,0.797,0.000,-0.065
23:14:33.281,SEARCHING,7.554,-3.056,1.438,0.00,0.00,-50.55,3.135,1.941,1.431,1.946,1.943,0,0,SEARCHING,0.000,0.735,0.000,-0.035
23:14:33.480,SEARCHING,7.643,-3.164,1.438,0.00,0.00,-50.83,2.930,1.804,1.340,1.805,1.804,0,0,SEARCHING,0.000,0.640,0.000,-0.005
23:14:33.684,SEARCHING,7.720,-3.259,1.438,0.00,0.00,-50.79,2.757,1.673,1.242,1.674,1.672,0,0,SEARCHING,0.000,0.560,0.000,0.020
23:14:33.883,SEARCHING,7.788,-3.341,1.438,0.00,0.00,-50.45,2.660,1.590,1.185,1.597,1.598,0,0,SEARCHING,0.000,0.492,0.000,0.044
23:14:34.084,SEARCHING,7.848,-3.414,1.438,0.00,0.00,-49.86,2.559,1.519,1.128,1.534,1.537,0,0,SEARCHING,0.000,0.442,0.000,0.064
23:14:34.284,SEARCHING,7.904,-3.479,1.438,0.00,0.00,-49.05,2.488,1.469,1.077,1.484,1.479,0,0,SEARCHING,0.000,0.406,0.000,0.083
23:14:34.485,SEARCHING,7.956,-3.538,1.438,0.00,0.00,-48.03,2.425,1.430,1.044,1.446,1.435,0,0,SEARCHING,0.000,0.380,0.000,0.098
23:14:34.685,SEARCHING,8.006,-3.593,1.438,0.00,0.00,-46.84,2.394,1.392,1.003,1.399,1.394,0,0,SEARCHING,0.000,0.359,0.000,0.113
23:14:34.885,SEARCHING,8.055,-3.644,1.438,0.00,0.00,-45.49,2.404,1.373,0.982,1.371,1.367,0,0,SEARCHING,0.000,0.343,0.000,0.125
23:14:35.087,SEARCHING,8.103,-3.692,1.438,0.00,0.00,-44.02,2.405,1.369,0.959,1.347,1.357,0,0,SEARCHING,0.000,0.335,0.000,0.134
23:14:35.288,SEARCHING,8.152,-3.738,1.438,0.00,0.00,-42.45,2.419,1.360,0.938,1.348,1.357,0,0,SEARCHING,0.000,0.329,0.000,0.143
23:14:35.488,SEARCHING,8.200,-3.781,1.438,0.00,0.00,-40.78,2.432,1.344,0.926,1.367,1.377,0,0,SEARCHING,0.000,0.322,0.000,0.150
23:14:35.689,SEARCHING,8.250,-3.823,1.438,0.00,0.00,-39.03,2.516,1.464,0.913,1.489,1.502,0,0,SEARCHING,0.000,0.340,0.000,0.155
23:14:35.891,SEARCHING,8.306,-3.867,1.438,0.00,0.00,-37.25,2.567,1.568,0.905,1.548,1.535,0,0,SEARCHING,0.000,0.386,0.000,0.157
23:14:36.091,SEARCHING,8.370,-3.914,1.438,0.00,0.00,-35.45,2.676,1.590,0.895,1.603,1.612,0,0,SEARCHING,0.000,0.411,0.000,0.158
23:14:36.296,SEARCHING,8.438,-3.961,1.438,0.00,0.00,-33.64,2.771,1.638,0.890,1.654,1.665,0,0,SEARCHING,0.000,0.425,0.000,0.157
23:14:36.495,SEARCHING,8.511,-4.008,1.438,0.00,0.00,-31.84,2.838,1.665,0.879,1.653,1.656,0,0,SEARCHING,0.000,0.447,0.000,0.157
23:14:36.696,SEARCHING,8.588,-4.054,1.438,0.00,0.00,-30.05,2.992,1.613,0.856,1.625,1.623,0,0,SEARCHING,0.000,0.441,0.000,0.157
23:14:36.898,SEARCHING,8.664,-4.097,1.438,0.00,0.00,-28.37,3.141,1.605,0.998,1.625,1.639,0,0,SEARCHING,0.000,0.435,0.000,0.116
23:14:37.098,SEARCHING,8.742,-4.138,1.438,0.00,0.00,-27.22,3.288,1.631,1.030,1.620,1.632,0,0,SEARCHING,0.000,0.449,0.000,0.080
23:14:37.300,SEARCHING,8.822,-4.179,1.438,0.00,0.00,-26.39,3.408,1.610,1.027,1.582,1.597,0,0,SEARCHING,0.000,0.450,0.000,0.062
23:14:37.499,SEARCHING,8.902,-4.218,1.438,0.00,0.00,-25.69,3.454,1.561,1.007,1.537,1.551,0,0,SEARCHING,0.000,0.435,0.000,0.060
23:14:37.700,SEARCHING,8.980,-4.255,1.438,0.00,0.00,-25.10,4.386,1.528,1.006,1.512,1.526,0,0,SEARCHING,0.000,0.417,0.000,0.021
23:14:37.899,SEARCHING,9.054,-4.290,1.438,0.00,0.00,-25.02,4.325,1.486,1.001,1.486,1.481,0,0,SEARCHING,0.000,0.399,0.000,-0.005
23:14:38.099,SEARCHING,9.125,-4.323,1.438,0.00,0.00,-25.13,3.885,1.412,0.958,1.417,1.407,0,0,SEARCHING,0.000,0.373,0.000,0.004
23:14:38.300,SEARCHING,9.191,-4.353,1.438,0.00,0.00,-24.89,3.507,1.364,0.905,1.376,1.366,0,0,SEARCHING,0.000,0.343,0.000,0.054
23:14:38.501,SEARCHING,9.251,-4.381,1.438,0.00,0.00,-24.01,3.466,1.323,0.855,1.357,1.345,0,0,SEARCHING,0.000,0.316,0.000,0.108
23:14:38.703,SEARCHING,9.308,-4.406,1.438,0.00,0.00,-22.81,5.212,1.332,0.842,1.368,1.365,0,0,SEARCHING,0.000,0.306,0.000,0.059
23:14:38.902,SEARCHING,9.365,-4.429,1.438,0.00,0.00,-22.65,6.159,1.331,0.823,1.352,1.343,0,0,SEARCHING,0.000,0.305,0.000,-0.057
23:14:39.102,SEARCHING,9.421,-4.453,1.438,0.00,0.00,-23.51,5.407,1.278,0.797,1.293,1.289,0,0,SEARCHING,0.000,0.294,0.000,-0.067
23:14:39.305,SEARCHING,9.473,-4.476,1.438,0.00,0.00,-23.76,3.945,1.217,0.767,1.233,1.229,0,0,SEARCHING,0.000,0.270,0.000,0.067
23:14:39.504,SEARCHING,9.521,-4.497,1.438,0.00,0.00,-22.47,3.462,1.197,0.741,1.201,1.196,0,0,SEARCHING,0.000,0.255,0.000,0.173
23:14:39.705,SEARCHING,9.568,-4.516,1.438,0.00,0.00,-20.60,5.734,1.243,0.745,1.199,1.208,0,0,SEARCHING,0.000,0.255,0.000,0.094
23:14:39.908,SEARCHING,9.617,-4.533,1.438,0.00,0.00,-20.09,6.170,1.248,0.742,1.225,1.233,0,0,SEARCHING,0.000,0.262,0.000,-0.018
23:14:40.107,SEARCHING,9.666,-4.551,1.438,0.00,0.00,-20.48,6.360,1.207,0.729,1.204,1.205,0,0,SEARCHING,0.000,0.256,0.000,-0.053
23:14:40.307,SEARCHING,9.713,-4.569,1.438,0.00,0.00,-21.08,6.059,1.155,0.702,1.151,1.149,0,0,SEARCHING,0.000,0.251,0.000,-0.037
23:14:40.507,SEARCHING,9.760,-4.588,1.438,0.00,0.00,-21.25,5.472,1.112,0.669,1.096,1.097,0,0,SEARCHING,0.000,0.250,0.000,0.033
23:14:40.709,SEARCHING,9.807,-4.606,1.438,0.00,0.00,-20.62,5.324,1.070,0.649,1.071,1.062,0,0,SEARCHING,0.000,0.250,0.000,0.087
23:14:40.909,SEARCHING,9.854,-4.623,1.438,0.00,0.00,-19.54,5.810,1.048,0.641,1.059,1.058,0,0,SEARCHING,0.000,0.250,0.000,0.090
23:14:41.110,SEARCHING,9.901,-4.639,1.438,0.00,0.00,-18.70,6.543,1.059,0.634,1.097,1.075,0,0,SEARCHING,0.000,0.250,0.000,0.038
23:14:41.310,SEARCHING,9.948,-4.655,1.438,0.00,0.00,-18.46,6.659,1.069,0.624,1.097,1.088,0,0,SEARCHING,0.000,0.250,0.000,0.005
23:14:41.511,SEARCHING,9.996,-4.671,1.438,0.00,0.00,-18.36,6.455,1.053,0.608,1.065,1.074,0,0,SEARCHING,0.000,0.250,0.000,0.023
23:14:41.712,SEARCHING,10.043,-4.686,1.438,0.00,0.00,-17.99,6.371,1.037,0.592,1.044,1.054,0,0,SEARCHING,0.000,0.250,0.000,0.051
23:14:41.912,SEARCHING,10.091,-4.702,1.438,0.00,0.00,-17.31,6.320,1.038,0.583,1.017,1.034,0,0,SEARCHING,0.000,0.250,0.000,0.073
23:14:42.112,SEARCHING,10.139,-4.716,1.438,0.00,0.00,-16.39,6.291,1.058,0.578,0.988,1.002,0,0,SEARCHING,0.000,0.250,0.000,0.090
23:14:42.314,SEARCHING,10.187,-4.730,1.438,0.00,0.00,-15.33,6.340,1.058,0.578,1.004,0.999,0,0,SEARCHING,0.000,0.250,0.000,0.095
23:14:42.514,SEARCHING,10.235,-4.743,1.438,0.00,0.00,-14.25,6.280,1.057,0.576,1.052,1.046,0,0,SEARCHING,0.000,0.250,0.000,0.097
23:14:42.714,SEARCHING,10.284,-4.755,1.438,0.00,0.00,-13.04,5.688,1.049,0.571,1.115,1.064,0,0,SEARCHING,0.000,0.250,0.000,0.133
23:14:42.916,SEARCHING,10.333,-4.765,1.438,0.00,0.00,-11.30,5.019,1.167,0.582,1.171,1.138,0,0,SEARCHING,0.000,0.250,0.000,0.187
23:14:43.117,SEARCHING,10.382,-4.774,1.438,0.00,0.00,-8.92,4.399,1.278,0.598,1.195,1.213,0,0,SEARCHING,0.000,0.253,0.000,0.239
23:14:43.317,SEARCHING,10.434,-4.781,1.438,0.00,0.00,-6.08,3.942,1.393,0.643,1.458,1.407,0,0,SEARCHING,0.000,0.281,0.000,0.255
23:14:43.518,SEARCHING,10.495,-4.786,1.438,0.00,0.00,-3.20,3.485,2.279,0.708,1.604,1.662,0,0,SEARCHING,0.000,0.468,0.000,0.241
23:14:43.718,SEARCHING,10.612,-4.790,1.438,0.00,0.00,-0.50,3.095,5.558,0.775,4.308,3.316,0,0,SEARCHING,0.000,0.717,0.059,0.222
23:14:43.919,SEARCHING,10.733,-4.789,1.457,0.00,0.00,1.39,2.915,6.198,0.885,5.005,4.031,0,0,SEARCHING,0.000,0.780,0.155,0.182
23:14:44.121,SEARCHING,10.859,-4.785,1.490,0.00,0.00,2.90,2.809,6.660,0.919,4.991,4.171,0,0,SEARCHING,0.000,0.795,0.171,0.153
23:14:44.320,SEARCHING,10.986,-4.777,1.523,0.00,0.00,4.19,2.685,6.940,1.030,4.934,4.189,0,0,SEARCHING,0.000,0.799,0.147,0.122
23:14:44.525,SEARCHING,11.114,-4.767,1.551,0.00,0.00,5.19,2.576,6.722,1.098,4.889,4.288,0,0,SEARCHING,0.000,0.800,0.121,0.097
23:14:44.725,SEARCHING,11.241,-4.754,1.574,0.00,0.00,5.80,2.481,6.370,2.208,4.747,4.188,0,0,SEARCHING,0.000,0.800,0.108,0.026
23:14:44.925,SEARCHING,11.369,-4.741,1.595,0.00,0.00,5.90,2.401,6.200,2.508,4.676,4.143,0,0,SEARCHING,0.000,0.800,0.102,0.006
23:14:45.126,SEARCHING,11.496,-4.728,1.616,0.00,0.00,5.95,2.336,6.268,2.594,4.677,4.107,0,0,SEARCHING,0.000,0.800,0.101,0.007
23:14:45.328,SEARCHING,11.623,-4.715,1.637,0.00,0.00,6.04,2.291,6.346,2.739,4.692,3.990,0,0,SEARCHING,0.000,0.800,0.121,0.013
23:14:45.529,SEARCHING,11.751,-4.701,1.662,0.00,0.00,6.18,2.223,6.203,2.759,4.626,3.885,0,0,SEARCHING,0.000,0.800,0.132,0.018
23:14:45.730,SEARCHING,11.878,-4.687,1.688,0.00,0.00,6.36,2.185,6.081,2.783,4.598,3.833,0,0,SEARCHING,0.000,0.800,0.138,0.021
23:14:45.930,SEARCHING,12.005,-4.673,1.717,0.00,0.00,6.78,2.141,5.909,6.933,4.510,3.692,0,0,SEARCHING,0.000,0.800,0.151,0.173
23:14:46.130,SEARCHING,12.132,-4.655,1.747,0.00,0.00,9.71,2.031,5.078,8.647,4.099,3.582,0,0,SEARCHING,0.000,0.800,0.138,0.458
23:14:46.331,SEARCHING,12.257,-4.629,1.770,0.00,0.00,14.56,1.874,3.508,8.580,3.365,3.277,0,0,SEARCHING,0.000,0.800,0.044,0.569
23:14:46.532,SEARCHING,12.379,-4.592,1.776,0.00,0.00,19.88,1.664,2.689,8.212,2.688,2.672,0,0,SEARCHING,0.000,0.800,0.010,0.573
23:14:46.733,SEARCHING,12.513,-4.537,1.777,0.00,0.00,25.41,1.520,2.321,6.537,2.325,2.322,0,0,SEARCHING,0.000,0.800,0.003,0.453
23:14:46.933,SEARCHING,12.651,-4.465,1.777,0.00,0.00,29.83,1.350,1.868,4.056,1.847,1.857,0,0,SEARCHING,0.000,0.710,0.001,0.242
23:14:47.133,SEARCHING,12.763,-4.398,1.777,0.00,0.00,31.67,1.208,1.580,2.659,1.580,1.580,0,0,SEARCHING,0.000,0.551,0.000,0.043
23:14:47.334,SEARCHING,12.849,-4.344,1.777,0.00,0.00,31.72,1.128,1.458,2.397,1.463,1.461,0,0,SEARCHING,0.000,0.443,0.000,-0.045
23:14:47.536,SEARCHING,12.921,-4.301,1.777,0.00,0.00,31.02,1.072,1.389,2.295,1.394,1.392,0,0,SEARCHING,0.000,0.383,0.000,-0.083
23:14:47.735,SEARCHING,12.984,-4.263,1.777,0.00,0.00,29.98,1.025,1.341,2.260,1.340,1.344,0,0,SEARCHING,0.000,0.348,0.000,-0.104
23:14:47.935,SEARCHING,13.043,-4.230,1.777,0.00,0.00,28.71,0.992,1.350,2.266,1.311,1.326,0,0,SEARCHING,0.000,0.330,0.000,-0.120
23:14:48.137,SEARCHING,13.102,-4.199,1.777,0.00,0.00,27.28,0.966,1.416,2.252,1.369,1.383,0,0,SEARCHING,0.000,0.340,0.000,-0.134
23:14:48.337,SEARCHING,13.163,-4.168,1.777,0.00,0.00,25.70,0.935,1.420,2.297,1.422,1.415,0,0,SEARCHING,0.000,0.349,0.000,-0.146
23:14:48.538,SEARCHING,13.227,-4.138,1.777,0.00,0.00,24.11,0.902,1.413,4.130,1.421,1.416,0,0,SEARCHING,0.000,0.347,0.000,-0.103
23:14:48.740,SEARCHING,13.290,-4.111,1.777,0.00,0.00,23.19,0.874,1.404,4.447,1.406,1.410,0,0,SEARCHING,0.000,0.342,0.000,-0.052
23:14:48.940,SEARCHING,13.352,-4.084,1.777,0.00,0.00,22.68,0.836,1.368,4.558,1.364,1.371,0,0,SEARCHING,0.000,0.330,0.000,-0.040
23:14:49.144,SEARCHING,13.412,-4.059,1.777,0.00,0.00,22.20,0.804,1.330,4.574,1.329,1.325,0,0,SEARCHING,0.000,0.314,0.000,-0.049
23:14:49.342,SEARCHING,13.469,-4.036,1.777,0.00,0.00,21.57,0.771,1.298,4.563,1.300,1.285,0,0,SEARCHING,0.000,0.297,0.000,-0.068
23:14:49.542,SEARCHING,13.523,-4.015,1.777,0.00,0.00,20.69,0.841,1.279,4.575,1.267,1.258,0,0,SEARCHING,0.000,0.284,0.000,-0.071
23:14:49.744,SEARCHING,13.577,-3.996,1.777,0.00,0.00,20.05,0.850,1.261,4.697,1.254,1.251,0,0,SEARCHING,0.000,0.281,0.000,-0.036
23:14:49.944,SEARCHING,13.629,-3.977,1.777,0.00,0.00,19.69,0.826,1.222,4.751,1.222,1.227,0,0,SEARCHING,0.000,0.270,0.000,-0.028
23:14:50.145,SEARCHING,13.679,-3.959,1.777,0.00,0.00,19.35,0.807,1.193,4.735,1.196,1.200,0,0,SEARCHING,0.000,0.258,0.000,-0.034
23:14:50.346,SEARCHING,13.727,-3.942,1.777,0.00,0.00,18.91,0.784,1.161,4.763,1.158,1.168,0,0,SEARCHING,0.000,0.252,0.000,-0.046
23:14:50.546,SEARCHING,13.775,-3.926,1.777,0.00,0.00,18.34,0.762,1.138,4.876,1.135,1.146,0,0,SEARCHING,0.000,0.250,0.000,-0.055
23:14:50.746,SEARCHING,13.822,-3.911,1.777,0.00,0.00,17.67,0.745,1.127,4.980,1.126,1.132,0,0,SEARCHING,0.000,0.250,0.000,-0.061
23:14:50.947,SEARCHING,13.870,-3.896,1.777,0.00,0.00,16.97,0.732,1.120,5.224,1.118,1.125,0,0,SEARCHING,0.000,0.250,0.000,-0.057
23:14:51.147,SEARCHING,13.918,-3.881,1.777,0.00,0.00,16.43,0.712,1.101,5.700,1.103,1.109,0,0,SEARCHING,0.000,0.250,0.000,-0.030
23:14:51.348,SEARCHING,13.966,-3.867,1.777,0.00,0.00,16.17,0.697,1.071,6.016,1.079,1.081,0,0,SEARCHING,0.000,0.250,0.000,-0.010
23:14:51.548,SEARCHING,14.014,-3.854,1.777,0.00,0.00,16.08,0.673,1.037,6.021,1.051,1.055,0,0,SEARCHING,0.000,0.250,0.000,-0.010
23:14:51.749,SEARCHING,14.062,-3.840,1.777,0.00,0.00,15.91,0.654,0.993,6.021,1.009,1.015,0,0,SEARCHING,0.000,0.250,0.000,-0.026
23:14:51.951,SEARCHING,14.110,-3.826,1.777,0.00,0.00,15.53,0.630,0.978,6.224,0.980,0.978,0,0,SEARCHING,0.000,0.250,0.000,-0.041
23:14:52.151,SEARCHING,14.158,-3.813,1.777,0.00,0.00,15.06,0.615,0.973,6.453,0.958,0.959,0,0,SEARCHING,0.000,0.250,0.000,-0.038
23:14:52.351,SEARCHING,14.207,-3.800,1.777,0.00,0.00,14.65,0.594,0.949,6.727,0.919,0.930,0,0,SEARCHING,0.000,0.250,0.000,-0.033
23:14:52.551,SEARCHING,14.255,-3.788,1.777,0.00,0.00,14.28,0.572,0.924,6.869,0.905,0.906,0,0,SEARCHING,0.000,0.250,0.000,-0.036
23:14:52.752,SEARCHING,14.304,-3.775,1.777,0.00,0.00,13.82,0.559,0.891,6.896,0.883,0.875,0,0,SEARCHING,0.000,0.250,0.000,-0.049
23:14:52.953,SEARCHING,14.352,-3.764,1.777,0.00,0.00,13.17,0.540,0.869,6.838,0.867,0.864,0,0,SEARCHING,0.000,0.250,0.000,-0.074
23:14:53.153,SEARCHING,14.401,-3.753,1.777,0.00,0.00,12.21,0.529,0.855,6.897,0.854,0.857,0,0,SEARCHING,0.000,0.250,0.000,-0.098
23:14:53.354,SEARCHING,14.450,-3.743,1.777,0.00,0.00,11.01,0.522,0.851,6.915,0.842,0.850,0,0,SEARCHING,0.000,0.250,0.000,-0.113
23:14:53.554,SEARCHING,14.499,-3.733,1.777,0.00,0.00,9.71,0.513,0.854,7.216,0.855,0.866,0,0,SEARCHING,0.000,0.250,0.000,-0.109
23:14:53.755,SEARCHING,14.549,-3.726,1.777,0.00,0.00,8.54,0.504,0.856,7.200,0.859,0.861,0,0,SEARCHING,0.000,0.250,0.000,-0.101
23:14:53.957,SEARCHING,14.598,-3.719,1.777,0.00,0.00,7.26,0.504,1.833,7.077,1.419,2.079,0,0,SEARCHING,0.000,0.322,-0.077,-0.126
23:14:54.160,SEARCHING,14.675,-3.710,1.759,0.00,0.00,6.17,0.500,2.674,7.359,2.626,2.593,0,0,SEARCHING,0.000,0.654,-0.045,-0.110
23:14:54.359,SEARCHING,14.790,-3.698,1.753,0.00,0.00,5.09,0.480,2.829,6.887,2.811,2.659,0,0,SEARCHING,0.000,0.765,-0.011,-0.136
23:14:54.559,SEARCHING,14.930,-3.687,1.752,0.00,0.00,3.53,0.454,2.906,6.647,2.917,2.693,0,0,SEARCHING,0.000,0.792,0.013,-0.169
23:14:54.760,SEARCHING,15.057,-3.681,1.757,0.00,0.00,1.87,0.809,2.971,6.323,2.983,2.692,0,0,SEARCHING,0.000,0.798,0.052,-0.096
23:14:54.962,SEARCHING,15.185,-3.677,1.769,0.00,0.00,2.41,1.626,2.990,6.657,2.983,2.705,0,0,SEARCHING,0.000,0.800,0.066,0.215
23:14:55.161,SEARCHING,15.313,-3.669,1.780,0.00,0.00,5.11,1.594,2.744,7.510,2.747,2.658,0,0,SEARCHING,0.000,0.800,0.023,0.368
23:14:55.362,SEARCHING,15.440,-3.654,1.783,0.00,0.00,8.98,1.483,2.448,7.973,2.456,2.430,0,0,SEARCHING,0.000,0.800,0.005,0.466
23:14:55.564,SEARCHING,15.596,-3.622,1.783,0.00,0.00,14.19,1.284,1.982,6.120,1.973,1.966,0,0,SEARCHING,0.000,0.764,0.001,0.381
23:14:55.763,SEARCHING,15.734,-3.583,1.783,0.00,0.00,17.95,1.130,1.665,3.562,1.674,1.668,0,0,SEARCHING,0.000,0.613,0.000,0.191
23:14:55.964,SEARCHING,15.840,-3.547,1.783,0.00,0.00,19.17,1.033,1.480,2.617,1.482,1.487,0,0,SEARCHING,0.000,0.472,0.000,-0.007
23:14:56.164,SEARCHING,15.922,-3.519,1.783,0.00,0.00,18.65,0.987,1.403,2.420,1.405,1.411,0,0,SEARCHING,0.000,0.388,0.000,-0.092
23:14:56.366,SEARCHING,15.993,-3.496,1.783,0.00,0.00,17.42,0.945,1.360,2.370,1.365,1.368,0,0,SEARCHING,0.000,0.345,0.000,-0.130
23:14:56.566,SEARCHING,16.057,-3.476,1.783,0.00,0.00,15.85,0.927,1.349,2.386,1.351,1.350,0,0,SEARCHING,0.000,0.328,0.000,-0.146
23:14:56.767,SEARCHING,16.120,-3.459,1.783,0.00,0.00,14.13,0.912,1.355,3.480,1.347,1.349,0,0,SEARCHING,0.000,0.321,0.000,-0.136
23:14:56.968,SEARCHING,16.182,-3.444,1.783,0.00,0.00,12.86,0.905,1.365,4.648,1.347,1.342,0,0,SEARCHING,0.000,0.323,0.000,-0.057
23:14:57.168,SEARCHING,16.245,-3.430,1.783,0.00,0.00,12.51,0.879,1.340,4.947,1.333,1.325,0,0,SEARCHING,0.000,0.318,0.000,0.001
23:14:57.371,SEARCHING,16.307,-3.417,1.783,0.00,0.00,12.60,0.857,1.297,4.932,1.301,1.284,0,0,SEARCHING,0.000,0.305,0.000,0.011
23:14:57.570,SEARCHING,16.365,-3.404,1.783,0.00,0.00,12.67,0.822,1.246,4.856,1.252,1.248,0,0,SEARCHING,0.000,0.284,0.000,-0.006
23:14:57.771,SEARCHING,16.419,-3.391,1.783,0.00,0.00,12.51,0.789,1.193,4.778,1.207,1.195,0,0,SEARCHING,0.000,0.264,0.000,-0.031
23:14:57.971,SEARCHING,16.469,-3.380,1.783,0.00,0.00,12.05,0.773,1.167,4.759,1.174,1.168,0,0,SEARCHING,0.000,0.253,0.000,-0.053
23:14:58.172,SEARCHING,16.519,-3.370,1.783,0.00,0.00,11.38,0.755,1.148,4.818,1.156,1.153,0,0,SEARCHING,0.000,0.251,0.000,-0.066
23:14:58.372,SEARCHING,16.568,-3.361,1.783,0.00,0.00,10.59,0.738,1.139,4.862,1.146,1.149,0,0,SEARCHING,0.000,0.250,0.000,-0.075
23:14:58.572,SEARCHING,16.617,-3.352,1.783,0.00,0.00,9.69,0.726,1.140,4.861,1.142,1.152,0,0,SEARCHING,0.000,0.250,0.000,-0.084
23:14:58.774,SEARCHING,16.667,-3.344,1.783,0.00,0.00,8.70,0.713,1.138,4.833,1.135,1.140,0,0,SEARCHING,0.000,0.250,0.000,-0.094
23:14:58.976,SEARCHING,16.716,-3.337,1.783,0.00,0.00,7.56,0.705,1.138,4.799,1.133,1.124,0,0,SEARCHING,0.000,0.250,0.000,-0.107
23:14:59.176,SEARCHING,16.766,-3.330,1.783,0.00,0.00,6.30,0.699,1.156,4.786,1.136,1.133,0,0,SEARCHING,0.000,0.250,0.000,-0.115
23:14:59.377,SEARCHING,16.815,-3.325,1.783,0.00,0.00,4.95,0.698,1.151,4.814,1.146,1.153,0,0,SEARCHING,0.000,0.250,0.000,-0.120
23:14:59.577,SEARCHING,16.865,-3.322,1.783,0.00,0.00,3.63,0.697,1.176,7.516,1.173,1.200,0,0,SEARCHING,0.000,0.250,0.000,-0.026
23:14:59.778,SEARCHING,16.915,-3.318,1.783,0.00,0.00,4.48,0.681,1.165,7.160,1.165,1.185,0,0,SEARCHING,0.000,0.250,0.000,0.155
23:14:59.979,SEARCHING,16.965,-3.314,1.783,0.00,0.00,5.65,0.650,1.085,5.137,1.079,1.094,0,0,SEARCHING,0.000,0.250,0.000,-0.016
23:15:00.179,SEARCHING,17.015,-3.309,1.783,0.00,0.00,4.86,0.628,1.047,4.689,1.042,1.055,0,0,SEARCHING,0.000,0.250,0.000,-0.143
23:15:00.380,SEARCHING,17.065,-3.306,1.783,0.00,0.00,3.00,0.626,1.064,7.456,1.073,1.080,0,0,SEARCHING,0.000,0.250,0.000,-0.098
23:15:00.580,SEARCHING,17.115,-3.303,1.783,0.00,0.00,3.32,0.627,1.071,9.701,1.091,1.107,0,0,SEARCHING,0.000,0.250,0.000,0.198
23:15:00.781,SEARCHING,17.164,-3.299,1.783,0.00,0.00,5.50,0.589,1.003,5.845,1.015,1.013,0,0,SEARCHING,0.000,0.250,0.000,0.057
23:15:00.981,SEARCHING,17.214,-3.295,1.783,0.00,0.00,5.02,0.557,0.930,4.598,0.931,0.933,0,0,SEARCHING,0.000,0.250,0.000,-0.189
23:15:01.182,SEARCHING,17.264,-3.291,1.783,0.00,0.00,2.32,0.553,0.930,6.246,0.947,0.955,0,0,SEARCHING,0.000,0.250,0.000,-0.235
23:15:01.383,SEARCHING,17.314,-3.290,1.783,0.00,0.00,0.68,0.573,1.039,9.691,0.994,1.012,0,0,SEARCHING,0.000,0.250,0.000,0.060
23:15:01.583,SEARCHING,17.364,-3.289,1.783,0.00,0.00,2.30,0.550,1.001,9.964,0.951,0.962,0,0,SEARCHING,0.000,0.250,0.000,0.226
23:15:01.785,SEARCHING,17.414,-3.286,1.783,0.00,0.00,5.03,0.516,0.901,6.303,0.872,0.878,0,0,SEARCHING,0.000,0.250,0.000,0.113
23:15:02.033,INSPECTING,17.464,-3.281,1.783,0.00,0.00,4.58,0.478,0.782,4.489,0.787,0.792,0,0,SEARCHING,0.000,0.175,0.000,-0.252
23:15:02.186,INSPECTING,17.519,-3.278,1.783,0.00,0.00,1.08,0.471,0.833,7.266,0.808,0.809,0,0,INSPECT_RIGHT,0.000,0.346,0.000,-0.440
23:15:03.968,INSPECTING,17.592,-3.280,1.783,0.00,0.00,-4.20,0.481,0.868,9.047,0.855,0.861,0,0,INSPECT_RIGHT,0.000,0.387,0.000,-0.486
23:15:03.993,INSPECTING,17.669,-3.289,1.783,0.00,0.00,-9.80,0.481,0.868,9.047,0.855,0.861,0,0,INSPECT_RIGHT,0.000,0.397,0.000,-0.497
23:15:04.147,SEARCHING,17.756,-3.308,1.783,0.00,0.00,-14.74,0.667,3.432,6.898,3.483,3.522,0,0,SEARCHING,0.000,0.603,0.000,-0.211
23:15:04.341,SEARCHING,17.887,-3.344,1.783,0.00,0.00,-15.49,1.816,8.483,6.249,3.817,3.900,0,0,SEARCHING,0.000,0.753,0.000,0.154
23:15:04.541,SEARCHING,18.036,-3.383,1.783,0.00,0.00,-12.94,1.911,4.799,6.300,3.659,3.774,0,0,SEARCHING,0.000,0.789,0.000,0.297
23:15:04.742,SEARCHING,18.191,-3.414,1.783,0.00,0.00,-9.31,1.709,3.606,6.697,3.530,3.532,0,0,SEARCHING,0.000,0.797,0.000,0.349
23:15:04.942,SEARCHING,18.350,-3.435,1.783,0.00,0.00,-5.14,1.487,3.402,7.178,3.398,3.384,0,0,SEARCHING,0.000,0.799,0.000,0.388
23:15:05.142,SEARCHING,18.509,-3.443,1.783,0.00,0.00,-0.43,1.299,2.848,8.606,2.836,2.852,0,0,SEARCHING,0.000,0.800,0.000,0.472
23:15:05.343,SEARCHING,18.669,-3.437,1.783,0.00,0.00,5.50,1.089,2.126,7.749,2.139,2.123,0,0,SEARCHING,0.000,0.781,0.000,0.517
23:15:05.547,SEARCHING,18.813,-3.418,1.783,0.00,0.00,10.08,0.913,1.593,3.407,1.566,1.564,0,0,SEARCHING,0.000,0.586,0.000,0.147
23:15:05.749,SEARCHING,18.913,-3.399,1.783,0.00,0.00,10.53,0.822,1.379,2.835,1.362,1.357,0,0,SEARCHING,0.000,0.400,0.000,-0.096
23:15:05.947,SEARCHING,18.984,-3.387,1.783,0.00,0.00,8.94,0.778,1.313,2.651,1.276,1.283,0,0,SEARCHING,0.000,0.320,0.000,-0.191
23:15:06.148,SEARCHING,19.045,-3.378,1.783,0.00,0.00,6.58,0.785,1.341,2.581,1.340,1.337,0,0,SEARCHING,0.000,0.302,0.000,-0.221
23:15:06.348,SEARCHING,19.106,-3.372,1.783,0.00,0.00,4.03,0.801,1.429,1.959,1.442,1.445,0,0,SEARCHING,0.000,0.317,0.000,-0.225
23:15:06.548,SEARCHING,19.161,-3.369,1.779,0.00,0.00,1.77,0.826,1.463,2.136,1.463,1.528,0,0,SEARCHING,0.000,0.310,-0.050,-0.212
23:15:06.749,SEARCHING,19.217,-3.369,1.771,0.00,0.00,0.25,0.853,1.631,5.786,1.672,1.665,0,0,SEARCHING,0.000,0.390,-0.012,-0.055
23:15:06.949,SEARCHING,19.292,-3.368,1.770,0.00,0.00,1.22,0.856,1.726,9.504,1.704,1.726,0,0,SEARCHING,0.000,0.455,-0.003,0.309
23:15:07.150,SEARCHING,19.383,-3.364,1.770,0.00,0.00,4.35,0.785,1.472,3.154,1.476,1.498,0,0,SEARCHING,0.000,0.415,-0.001,0.059
23:15:07.351,SEARCHING,19.460,-3.358,1.770,0.00,0.00,3.81,0.733,1.346,2.339,1.337,1.359,0,0,SEARCHING,0.000,0.340,-0.000,-0.179
23:15:07.552,SEARCHING,19.524,-3.354,1.770,0.00,0.00,1.34,0.735,1.358,2.190,1.378,1.419,0,0,SEARCHING,0.000,0.309,-0.000,-0.254
23:15:07.753,SEARCHING,19.587,-3.354,1.770,0.00,0.00,-1.64,0.778,1.582,2.082,1.558,1.567,0,0,SEARCHING,0.000,0.350,-0.000,-0.258
23:15:07.952,SEARCHING,19.662,-3.358,1.770,0.00,0.00,-3.82,0.823,1.829,8.031,1.853,1.844,0,0,SEARCHING,0.000,0.439,-0.000,0.032
23:15:08.153,SEARCHING,19.759,-3.364,1.770,0.00,0.00,-2.01,0.809,1.874,9.162,1.881,1.863,0,0,SEARCHING,0.000,0.532,-0.000,0.320
23:15:08.354,SEARCHING,19.862,-3.365,1.770,0.00,0.00,0.89,0.727,1.471,2.683,1.421,1.479,0,0,SEARCHING,0.000,0.443,-0.000,0.005
23:15:08.554,SEARCHING,19.942,-3.364,1.770,0.00,0.00,-0.28,0.699,1.375,1.935,1.256,1.391,0,0,SEARCHING,0.000,0.350,-0.022,-0.225
23:15:08.755,SEARCHING,19.995,-3.365,1.765,0.00,0.00,-2.70,0.724,1.629,1.757,1.603,1.640,0,0,SEARCHING,0.000,0.353,-0.013,-0.279
23:15:08.956,SEARCHING,20.065,-3.370,1.764,0.00,0.00,-4.94,0.755,1.668,7.234,1.662,1.637,0,0,SEARCHING,0.000,0.418,-0.003,-0.041
23:15:09.156,SEARCHING,20.150,-3.377,1.764,0.00,0.00,-4.17,0.781,1.604,8.485,1.605,1.579,0,0,SEARCHING,0.000,0.425,-0.001,0.221
23:15:09.357,SEARCHING,20.233,-3.381,1.764,0.00,0.00,-2.05,0.733,1.528,3.231,1.528,1.520,0,0,SEARCHING,0.000,0.396,-0.000,0.001
23:15:09.557,SEARCHING,20.309,-3.384,1.764,0.00,0.00,-3.18,0.694,1.445,1.643,1.440,1.440,0,0,SEARCHING,0.000,0.358,-0.000,-0.222
23:15:09.758,SEARCHING,20.378,-3.390,1.764,0.00,0.00,-5.98,0.734,1.378,5.101,1.380,1.373,0,0,SEARCHING,0.000,0.329,-0.000,-0.197
23:15:09.959,SEARCHING,20.442,-3.397,1.764,0.00,0.00,-7.11,0.781,1.293,7.930,1.300,1.286,0,0,SEARCHING,0.000,0.303,-0.000,0.094
23:15:10.159,SEARCHING,20.500,-3.404,1.764,0.00,0.00,-5.21,0.757,1.234,8.252,1.242,1.236,0,0,SEARCHING,0.000,0.278,-0.000,0.246
23:15:10.360,SEARCHING,20.554,-3.408,1.764,0.00,0.00,-3.24,0.704,1.185,1.999,1.185,1.184,0,0,SEARCHING,0.000,0.258,-0.000,-0.059
23:15:10.560,SEARCHING,20.605,-3.411,1.764,0.00,0.00,-4.91,0.691,1.145,1.282,1.146,1.144,0,0,SEARCHING,0.000,0.252,-0.000,-0.226
23:15:10.761,SEARCHING,20.655,-3.416,1.764,0.00,0.00,-7.57,0.730,1.092,1.128,1.095,1.094,0,0,SEARCHING,0.000,0.250,-0.000,-0.219
23:15:10.961,SEARCHING,20.704,-3.424,1.764,0.00,0.00,-9.27,0.979,1.031,7.161,1.032,1.031,0,0,SEARCHING,0.000,0.250,-0.000,0.056
23:15:11.162,SEARCHING,20.754,-3.431,1.764,0.00,0.00,-7.53,0.961,0.992,7.683,0.993,0.993,0,0,SEARCHING,0.000,0.250,-0.000,0.266
23:15:11.362,SEARCHING,20.804,-3.437,1.764,0.00,0.00,-5.16,0.936,0.947,1.741,0.949,0.948,0,0,SEARCHING,0.000,0.250,-0.000,0.021
23:15:11.563,SEARCHING,20.853,-3.441,1.764,0.00,0.00,-5.47,0.893,0.899,0.984,0.901,0.899,0,0,SEARCHING,0.000,0.250,-0.000,-0.048
23:15:11.762,SEARCHING,20.903,-3.446,1.764,0.00,0.00,-5.94,0.834,0.842,0.848,0.843,0.842,0,0,SEARCHING,0.000,0.250,-0.000,-0.025
23:15:12.001,INSPECTING,20.953,-3.452,1.764,0.00,0.00,-6.15,0.784,0.793,0.795,0.794,0.793,0,0,SEARCHING,0.000,0.175,-0.000,-0.012
23:15:12.163,INSPECTING,20.991,-3.456,1.764,0.00,0.00,-8.27,0.735,0.746,0.754,0.747,0.747,0,0,INSPECT_RIGHT,0.000,0.159,-0.000,-0.383
23:15:12.364,INSPECTING,21.021,-3.462,1.764,0.00,0.00,-13.15,0.693,0.716,3.946,0.716,0.716,0,0,INSPECT_RIGHT,0.000,0.227,-0.000,-0.472
23:15:12.564,INSPECTING,21.077,-3.477,1.764,0.00,0.00,-18.68,0.635,0.674,5.968,0.673,0.674,0,0,INSPECT_RIGHT,0.000,0.358,-0.000,-0.493
23:15:12.765,INSPECTING,21.147,-3.505,1.764,0.00,0.00,-24.36,0.562,0.615,5.422,0.615,0.616,0,0,INSPECT_RIGHT,0.000,0.390,-0.000,-0.498
23:15:12.966,SEARCHING,21.217,-3.540,1.764,0.00,0.00,-30.08,0.481,5.013,4.868,3.070,3.190,0,0,INSPECT_RIGHT,0.000,0.398,-0.000,-0.500
23:15:13.168,SEARCHING,21.312,-3.601,1.764,0.00,0.00,-35.21,0.420,6.358,4.596,4.168,4.343,0,0,SEARCHING,0.000,0.703,-0.000,-0.410
23:15:13.367,SEARCHING,21.430,-3.691,1.764,0.00,0.00,-39.12,8.142,6.040,4.270,4.300,4.542,0,0,SEARCHING,0.000,0.777,-0.000,-0.292
23:15:13.569,SEARCHING,21.548,-3.793,1.764,0.00,0.00,-43.20,8.614,5.350,3.972,4.316,4.574,0,0,SEARCHING,0.000,0.794,-0.000,-0.441
23:15:13.768,SEARCHING,21.660,-3.907,1.764,0.00,0.00,-48.35,7.665,4.913,3.810,4.329,4.576,0,0,SEARCHING,0.000,0.799,-0.000,-0.433
23:15:13.969,SEARCHING,21.762,-4.030,1.764,0.00,0.00,-52.94,6.249,4.470,3.612,4.338,4.398,0,0,SEARCHING,0.000,0.800,-0.000,-0.331
23:15:14.172,SEARCHING,21.854,-4.160,1.764,0.00,0.00,-56.37,5.608,4.184,3.468,4.158,4.203,0,0,SEARCHING,0.000,0.800,-0.000,-0.250
23:15:14.371,SEARCHING,21.940,-4.295,1.764,0.00,0.00,-58.94,4.956,3.877,3.288,3.879,3.882,0,0,SEARCHING,0.000,0.800,-0.000,-0.184
23:15:14.571,SEARCHING,22.020,-4.434,1.764,0.00,0.00,-60.87,4.643,3.719,3.181,3.724,3.697,0,0,SEARCHING,0.000,0.800,-0.000,-0.145
23:15:14.772,SEARCHING,22.097,-4.574,1.764,0.00,0.00,-62.42,4.352,3.564,3.060,3.572,3.569,0,0,SEARCHING,0.000,0.800,-0.000,-0.120
23:15:14.973,SEARCHING,22.169,-4.717,1.764,0.00,0.00,-63.71,4.038,3.356,2.904,3.357,3.357,0,0,SEARCHING,0.000,0.800,-0.000,-0.101
23:15:15.173,SEARCHING,22.239,-4.861,1.764,0.00,0.00,-64.80,3.792,3.168,2.808,3.194,3.188,0,0,SEARCHING,0.000,0.800,-0.000,-0.083
23:15:15.373,SEARCHING,22.306,-5.006,1.764,0.00,0.00,-65.69,3.588,3.006,2.686,3.015,3.024,0,0,SEARCHING,0.000,0.800,-0.000,-0.069
23:15:15.574,SEARCHING,22.371,-5.153,1.764,0.00,0.00,-66.44,3.432,2.851,2.548,2.856,2.863,0,0,SEARCHING,0.000,0.800,-0.000,-0.060
23:15:15.774,SEARCHING,22.434,-5.300,1.764,0.00,0.00,-67.10,3.199,2.695,2.389,2.711,2.697,0,0,SEARCHING,0.000,0.800,-0.000,-0.051
23:15:15.976,SEARCHING,22.496,-5.447,1.764,0.00,0.00,-67.64,2.941,2.521,2.271,2.567,2.527,0,0,SEARCHING,0.000,0.800,-0.000,-0.040
23:15:16.176,SEARCHING,22.556,-5.595,1.764,0.00,0.00,-68.05,2.771,2.380,2.150,2.393,2.381,0,0,SEARCHING,0.000,0.800,-0.000,-0.029
23:15:16.379,SEARCHING,22.615,-5.744,1.764,0.00,0.00,-68.34,2.652,2.266,2.051,2.268,2.271,0,0,SEARCHING,0.000,0.800,-0.000,-0.021
23:15:16.578,SEARCHING,22.674,-5.893,1.764,0.00,0.00,-68.56,2.442,2.081,1.898,2.089,2.081,0,0,SEARCHING,0.000,0.800,-0.000,-0.013
23:15:16.778,SEARCHING,22.732,-6.041,1.764,0.00,0.00,-68.67,2.267,1.961,1.778,1.957,1.957,0,0,SEARCHING,0.000,0.779,-0.000,-0.004
23:15:16.979,SEARCHING,22.787,-6.182,1.764,0.00,0.00,-68.69,2.078,1.822,1.651,1.810,1.822,0,0,SEARCHING,0.000,0.707,-0.000,0.004
23:15:17.179,SEARCHING,22.837,-6.308,1.764,0.00,0.00,-68.60,1.971,1.718,1.559,1.709,1.712,0,0,SEARCHING,0.000,0.624,-0.000,0.012
23:15:17.380,SEARCHING,22.880,-6.419,1.764,0.00,0.00,-68.43,1.820,1.583,1.430,1.576,1.582,0,0,SEARCHING,0.000,0.536,-0.000,0.022
23:15:17.580,SEARCHING,22.918,-6.514,1.764,0.00,0.00,-68.14,1.712,1.482,1.348,1.474,1.476,0,0,SEARCHING,0.000,0.466,-0.000,0.030
23:15:17.780,SEARCHING,22.951,-6.596,1.764,0.00,0.00,-67.77,1.610,1.396,1.277,1.397,1.395,0,0,SEARCHING,0.000,0.411,-0.000,0.037
23:15:17.980,SEARCHING,22.981,-6.669,1.764,0.00,0.00,-67.33,1.546,1.331,1.218,1.329,1.330,0,0,SEARCHING,0.000,0.370,-0.000,0.043
23:15:18.182,SEARCHING,23.009,-6.735,1.764,0.00,0.00,-66.81,1.471,1.266,1.157,1.263,1.268,0,0,SEARCHING,0.000,0.331,-0.000,0.050
23:15:18.382,SEARCHING,23.035,-6.794,1.764,0.00,0.00,-66.20,1.413,1.205,1.089,1.203,1.205,0,0,SEARCHING,0.000,0.300,-0.000,0.059
23:15:18.583,SEARCHING,23.058,-6.846,1.764,0.00,0.00,-65.47,1.347,1.142,1.010,1.146,1.147,0,0,SEARCHING,0.000,0.270,-0.000,0.073
23:15:18.783,SEARCHING,23.080,-6.894,1.764,0.00,0.00,-64.57,1.307,1.103,0.962,1.108,1.109,0,0,SEARCHING,0.000,0.255,-0.000,0.087
23:15:18.983,SEARCHING,23.102,-6.939,1.764,0.00,0.00,-63.52,1.269,1.067,0.917,1.070,1.070,0,0,SEARCHING,0.000,0.251,-0.000,0.101
23:15:19.184,SEARCHING,23.125,-6.984,1.764,0.00,0.00,-62.31,1.235,1.026,0.874,1.025,1.027,0,0,SEARCHING,0.000,0.250,-0.000,0.114
23:15:19.386,SEARCHING,23.149,-7.028,1.764,0.00,0.00,-60.96,1.212,0.999,0.845,0.996,0.997,0,0,SEARCHING,0.000,0.250,-0.000,0.126
23:15:19.587,SEARCHING,23.174,-7.072,1.764,0.00,0.00,-59.45,1.183,0.959,0.804,0.954,0.956,0,0,SEARCHING,0.000,0.250,-0.000,0.142
23:15:19.788,SEARCHING,23.200,-7.114,1.764,0.00,0.00,-57.76,1.159,0.923,0.772,0.924,0.925,0,0,SEARCHING,0.000,0.250,-0.000,0.158
23:15:19.989,SEARCHING,23.227,-7.156,1.764,0.00,0.00,-55.88,1.144,0.898,0.739,0.896,0.896,0,0,SEARCHING,0.000,0.250,-0.000,0.176
23:15:20.188,SEARCHING,23.256,-7.197,1.764,0.00,0.00,-53.78,1.133,0.879,0.714,0.878,0.875,0,0,SEARCHING,0.000,0.250,-0.000,0.196
23:15:20.390,SEARCHING,23.286,-7.237,1.764,0.00,0.00,-51.45,1.132,0.852,0.683,0.851,0.852,0,0,SEARCHING,0.000,0.250,-0.000,0.220
23:15:20.589,SEARCHING,23.318,-7.275,1.764,0.00,0.00,-48.83,1.135,0.837,0.665,0.836,0.836,0,0,SEARCHING,0.000,0.250,-0.000,0.242
23:15:20.790,SEARCHING,23.351,-7.312,1.764,0.00,0.00,-45.97,1.144,0.820,0.638,0.822,0.823,0,0,SEARCHING,0.000,0.250,-0.000,0.266
23:15:20.990,SEARCHING,23.387,-7.347,1.764,0.00,0.00,-42.82,1.187,0.817,0.627,0.818,0.821,0,0,SEARCHING,0.000,0.250,-0.000,0.291
23:15:21.191,SEARCHING,23.425,-7.380,1.764,0.00,0.00,-39.37,1.280,0.823,0.613,0.822,0.822,0,0,SEARCHING,0.000,0.250,-0.000,0.321
23:15:21.392,SEARCHING,23.464,-7.411,1.764,0.00,0.00,-35.57,1.339,0.840,0.608,0.840,0.840,0,0,SEARCHING,0.000,0.250,-0.000,0.347
23:15:21.593,SEARCHING,23.506,-7.439,1.764,0.00,0.00,-31.50,1.563,0.882,0.609,0.879,0.876,0,0,SEARCHING,0.000,0.250,-0.000,0.370
23:15:21.793,SEARCHING,23.549,-7.463,1.764,0.00,0.00,-27.18,1.741,0.918,0.621,0.925,0.925,0,0,SEARCHING,0.000,0.250,-0.000,0.382
23:15:21.994,SEARCHING,23.594,-7.485,1.764,0.00,0.00,-22.82,2.757,1.022,0.648,1.018,1.010,0,0,SEARCHING,0.000,0.250,-0.000,0.367
23:15:22.194,SEARCHING,23.641,-7.503,1.764,0.00,0.00,-19.04,5.610,1.122,0.677,1.113,1.105,0,0,SEARCHING,0.000,0.250,-0.000,0.215
23:15:22.396,SEARCHING,23.689,-7.518,1.764,0.00,0.00,-17.52,6.935,1.169,0.694,1.208,1.232,0,0,SEARCHING,0.000,0.250,-0.000,0.004
23:15:22.596,SEARCHING,23.736,-7.533,1.764,0.00,0.00,-17.95,7.114,1.134,0.687,1.219,1.230,0,0,SEARCHING,0.000,0.250,-0.000,-0.084
23:15:22.797,SEARCHING,23.784,-7.549,1.764,0.00,0.00,-19.02,7.148,1.072,0.654,1.113,1.150,0,0,SEARCHING,0.000,0.250,-0.000,-0.095
23:15:22.997,SEARCHING,23.831,-7.566,1.764,0.00,0.00,-20.00,6.867,1.013,0.619,1.026,1.070,0,0,SEARCHING,0.000,0.250,-0.000,-0.057
23:15:23.197,SEARCHING,23.878,-7.583,1.764,0.00,0.00,-20.41,6.750,0.976,0.598,0.977,1.010,0,0,SEARCHING,0.000,0.250,-0.000,-0.003
23:15:23.399,SEARCHING,23.925,-7.601,1.764,0.00,0.00,-20.34,6.871,0.924,0.580,0.932,0.979,0,0,SEARCHING,0.000,0.250,-0.000,0.020
23:15:23.601,SEARCHING,23.972,-7.618,1.764,0.00,0.00,-20.02,7.144,0.901,0.556,0.921,0.959,0,0,SEARCHING,0.000,0.250,-0.000,0.033
23:15:23.802,SEARCHING,24.019,-7.635,1.764,0.00,0.00,-19.56,6.983,0.904,0.544,0.925,0.931,0,0,SEARCHING,0.000,0.250,-0.000,0.058
23:15:24.001,SEARCHING,24.066,-7.651,1.764,0.00,0.00,-18.79,6.830,0.905,0.527,0.915,0.912,0,0,SEARCHING,0.000,0.250,-0.000,0.089
23:15:24.201,SEARCHING,24.113,-7.667,1.764,0.00,0.00,-17.62,6.738,0.912,0.522,0.893,0.890,0,0,SEARCHING,0.000,0.250,-0.000,0.120
23:15:24.402,SEARCHING,24.161,-7.682,1.764,0.00,0.00,-16.19,6.797,0.966,0.520,0.915,0.900,0,0,SEARCHING,0.000,0.250,-0.000,0.129
23:15:24.603,SEARCHING,24.209,-7.695,1.764,0.00,0.00,-14.71,6.771,0.990,0.525,0.956,0.957,0,0,SEARCHING,0.000,0.250,-0.000,0.129
23:15:24.803,SEARCHING,24.258,-7.707,1.764,0.00,0.00,-13.23,6.737,0.990,0.529,0.983,0.982,0,0,SEARCHING,0.000,0.250,-0.000,0.129
23:15:25.004,SEARCHING,24.307,-7.718,1.764,0.00,0.00,-11.76,6.730,1.015,0.534,1.048,1.055,0,0,SEARCHING,0.000,0.250,-0.000,0.126
23:15:25.205,SEARCHING,24.356,-7.728,1.764,0.00,0.00,-10.34,6.628,1.020,0.538,1.075,1.061,0,0,SEARCHING,0.000,0.250,-0.000,0.123
23:15:25.406,SEARCHING,24.400,-7.735,1.759,0.00,0.00,-9.10,6.660,1.353,0.553,1.082,1.463,0,0,SEARCHING,0.000,0.260,-0.131,0.110
23:15:25.605,SEARCHING,24.446,-7.742,1.731,0.00,0.00,-8.17,6.708,1.568,0.567,1.461,1.525,0,0,SEARCHING,0.000,0.330,-0.092,0.088
23:15:25.806,SEARCHING,24.501,-7.750,1.717,0.00,0.00,-7.47,6.727,1.632,0.576,1.570,1.532,0,0,SEARCHING,0.000,0.373,-0.022,0.065
23:15:26.008,SEARCHING,24.564,-7.758,1.714,0.00,0.00,-6.94,6.730,1.682,0.587,1.655,1.624,0,0,SEARCHING,0.000,0.410,-0.005,0.050
23:15:26.208,SEARCHING,24.647,-7.768,1.714,0.00,0.00,-6.39,6.665,1.704,0.572,1.701,1.700,0,0,SEARCHING,0.000,0.429,-0.001,0.054
23:15:26.408,SEARCHING,24.733,-7.777,1.714,0.00,0.00,-5.72,6.593,1.726,0.584,1.724,1.770,0,0,SEARCHING,0.000,0.439,-0.000,0.061
23:15:26.609,SEARCHING,24.821,-7.785,1.714,0.00,0.00,-5.03,6.549,1.801,0.580,1.780,1.784,0,0,SEARCHING,0.000,0.455,-0.000,0.063
23:15:26.810,SEARCHING,24.914,-7.793,1.714,0.00,0.00,-4.32,6.488,1.837,0.587,1.857,1.835,0,0,SEARCHING,0.000,0.491,-0.000,0.063
23:15:27.011,SEARCHING,25.004,-7.799,1.709,0.00,0.00,-3.96,6.381,3.466,0.743,1.845,2.847,0,0,SEARCHING,0.000,0.593,-0.147,-0.026
23:15:27.212,SEARCHING,25.114,-7.807,1.679,0.00,0.00,-4.45,6.359,3.545,0.750,2.533,3.650,0,0,SEARCHING,0.000,0.750,-0.165,-0.070
23:15:27.411,SEARCHING,25.238,-7.817,1.640,0.00,0.00,-5.15,6.356,3.420,0.735,3.102,2.072,0,0,SEARCHING,0.000,0.788,-0.085,-0.077
23:15:27.613,SEARCHING,25.364,-7.829,1.640,0.00,0.00,-5.84,6.429,3.263,0.709,3.284,2.647,0,0,SEARCHING,0.000,0.797,0.123,-0.069
23:15:27.814,SEARCHING,25.491,-7.843,1.662,0.00,0.00,-6.38,6.249,3.206,0.679,3.233,3.120,0,0,SEARCHING,0.000,0.799,0.045,-0.041
23:15:28.014,SEARCHING,25.618,-7.857,1.668,0.00,0.00,-6.60,6.122,3.190,0.656,3.198,3.162,0,0,SEARCHING,0.000,0.800,0.011,-0.003
23:15:28.215,SEARCHING,25.761,-7.874,1.669,0.00,0.00,-6.45,6.033,3.070,0.636,3.047,3.077,0,0,SEARCHING,0.000,0.800,0.003,0.035
23:15:28.417,SEARCHING,25.920,-7.891,1.669,0.00,0.00,-5.89,5.806,2.893,0.621,2.940,2.946,0,0,SEARCHING,0.000,0.800,0.001,0.073
23:15:28.617,SEARCHING,26.080,-7.907,1.669,0.00,0.00,-4.96,5.685,2.860,0.622,2.888,2.909,0,0,SEARCHING,0.000,0.800,0.000,0.094
23:15:28.817,SEARCHING,26.239,-7.919,1.669,0.00,0.00,-3.81,5.638,3.250,0.630,3.031,3.010,0,0,SEARCHING,0.000,0.800,0.000,0.105
23:15:29.017,SEARCHING,26.399,-7.928,1.669,0.00,0.00,-2.60,5.558,3.829,1.079,3.762,3.836,0,0,SEARCHING,0.000,0.800,0.000,0.026
23:15:29.217,SEARCHING,26.559,-7.936,1.669,0.00,0.00,-3.15,5.531,3.750,1.169,3.923,4.063,0,0,SEARCHING,0.000,0.800,0.000,-0.132
23:15:29.419,SEARCHING,26.718,-7.946,1.669,0.00,0.00,-4.88,5.498,3.346,1.149,3.337,3.597,0,0,SEARCHING,0.000,0.800,-0.016,-0.168
23:15:29.618,SEARCHING,26.846,-7.959,1.666,0.00,0.00,-6.46,5.659,2.943,1.113,2.874,3.116,0,0,SEARCHING,0.000,0.800,-0.026,-0.178
23:15:29.821,SEARCHING,26.973,-7.975,1.660,0.00,0.00,-8.13,5.850,2.392,1.044,2.396,2.444,0,0,SEARCHING,0.000,0.800,-0.012,-0.184
23:15:30.020,SEARCHING,27.115,-7.997,1.659,0.00,0.00,-10.03,5.986,2.128,0.989,2.071,2.112,0,0,SEARCHING,0.000,0.777,-0.003,-0.182
23:15:30.221,SEARCHING,27.259,-8.025,1.659,0.00,0.00,-12.10,6.406,1.739,0.882,1.736,1.757,0,0,SEARCHING,0.000,0.625,-0.001,-0.178
23:15:30.423,SEARCHING,27.369,-8.051,1.659,0.00,0.00,-14.15,6.861,1.573,0.813,1.581,1.572,0,0,SEARCHING,0.000,0.484,-0.000,-0.181
23:15:30.623,SEARCHING,27.456,-8.074,1.659,0.00,0.00,-16.21,7.064,1.478,0.758,1.484,1.480,0,0,SEARCHING,0.000,0.398,-0.000,-0.175
23:15:30.823,SEARCHING,27.528,-8.096,1.659,0.00,0.00,-18.13,7.258,1.394,0.704,1.388,1.394,0,0,SEARCHING,0.000,0.344,-0.000,-0.154
23:15:31.024,SEARCHING,27.590,-8.117,1.659,0.00,0.00,-19.81,7.533,1.251,0.645,1.240,1.237,0,0,SEARCHING,0.000,0.296,-0.000,-0.133
23:15:31.226,SEARCHING,27.643,-8.137,1.659,0.00,0.00,-21.19,5.189,1.141,0.608,1.140,1.121,0,0,SEARCHING,0.000,0.262,-0.000,-0.020
23:15:31.425,SEARCHING,27.691,-8.155,1.659,0.00,0.00,-20.29,3.204,1.087,0.587,1.086,1.075,0,0,SEARCHING,0.000,0.253,-0.000,0.238
23:15:31.626,SEARCHING,27.738,-8.172,1.659,0.00,0.00,-17.70,6.928,1.139,0.604,1.139,1.132,0,0,SEARCHING,0.000,0.251,-0.000,0.117
23:15:31.826,SEARCHING,27.786,-8.187,1.659,0.00,0.00,-16.99,7.259,1.110,0.623,1.110,1.110,0,0,SEARCHING,0.000,0.250,-0.000,-0.010
23:15:32.027,SEARCHING,27.834,-8.201,1.659,0.00,0.00,-17.33,7.200,1.055,0.615,1.053,1.053,0,0,SEARCHING,0.000,0.250,-0.000,-0.046
23:15:32.228,SEARCHING,27.881,-8.216,1.659,0.00,0.00,-17.84,7.175,1.014,0.595,1.016,1.014,0,0,SEARCHING,0.000,0.250,-0.000,-0.036
23:15:32.429,SEARCHING,27.929,-8.232,1.659,0.00,0.00,-18.16,7.247,0.962,0.580,0.965,0.968,0,0,SEARCHING,0.000,0.250,-0.000,-0.016
23:15:32.629,SEARCHING,27.977,-8.248,1.659,0.00,0.00,-18.28,7.207,0.911,0.562,0.917,0.917,0,0,SEARCHING,0.000,0.250,-0.000,0.004
23:15:32.830,SEARCHING,28.024,-8.263,1.659,0.00,0.00,-18.09,7.238,0.864,0.543,0.868,0.867,0,0,SEARCHING,0.000,0.250,-0.000,0.035
23:15:33.030,SEARCHING,28.072,-8.279,1.659,0.00,0.00,-17.62,7.221,0.807,0.538,0.817,0.818,0,0,SEARCHING,0.000,0.250,-0.000,0.050
23:15:33.230,INSPECTING,28.119,-8.293,1.659,0.00,0.00,-16.87,7.168,0.705,0.538,0.758,0.762,0,0,INSPECT_LEFT,0.000,0.290,-0.000,0.282
23:15:33.431,INSPECTING,28.183,-8.311,1.659,0.00,0.00,-12.71,6.885,0.820,0.562,0.836,0.767,0,0,INSPECT_LEFT,0.000,0.374,-0.000,0.448
23:15:33.632,INSPECTING,28.258,-8.324,1.659,0.00,0.00,-7.36,6.353,0.946,0.596,1.000,1.046,0,0,INSPECT_LEFT,0.000,0.394,-0.000,0.487
23:15:33.833,SEARCHING,28.336,-8.331,1.659,0.00,0.00,-2.18,5.874,1.877,0.573,1.914,2.151,0,0,SEARCHING,0.000,0.422,-0.023,0.321
23:15:34.033,SEARCHING,28.422,-8.333,1.652,0.00,0.00,-0.09,5.535,6.722,0.574,2.631,2.953,0,0,SEARCHING,0.000,0.681,-0.057,0.186
23:15:34.233,SEARCHING,28.540,-8.331,1.642,0.00,0.00,1.40,5.334,7.313,0.702,4.108,4.118,0,0,SEARCHING,0.000,0.771,-0.022,0.115
23:15:34.433,SEARCHING,28.666,-8.327,1.639,0.00,0.00,2.11,5.137,7.198,0.829,4.611,4.298,0,0,SEARCHING,0.000,0.793,0.012,0.035
23:15:34.635,SEARCHING,28.793,-8.323,1.644,0.00,0.00,2.21,5.034,7.156,0.886,4.597,4.366,0,0,SEARCHING,0.000,0.798,0.029,-0.009
23:15:34.835,SEARCHING,28.921,-8.318,1.648,0.00,0.00,2.01,5.024,7.064,0.958,4.619,4.398,0,0,SEARCHING,0.000,0.800,0.007,-0.039
23:15:35.036,SEARCHING,29.081,-8.313,1.648,0.00,0.00,1.43,4.986,6.976,0.971,4.595,4.375,0,0,SEARCHING,0.000,0.800,0.002,-0.063
23:15:35.237,SEARCHING,29.241,-8.310,1.648,0.00,0.00,0.67,4.966,6.939,1.017,4.582,4.372,0,0,SEARCHING,0.000,0.800,0.000,-0.074
23:15:35.438,SEARCHING,29.401,-8.309,1.648,0.00,0.00,-0.21,4.915,6.980,1.011,4.587,4.396,0,0,SEARCHING,0.000,0.800,0.000,-0.077
23:15:35.638,SEARCHING,29.561,-8.311,1.648,0.00,0.00,-1.08,4.829,6.950,1.006,4.624,4.344,0,0,SEARCHING,0.000,0.800,0.016,-0.073
23:15:35.841,SEARCHING,29.689,-8.314,1.653,0.00,0.00,-1.69,4.782,7.111,1.012,4.648,4.350,0,0,SEARCHING,0.000,0.800,0.044,-0.064
23:15:36.041,SEARCHING,29.817,-8.318,1.661,0.00,0.00,-2.26,4.769,7.135,1.009,4.603,4.412,0,0,SEARCHING,0.000,0.800,0.016,-0.061
23:15:37.968,SEARCHING,29.961,-8.324,1.663,0.00,0.00,-2.89,4.738,7.038,1.022,4.571,4.414,0,0,SEARCHING,0.000,0.800,0.004,-0.062
23:15:37.979,SEARCHING,30.120,-8.333,1.663,0.00,0.00,-3.60,4.738,7.038,1.022,4.571,4.414,0,0,SEARCHING,0.000,0.800,0.001,-0.062
23:15:38.062,SEARCHING,30.280,-8.344,1.663,0.00,0.00,-4.32,4.679,6.709,0.994,4.574,4.405,0,0,SEARCHING,0.000,0.800,0.000,-0.057
23:15:38.246,SEARCHING,30.439,-8.357,1.663,0.00,0.00,-5.09,4.647,6.497,1.665,4.583,4.401,0,0,SEARCHING,0.000,0.800,0.000,-0.109
23:15:38.445,SEARCHING,30.599,-8.373,1.663,0.00,0.00,-6.59,4.667,6.373,1.663,4.577,4.400,0,0,SEARCHING,0.000,0.800,0.000,-0.153
23:15:38.644,SEARCHING,30.757,-8.394,1.663,0.00,0.00,-8.38,4.648,6.108,1.581,4.558,4.370,0,0,SEARCHING,0.000,0.800,0.000,-0.159
23:15:38.846,SEARCHING,30.915,-8.419,1.663,0.00,0.00,-10.20,4.711,5.930,1.511,4.583,4.364,0,0,SEARCHING,0.000,0.800,0.000,-0.159
23:15:39.047,SEARCHING,31.072,-8.450,1.663,0.00,0.00,-12.02,4.760,5.778,1.420,4.536,4.407,0,0,SEARCHING,0.000,0.800,0.000,-0.157
23:15:39.247,SEARCHING,31.228,-8.485,1.663,0.00,0.00,-13.80,4.871,5.490,1.304,4.578,4.387,0,0,SEARCHING,0.000,0.800,0.000,-0.152
23:15:39.447,SEARCHING,31.383,-8.526,1.663,0.00,0.00,-15.51,5.041,5.186,1.188,4.491,4.232,0,0,SEARCHING,0.000,0.800,0.000,-0.145
23:15:39.647,SEARCHING,31.537,-8.571,1.663,0.00,0.00,-17.14,5.114,4.593,1.110,3.164,3.311,0,0,SEARCHING,0.000,0.800,0.000,-0.135
23:15:39.848,SEARCHING,31.689,-8.620,1.663,0.00,0.00,-18.68,5.218,4.380,1.118,2.528,2.555,0,0,SEARCHING,0.000,0.800,0.000,-0.137
23:15:40.050,SEARCHING,31.840,-8.673,1.663,0.00,0.00,-20.26,5.230,2.921,1.055,2.197,2.191,0,0,SEARCHING,0.000,0.800,0.000,-0.134
23:15:40.251,SEARCHING,31.989,-8.730,1.663,0.00,0.00,-21.69,5.110,2.048,0.972,1.973,1.960,0,0,SEARCHING,0.000,0.762,0.000,-0.104
23:15:40.450,SEARCHING,32.121,-8.783,1.663,0.00,0.00,-22.72,4.910,1.796,0.911,1.793,1.798,0,0,SEARCHING,0.000,0.618,0.000,-0.062
23:15:40.651,SEARCHING,32.227,-8.828,1.663,0.00,0.00,-23.25,4.710,1.672,0.868,1.674,1.664,0,0,SEARCHING,0.000,0.513,0.000,-0.018
23:15:40.851,SEARCHING,32.316,-8.867,1.663,0.00,0.00,-23.31,4.603,1.586,0.831,1.596,1.573,0,0,SEARCHING,0.000,0.448,0.000,0.017
23:15:41.052,SEARCHING,32.396,-8.901,1.663,0.00,0.00,-22.99,4.511,1.520,0.811,1.530,1.522,0,0,SEARCHING,0.000,0.405,0.000,0.045
23:15:41.255,SEARCHING,32.468,-8.931,1.663,0.00,0.00,-22.39,4.464,1.498,0.802,1.521,1.502,0,0,SEARCHING,0.000,0.380,0.000,0.062
23:15:41.455,SEARCHING,32.538,-8.960,1.663,0.00,0.00,-21.64,4.445,2.769,0.794,1.478,2.801,0,0,SEARCHING,0.000,0.503,-0.127,0.072
23:15:41.654,SEARCHING,32.634,-8.997,1.630,0.00,0.00,-20.93,4.406,3.673,0.793,3.277,3.523,0,0,SEARCHING,0.000,0.729,-0.134,0.081
23:15:41.857,SEARCHING,32.749,-9.040,1.610,0.00,0.00,-20.16,4.304,3.776,0.782,3.770,3.721,0,0,SEARCHING,0.000,0.783,-0.038,0.091
23:15:42.057,SEARCHING,32.868,-9.083,1.604,0.00,0.00,-19.26,4.198,3.757,0.779,3.737,3.771,0,0,SEARCHING,0.000,0.796,-0.009,0.105
23:15:42.259,SEARCHING,33.019,-9.134,1.604,0.00,0.00,-18.02,4.118,3.676,0.775,3.656,3.691,0,0,SEARCHING,0.000,0.799,-0.002,0.115
23:15:42.459,SEARCHING,33.171,-9.182,1.604,0.00,0.00,-16.67,3.945,3.511,0.799,3.493,3.509,0,0,SEARCHING,0.000,0.800,-0.001,0.120
23:15:42.659,SEARCHING,33.325,-9.226,1.604,0.00,0.00,-15.66,3.818,3.417,1.708,3.402,3.407,0,0,SEARCHING,0.000,0.800,-0.000,0.002
23:15:42.859,SEARCHING,33.479,-9.270,1.604,0.00,0.00,-16.03,3.670,3.286,1.964,3.279,3.275,0,0,SEARCHING,0.000,0.800,-0.000,-0.068
23:15:43.059,SEARCHING,33.632,-9.315,1.604,0.00,0.00,-16.87,3.498,3.120,1.966,3.110,3.104,0,0,SEARCHING,0.000,0.800,-0.000,-0.075
23:15:43.262,SEARCHING,33.785,-9.362,1.604,0.00,0.00,-17.71,3.327,2.947,1.979,2.954,2.941,0,0,SEARCHING,0.000,0.800,-0.000,-0.068
23:15:43.461,SEARCHING,33.937,-9.412,1.604,0.00,0.00,-18.43,3.131,2.811,1.966,2.812,2.808,0,0,SEARCHING,0.000,0.800,-0.000,-0.054
23:15:43.662,SEARCHING,34.089,-9.463,1.604,0.00,0.00,-19.00,2.921,2.653,1.922,2.663,2.639,0,0,SEARCHING,0.000,0.800,-0.000,-0.040
23:15:43.863,SEARCHING,34.240,-9.516,1.604,0.00,0.00,-19.41,2.759,2.491,1.961,2.485,2.481,0,0,SEARCHING,0.000,0.800,-0.000,-0.029
23:15:44.063,SEARCHING,34.391,-9.569,1.604,0.00,0.00,-19.70,2.564,2.344,1.942,2.348,2.343,0,0,SEARCHING,0.000,0.800,-0.000,-0.019
23:15:44.264,SEARCHING,34.541,-9.624,1.604,0.00,0.00,-19.88,2.395,2.187,1.927,2.196,2.193,0,0,SEARCHING,0.000,0.800,-0.000,-0.010
23:15:44.465,SEARCHING,34.692,-9.678,1.604,0.00,0.00,-19.97,2.232,2.044,1.861,2.045,2.045,0,0,SEARCHING,0.000,0.800,-0.000,-0.004
23:15:44.665,SEARCHING,34.840,-9.732,1.604,0.00,0.00,-19.99,2.068,1.890,1.739,1.893,1.887,0,0,SEARCHING,0.000,0.749,-0.000,0.002
23:15:44.865,SEARCHING,34.975,-9.781,1.604,0.00,0.00,-19.94,1.919,1.755,1.607,1.758,1.757,0,0,SEARCHING,0.000,0.658,-0.000,0.009
23:15:45.066,SEARCHING,35.093,-9.824,1.604,0.00,0.00,-19.82,1.777,1.621,1.493,1.624,1.622,0,0,SEARCHING,0.000,0.568,-0.000,0.015
23:15:45.266,SEARCHING,35.194,-9.860,1.604,0.00,0.00,-19.62,1.661,1.516,1.392,1.518,1.517,0,0,SEARCHING,0.000,0.493,-0.000,0.022
23:15:45.465,SEARCHING,35.283,-9.891,1.604,0.00,0.00,-19.34,1.563,1.423,1.300,1.424,1.423,0,0,SEARCHING,0.000,0.429,-0.000,0.028
23:15:45.666,SEARCHING,35.360,-9.918,1.604,0.00,0.00,-18.99,1.472,1.338,1.222,1.338,1.339,0,0,SEARCHING,0.000,0.378,-0.000,0.035
23:15:45.866,SEARCHING,35.429,-9.942,1.604,0.00,0.00,-18.56,1.403,1.269,1.153,1.272,1.270,0,0,SEARCHING,0.000,0.337,-0.000,0.042
23:15:46.067,SEARCHING,35.490,-9.962,1.604,0.00,0.00,-18.05,1.337,1.206,1.096,1.206,1.203,0,0,SEARCHING,0.000,0.302,-0.000,0.049
23:15:46.267,SEARCHING,35.546,-9.980,1.604,0.00,0.00,-17.46,1.280,1.147,1.042,1.146,1.149,0,0,SEARCHING,0.000,0.273,-0.000,0.056
23:15:46.468,SEARCHING,35.596,-9.996,1.604,0.00,0.00,-16.79,1.229,1.099,0.994,1.098,1.100,0,0,SEARCHING,0.000,0.256,-0.000,0.063
23:15:46.670,SEARCHING,35.645,-10.010,1.604,0.00,0.00,-16.04,1.183,1.051,0.949,1.049,1.051,0,0,SEARCHING,0.000,0.251,-0.000,0.071
23:15:46.870,SEARCHING,35.693,-10.024,1.604,0.00,0.00,-15.19,1.139,1.008,0.905,1.010,1.011,0,0,SEARCHING,0.000,0.250,-0.000,0.080
23:15:47.069,SEARCHING,35.742,-10.036,1.604,0.00,0.00,-14.25,1.098,0.965,0.862,0.966,0.967,0,0,SEARCHING,0.000,0.250,-0.000,0.089
23:15:47.270,SEARCHING,35.790,-10.048,1.604,0.00,0.00,-13.18,1.056,0.924,0.821,0.924,0.925,0,0,SEARCHING,0.000,0.250,-0.000,0.100
23:15:47.470,SEARCHING,35.839,-10.059,1.604,0.00,0.00,-11.99,1.019,0.883,0.779,0.883,0.884,0,0,SEARCHING,0.000,0.250,-0.000,0.112
23:15:47.671,SEARCHING,35.888,-10.069,1.604,0.00,0.00,-10.64,0.980,0.843,0.739,0.841,0.843,0,0,SEARCHING,0.000,0.250,-0.000,0.127
23:15:47.872,SEARCHING,35.937,-10.078,1.604,0.00,0.00,-9.12,0.944,0.804,0.700,0.805,0.803,0,0,SEARCHING,0.000,0.250,-0.000,0.144
23:15:48.072,INSPECTING,35.985,-10.085,1.604,0.00,0.00,-7.31,0.910,0.767,0.661,0.766,0.767,0,0,INSPECT_LEFT,0.000,0.179,-0.000,0.330
23:15:48.273,INSPECTING,36.021,-10.088,1.604,0.00,0.00,-2.82,0.911,0.746,0.634,0.748,0.748,0,0,INSPECT_LEFT,0.000,0.181,-0.000,0.459
23:15:48.473,INSPECTING,36.058,-10.088,1.604,0.00,0.00,2.62,0.956,0.752,0.619,0.750,0.751,0,0,INSPECT_LEFT,0.000,0.186,-0.000,0.490
23:15:48.674,INSPECTING,36.095,-10.085,1.604,0.00,0.00,8.28,1.027,0.769,0.610,0.768,0.768,0,0,INSPECT_LEFT,0.000,0.197,-0.000,0.498
23:15:48.873,INSPECTING,36.135,-10.077,1.604,0.00,0.00,13.99,1.142,0.797,0.612,0.796,0.799,0,0,INSPECT_LEFT,0.000,0.214,-0.000,0.499
23:15:49.075,INSPECTING,36.177,-10.065,1.604,0.00,0.00,19.72,1.307,0.843,0.619,0.844,0.844,0,0,INSPECT_LEFT,0.000,0.240,-0.000,0.500
23:15:49.276,INSPECTING,36.224,-10.045,1.604,0.00,0.00,25.44,1.600,0.906,0.636,0.910,0.909,0,0,INSPECT_LEFT,0.000,0.283,-0.000,0.500
23:15:49.476,INSPECTING,36.278,-10.017,1.604,0.00,0.00,31.17,2.024,1.002,0.664,0.999,1.005,0,0,INSPECT_LEFT,0.000,0.348,-0.000,0.500
23:15:49.676,INSPECTING,36.339,-9.976,1.604,0.00,0.00,36.90,2.307,1.136,0.701,1.135,1.142,0,0,INSPECT_LEFT,0.000,0.387,-0.000,0.500
23:15:49.877,INSPECTING,36.399,-9.926,1.604,0.00,0.00,42.63,2.320,1.371,0.761,1.368,1.365,0,0,INSPECT_LEFT,0.000,0.397,-0.000,0.500
23:15:50.078,SEARCHING,36.455,-9.870,1.604,0.00,0.00,47.98,2.285,1.692,0.850,1.725,1.723,0,0,SEARCHING,0.000,0.413,-0.000,0.351
23:15:50.278,SEARCHING,36.515,-9.799,1.604,0.00,0.00,51.30,2.239,2.162,0.943,2.166,2.156,0,0,SEARCHING,0.000,0.592,-0.000,0.211
23:15:50.479,SEARCHING,36.595,-9.695,1.604,0.00,0.00,53.43,2.160,2.235,1.024,2.223,2.240,0,0,SEARCHING,0.000,0.739,-0.000,0.151
