timestamp,state,x,z,roll_deg,pitch_deg,yaw_deg,left,center,right,top,bottom,cmd_vx,cmd_vz,cmd_roll,cmd_yaw
2026-05-11 20:34:00.240693,SEARCHING,0.000,1.000,0.00,0.00,0.00,10.000,10.000,10.000,10.000,10.000,0.700,0.000,0.000,0.000
2026-05-11 20:34:00.440987,SEARCHING,0.119,1.000,0.00,0.00,0.00,10.000,10.000,10.000,10.000,10.000,0.700,0.000,0.000,0.000
2026-05-11 20:34:00.653905,SEARCHING,0.259,1.000,0.00,0.00,0.00,10.000,10.000,10.000,10.000,10.000,0.700,0.000,0.000,0.000
2026-05-11 20:34:00.876560,SEARCHING,0.399,1.000,0.00,0.00,0.84,4.767,4.487,2.222,4.487,3.178,0.700,0.055,0.108,0.216
2026-05-11 20:34:01.096975,SEARCHING,0.539,1.000,0.00,0.00,3.27,4.487,4.974,2.288,4.868,4.086,0.700,0.024,0.096,0.193
2026-05-11 20:34:01.313323,SEARCHING,0.679,1.000,0.00,0.00,5.47,4.086,6.730,2.409,4.868,6.934,0.700,-0.037,0.077,0.153
2026-05-11 20:34:01.504510,SEARCHING,0.818,1.000,0.00,0.00,7.25,3.814,6.730,2.460,4.868,4.670,0.700,0.005,0.065,0.130
2026-05-11 20:34:01.714623,SEARCHING,0.956,1.000,0.00,0.00,8.72,3.632,5.720,2.542,4.868,4.487,0.700,0.010,0.053,0.106
2026-05-11 20:34:01.920574,SEARCHING,1.094,1.000,0.00,0.00,9.90,3.575,6.184,2.630,4.868,5.321,0.700,-0.010,0.045,0.090
2026-05-11 20:34:02.129607,SEARCHING,1.232,1.000,0.00,0.00,10.93,3.415,5.867,3.011,4.868,4.767,0.700,0.003,0.018,0.035
2026-05-11 20:34:02.350971,SEARCHING,1.370,1.000,0.00,0.00,11.32,3.269,5.720,3.223,4.974,5.321,0.700,-0.008,0.002,0.004
2026-05-11 20:34:02.544363,SEARCHING,1.507,1.000,0.00,0.00,11.36,3.223,5.581,3.316,4.868,4.974,0.700,-0.003,-0.004,-0.008
2026-05-11 20:34:02.760317,SEARCHING,1.644,1.000,0.00,0.00,11.28,3.223,5.321,3.178,4.868,5.085,0.700,-0.005,0.002,0.004
2026-05-11 20:34:02.967395,SEARCHING,1.781,1.000,0.00,0.00,11.21,3.223,5.581,3.467,4.868,5.085,0.700,-0.005,-0.010,-0.020
2026-05-11 20:34:03.178578,SEARCHING,1.919,1.000,0.00,0.00,11.00,3.134,5.321,3.945,4.868,5.085,0.700,-0.005,-0.029,-0.059
2026-05-11 20:34:03.386351,SEARCHING,2.056,1.000,0.00,0.00,10.37,3.134,5.200,4.086,4.868,4.868,0.700,0.000,-0.033,-0.067
2026-05-11 20:34:03.610942,SEARCHING,2.194,1.000,0.00,0.00,9.63,3.316,4.868,4.014,4.868,4.868,0.700,0.000,-0.024,-0.047
2026-05-11 20:34:03.838111,SEARCHING,2.332,1.000,0.00,0.00,9.07,3.269,4.868,3.945,4.868,4.974,0.700,-0.003,-0.024,-0.047
2026-05-11 20:34:04.032686,SEARCHING,2.471,1.000,0.00,0.00,8.56,3.051,4.974,3.520,4.868,4.767,0.700,0.003,-0.020,-0.039
2026-05-11 20:34:04.238177,SEARCHING,2.609,1.000,0.00,0.00,8.08,3.011,4.868,3.575,4.868,4.767,0.700,0.003,-0.024,-0.047
2026-05-11 20:34:04.444170,SEARCHING,2.748,1.000,0.00,0.00,7.60,3.011,4.767,3.178,4.767,4.487,0.700,0.008,-0.008,-0.016
2026-05-11 20:34:04.649902,SEARCHING,2.887,1.000,0.00,0.00,6.88,2.972,4.767,7.627,4.767,4.487,0.700,0.008,-0.092,-0.185
2026-05-11 20:34:04.863531,SEARCHING,3.026,1.000,0.00,0.00,4.81,3.051,4.868,4.086,4.767,4.767,0.700,0.000,-0.037,-0.075
2026-05-11 20:34:05.082354,SEARCHING,3.165,1.000,0.00,0.00,4.04,3.134,4.974,2.630,4.868,4.868,0.700,0.000,0.028,0.055
2026-05-11 20:34:05.283714,SEARCHING,3.305,1.000,0.00,0.00,4.38,3.134,4.868,5.720,4.868,4.670,0.700,0.005,-0.065,-0.130
2026-05-11 20:34:05.472777,SEARCHING,3.445,1.000,0.00,0.00,3.02,3.092,4.767,7.381,4.767,4.767,0.700,0.000,-0.085,-0.169
2026-05-11 20:34:05.706183,SEARCHING,3.585,1.000,0.00,0.00,1.10,3.178,4.974,4.086,4.868,4.868,0.700,0.000,-0.031,-0.063
2026-05-11 20:34:05.896223,SEARCHING,3.725,1.000,0.00,0.00,0.08,3.269,4.974,3.814,4.868,4.868,0.700,0.000,-0.020,-0.039
2026-05-11 20:34:06.097120,SEARCHING,3.865,1.000,0.00,0.00,-0.37,3.178,4.974,3.751,4.868,4.767,0.700,0.003,-0.022,-0.043
2026-05-11 20:34:06.307971,SEARCHING,4.005,1.000,0.00,0.00,-1.04,3.051,4.868,5.581,4.868,4.767,0.700,0.003,-0.067,-0.134
2026-05-11 20:34:06.516192,SEARCHING,4.145,1.000,0.00,0.00,-2.57,3.051,4.868,6.184,4.868,4.576,0.700,0.008,-0.075,-0.149
2026-05-11 20:34:06.713511,SEARCHING,4.284,1.000,0.00,0.00,-4.12,3.134,5.085,5.867,4.868,4.868,0.700,0.000,-0.067,-0.134
2026-05-11 20:34:06.933055,SEARCHING,4.424,1.000,0.00,0.00,-5.22,3.223,5.200,3.878,4.868,4.974,0.700,-0.003,-0.024,-0.047
2026-05-11 20:34:07.131081,SEARCHING,4.563,1.000,0.00,0.00,-5.74,3.223,5.200,3.945,4.974,4.974,0.700,0.000,-0.026,-0.051
2026-05-11 20:34:07.332878,SEARCHING,4.702,1.000,0.00,0.00,-6.29,3.178,5.200,4.160,4.974,4.974,0.700,0.000,-0.033,-0.067
2026-05-11 20:34:07.543769,SEARCHING,4.842,1.000,0.00,0.00,-6.97,3.223,5.200,4.086,4.868,5.085,0.700,-0.005,-0.029,-0.059
2026-05-11 20:34:07.734672,SEARCHING,4.980,1.000,0.00,0.00,-7.64,3.223,5.200,4.160,4.868,5.085,0.700,-0.005,-0.031,-0.063
2026-05-11 20:34:07.962806,SEARCHING,5.119,1.000,0.00,0.00,-8.35,3.223,5.200,4.317,4.868,4.767,0.700,0.003,-0.035,-0.071
2026-05-11 20:34:08.165769,SEARCHING,5.257,1.000,0.00,0.00,-9.15,3.178,5.200,4.014,4.868,4.974,0.700,-0.003,-0.029,-0.059
2026-05-11 20:34:08.359344,SEARCHING,5.396,1.000,0.00,0.00,-9.88,3.134,5.200,3.878,4.868,4.767,0.700,0.003,-0.028,-0.055
2026-05-11 20:34:08.575929,SEARCHING,5.533,1.000,0.00,0.00,-10.58,3.092,5.200,4.160,4.868,4.974,0.700,-0.003,-0.037,-0.075
2026-05-11 20:34:08.776974,SEARCHING,5.671,1.000,0.00,0.00,-11.40,3.134,5.321,4.014,4.868,4.974,0.700,-0.003,-0.031,-0.063
2026-05-11 20:34:08.973064,SEARCHING,5.808,1.000,0.00,0.00,-12.12,3.178,5.321,3.945,4.868,5.200,0.700,-0.008,-0.028,-0.055
2026-05-11 20:34:09.192931,SEARCHING,5.945,1.000,0.00,0.00,-12.79,3.134,5.321,4.014,4.868,5.200,0.700,-0.008,-0.031,-0.063
2026-05-11 20:34:09.389536,SEARCHING,6.081,1.000,0.00,0.00,-13.50,3.223,5.200,3.945,4.868,5.200,0.700,-0.008,-0.026,-0.051
2026-05-11 20:34:09.591250,SEARCHING,6.217,1.000,0.00,0.00,-14.11,3.178,5.085,3.945,4.868,4.974,0.700,-0.003,-0.028,-0.055
2026-05-11 20:34:09.804210,SEARCHING,6.352,1.000,0.00,0.00,-14.73,3.223,4.868,3.878,4.868,4.974,0.700,-0.003,-0.024,-0.047
2026-05-11 20:34:10.015280,SEARCHING,6.488,1.000,0.00,0.00,-15.31,3.178,4.670,3.878,4.670,4.974,0.700,-0.008,-0.026,-0.051
2026-05-11 20:34:10.235978,SEARCHING,6.623,1.000,0.00,0.00,-15.90,3.178,4.576,3.878,4.576,4.974,0.700,-0.010,-0.026,-0.051
2026-05-11 20:34:10.432473,SEARCHING,6.757,1.000,0.00,0.00,-16.50,3.178,4.237,3.814,4.487,4.974,0.700,-0.013,-0.024,-0.047
2026-05-11 20:34:10.633695,SEARCHING,6.891,1.000,0.00,0.00,-17.09,3.134,4.160,3.878,4.400,4.974,0.700,-0.016,-0.028,-0.055
2026-05-11 20:34:10.842441,SEARCHING,7.025,1.000,0.00,0.00,-17.72,3.134,4.086,3.878,4.237,4.974,0.700,-0.021,-0.028,-0.055
2026-05-11 20:34:11.037081,SEARCHING,7.158,1.000,0.00,0.00,-18.32,3.134,4.014,3.814,4.160,4.974,0.700,-0.024,-0.026,-0.051
2026-05-11 20:34:11.251441,SEARCHING,7.291,1.000,0.00,0.00,-18.93,3.178,3.751,4.237,3.945,5.085,0.700,-0.034,-0.035,-0.071
2026-05-11 20:34:11.454752,SEARCHING,7.423,1.000,0.00,0.00,-19.70,3.223,3.751,4.160,3.814,4.974,0.700,-0.037,-0.031,-0.063
2026-05-11 20:34:11.658544,SEARCHING,7.554,1.000,0.00,0.00,-20.45,3.269,3.575,4.160,3.691,5.085,0.700,-0.045,-0.029,-0.059
2026-05-11 20:34:11.876801,SEARCHING,7.685,1.000,0.00,0.00,-21.10,3.365,3.415,4.014,3.575,5.085,0.700,-0.050,-0.022,-0.043
2026-05-11 20:34:12.172717,SEARCHING,7.881,1.000,0.00,0.00,-21.82,3.269,3.316,3.945,3.365,4.974,0.700,-0.058,-0.024,-0.047
2026-05-11 20:34:13.074820,SEARCHING,8.010,1.000,0.00,0.00,-22.35,3.223,3.269,3.878,3.316,5.200,0.700,-0.066,-0.024,-0.047
2026-05-11 20:34:14.099298,SEARCHING,8.140,1.000,0.00,0.00,-22.94,3.134,3.134,3.945,3.178,5.085,0.700,-0.071,-0.029,-0.059
2026-05-11 20:34:14.132156,SEARCHING,8.268,1.000,0.00,0.00,-23.62,3.092,3.092,3.945,3.134,4.974,0.700,-0.071,-0.031,-0.063
2026-05-11 20:34:14.311839,SEARCHING,8.396,1.000,0.00,0.00,-24.33,3.134,2.692,3.945,2.825,5.321,0.700,-0.100,-0.029,-0.059
2026-05-11 20:34:14.527402,SEARCHING,8.523,1.000,0.00,0.00,-25.00,3.134,2.630,3.945,2.692,4.974,0.700,-0.102,-0.029,-0.059
2026-05-11 20:34:14.730573,SEARCHING,8.650,1.000,0.00,0.00,-25.65,3.178,2.542,3.751,2.571,5.200,0.700,-0.118,-0.022,-0.043
2026-05-11 20:34:14.937107,SEARCHING,8.776,1.000,0.00,0.00,-26.20,3.178,2.335,3.751,2.409,5.085,0.700,-0.131,-0.022,-0.043
2026-05-11 20:34:15.152825,SEARCHING,8.901,1.000,0.00,0.00,-26.74,3.178,2.266,3.814,2.288,5.085,0.700,-0.144,-0.024,-0.047
2026-05-11 20:34:15.353451,SEARCHING,9.026,1.000,0.00,0.00,-27.29,2.335,2.179,3.878,2.179,5.581,0.700,-0.168,-0.077,-0.153
2026-05-11 20:34:15.556154,SEARCHING,9.150,1.000,0.00,0.00,-28.42,3.178,1.990,3.751,2.061,6.184,0.696,-0.194,-0.022,-0.043
2026-05-11 20:34:15.772788,SEARCHING,9.270,1.000,0.00,0.00,-29.52,1.973,1.891,3.575,1.891,5.720,0.662,-0.212,-0.102,-0.205
2026-05-11 20:34:15.973526,SEARCHING,9.382,1.000,0.00,0.00,-31.93,1.802,1.733,3.365,1.760,6.022,0.607,-0.241,-0.116,-0.232
2026-05-11 20:34:16.185448,SEARCHING,9.482,1.000,0.00,0.00,-34.63,1.634,1.611,2.972,1.623,5.867,0.564,-0.267,-0.124,-0.248
2026-05-11 20:34:16.382908,SEARCHING,9.573,1.000,0.00,0.00,-37.45,1.496,1.525,2.542,1.536,4.767,0.534,-0.265,-0.124,-0.248
2026-05-11 20:34:16.595476,SEARCHING,9.657,1.000,0.00,0.00,-40.30,1.362,5.321,2.266,1.567,4.237,0.700,-0.241,-0.132,-0.264
2026-05-11 20:34:16.814064,SEARCHING,9.758,1.000,0.00,0.00,-43.38,1.237,4.576,2.061,4.576,3.269,0.700,0.052,-0.146,-0.291
2026-05-11 20:34:17.001282,SEARCHING,9.857,1.000,0.00,0.00,-46.84,1.122,4.086,1.891,4.160,3.223,0.700,0.042,-0.163,-0.326
2026-05-11 20:34:17.215064,SEARCHING,9.950,1.000,0.00,0.00,-50.80,1.095,3.415,1.623,3.365,2.630,0.700,0.050,-0.134,-0.267
2026-05-11 20:34:17.420997,SEARCHING,10.035,1.000,0.00,0.00,-54.05,5.720,2.757,1.467,2.724,2.692,0.700,0.003,0.228,0.456
2026-05-11 20:34:17.630404,SEARCHING,10.120,1.000,0.00,0.00,-49.98,6.184,2.692,1.404,2.724,2.661,0.700,0.005,0.248,0.496
2026-05-11 20:34:17.823784,SEARCHING,10.215,1.000,0.00,0.00,-44.38,6.356,3.223,1.525,3.269,2.860,0.700,0.026,0.224,0.448
2026-05-11 20:34:18.066397,SEARCHING,10.319,1.000,0.00,0.00,-39.39,7.151,3.751,1.860,3.751,3.223,0.700,0.026,0.179,0.358
2026-05-11 20:34:18.266778,SEARCHING,10.430,1.000,0.00,0.00,-35.33,8.172,4.487,2.159,4.487,3.223,0.700,0.052,0.153,0.307
2026-05-11 20:34:18.479244,SEARCHING,10.546,1.000,0.00,0.00,-32.24,4.400,5.581,2.692,4.868,4.237,0.700,0.018,0.065,0.130
2026-05-11 20:34:18.676988,SEARCHING,10.665,1.000,0.00,0.00,-30.67,3.945,5.867,2.600,4.868,3.365,0.700,0.055,0.059,0.118
2026-05-11 20:34:18.896779,SEARCHING,10.787,1.000,0.00,0.00,-29.35,3.751,5.720,2.724,4.868,4.237,0.700,0.018,0.045,0.090
2026-05-11 20:34:19.098136,SEARCHING,10.909,1.000,0.00,0.00,-28.35,3.575,5.867,2.860,4.868,4.767,0.700,0.003,0.031,0.063
2026-05-11 20:34:19.308773,SEARCHING,11.033,1.000,0.00,0.00,-27.64,3.467,6.184,2.972,4.868,4.487,0.700,0.010,0.022,0.043
2026-05-11 20:34:19.512248,SEARCHING,11.157,1.000,0.00,0.00,-27.13,3.415,5.867,3.092,4.868,4.487,0.700,0.010,0.014,0.028
2026-05-11 20:34:19.743035,SEARCHING,11.282,1.000,0.00,0.00,-26.78,3.365,6.184,3.051,4.868,4.487,0.700,0.010,0.014,0.028
2026-05-11 20:34:19.944750,SEARCHING,11.407,1.000,0.00,0.00,-26.50,3.365,6.184,3.092,4.868,4.487,0.700,0.010,0.012,0.024
2026-05-11 20:34:20.151709,SEARCHING,11.532,1.000,0.00,0.00,-26.24,3.415,6.184,3.092,4.868,4.767,0.700,0.003,0.014,0.028
2026-05-11 20:34:20.353626,SEARCHING,11.658,1.000,0.00,0.00,-25.94,3.365,5.581,3.011,4.868,4.400,0.700,0.013,0.016,0.031
2026-05-11 20:34:20.563872,SEARCHING,11.784,1.000,0.00,0.00,-25.60,3.365,5.720,3.051,4.868,4.400,0.700,0.013,0.014,0.028
2026-05-11 20:34:20.763055,SEARCHING,11.911,1.000,0.00,0.00,-25.27,3.415,6.022,3.134,4.868,4.868,0.700,0.000,0.012,0.024
2026-05-11 20:34:20.986955,SEARCHING,12.037,1.000,0.00,0.00,-24.98,3.415,6.022,3.134,4.868,4.767,0.700,0.003,0.012,0.024
2026-05-11 20:34:21.185776,SEARCHING,12.164,1.000,0.00,0.00,-24.74,3.365,5.448,3.134,4.868,4.160,0.700,0.021,0.010,0.020
2026-05-11 20:34:21.395871,SEARCHING,12.292,1.000,0.00,0.00,-24.52,3.365,5.720,3.134,4.868,5.085,0.700,-0.005,0.010,0.020
2026-05-11 20:34:21.590455,SEARCHING,12.419,1.000,0.00,0.00,-24.32,3.316,5.581,3.178,4.868,4.317,0.700,0.016,0.006,0.012
2026-05-11 20:34:21.801292,SEARCHING,12.547,1.000,0.00,0.00,-24.20,3.223,5.448,3.223,4.868,4.670,0.700,0.005,0.000,0.000
2026-05-11 20:34:22.017987,SEARCHING,12.674,1.000,0.00,0.00,-24.19,3.223,5.321,3.269,4.868,4.487,0.700,0.010,-0.002,-0.004
2026-05-11 20:34:22.225819,SEARCHING,12.802,1.000,0.00,0.00,-24.15,3.467,5.200,3.316,4.974,4.400,0.700,0.016,0.006,0.012
2026-05-11 20:34:22.442950,SEARCHING,12.930,1.000,0.00,0.00,-23.83,3.814,5.085,3.223,4.868,4.400,0.700,0.013,0.022,0.043
2026-05-11 20:34:22.646236,SEARCHING,13.058,1.000,0.00,0.00,-23.27,3.878,5.200,3.092,4.868,4.317,0.700,0.016,0.029,0.059
2026-05-11 20:34:22.864118,SEARCHING,13.187,1.000,0.00,0.00,-22.59,3.814,5.200,3.051,4.868,4.400,0.700,0.013,0.029,0.059
2026-05-11 20:34:23.057828,SEARCHING,13.317,1.000,0.00,0.00,-21.87,3.878,5.321,3.051,4.868,4.237,0.700,0.018,0.031,0.063
2026-05-11 20:34:23.264985,SEARCHING,13.447,1.000,0.00,0.00,-21.14,3.814,5.321,3.051,4.868,4.317,0.700,0.016,0.029,0.059
2026-05-11 20:34:23.467355,SEARCHING,13.578,1.000,0.00,0.00,-20.48,3.751,5.321,3.092,4.868,4.317,0.700,0.016,0.026,0.051
2026-05-11 20:34:23.675232,SEARCHING,13.709,1.000,0.00,0.00,-19.90,3.751,5.321,3.134,4.868,4.317,0.700,0.016,0.024,0.047
2026-05-11 20:34:23.885216,SEARCHING,13.841,1.000,0.00,0.00,-19.36,3.751,5.321,3.134,4.868,4.317,0.700,0.016,0.024,0.047
2026-05-11 20:34:24.100123,SEARCHING,13.973,1.000,0.00,0.00,-18.80,3.814,5.448,3.178,4.974,4.400,0.700,0.016,0.024,0.047
2026-05-11 20:34:24.308371,SEARCHING,14.106,1.000,0.00,0.00,-18.25,3.945,5.720,3.269,4.868,4.317,0.700,0.016,0.024,0.047
2026-05-11 20:34:24.499388,SEARCHING,14.239,1.000,0.00,0.00,-17.71,3.878,5.720,3.269,4.868,3.575,0.700,0.045,0.022,0.043
2026-05-11 20:34:24.711790,SEARCHING,14.373,1.000,0.00,0.00,-17.21,3.945,5.867,3.134,4.868,4.487,0.700,0.010,0.029,0.059
2026-05-11 20:34:24.921647,SEARCHING,14.507,1.000,0.00,0.00,-16.58,3.878,5.867,3.178,4.868,4.237,0.700,0.018,0.026,0.051
2026-05-11 20:34:25.117862,SEARCHING,14.641,1.000,0.00,0.00,-15.95,3.814,5.867,3.092,4.868,4.317,0.700,0.016,0.028,0.055
2026-05-11 20:34:25.330848,SEARCHING,14.776,1.000,0.00,0.00,-15.31,3.751,5.720,3.092,4.868,4.400,0.700,0.013,0.026,0.051
2026-05-11 20:34:25.534953,SEARCHING,14.911,1.000,0.00,0.00,-14.74,3.691,5.581,3.051,4.868,4.400,0.700,0.013,0.026,0.051
2026-05-11 20:34:25.737045,SEARCHING,15.047,1.000,0.00,0.00,-14.19,3.632,5.448,3.092,4.868,4.237,0.700,0.018,0.022,0.043
2026-05-11 20:34:25.986707,SEARCHING,15.182,1.000,0.00,0.00,-13.68,3.575,5.200,3.092,4.868,4.237,0.700,0.018,0.020,0.039
2026-05-11 20:34:26.209696,SEARCHING,15.319,1.000,0.00,0.00,-13.25,3.467,5.321,3.051,4.868,4.974,0.700,-0.003,0.018,0.035
2026-05-11 20:34:26.400600,SEARCHING,15.455,1.000,0.00,0.00,-12.85,3.467,5.085,3.092,4.868,4.400,0.700,0.013,0.016,0.031
2026-05-11 20:34:26.600919,SEARCHING,15.592,1.000,0.00,0.00,-12.48,3.467,4.974,3.092,4.868,4.974,0.700,-0.003,0.016,0.031
2026-05-11 20:34:26.815429,SEARCHING,15.728,1.000,0.00,0.00,-12.12,3.467,4.868,3.051,4.868,4.767,0.700,0.003,0.018,0.035
2026-05-11 20:34:27.024014,SEARCHING,15.865,1.000,0.00,0.00,-11.75,3.415,4.670,3.051,4.767,4.237,0.700,0.016,0.016,0.031
2026-05-11 20:34:27.230929,SEARCHING,16.002,1.000,0.00,0.00,-11.43,3.415,4.576,3.134,4.670,4.576,0.700,0.003,0.012,0.024
2026-05-11 20:34:27.432964,SEARCHING,16.140,1.000,0.00,0.00,-11.16,3.365,4.487,3.134,4.487,4.487,0.700,0.000,0.010,0.020
2026-05-11 20:34:27.650229,SEARCHING,16.277,1.000,0.00,0.00,-10.91,3.365,4.317,3.178,4.400,4.317,0.700,0.003,0.008,0.016
2026-05-11 20:34:27.857074,SEARCHING,16.415,1.000,0.00,0.00,-10.70,3.365,4.237,3.178,4.237,4.237,0.700,0.000,0.008,0.016
2026-05-11 20:34:28.065127,SEARCHING,16.552,1.000,0.00,0.00,-10.48,3.415,4.014,3.178,4.086,4.086,0.700,0.000,0.010,0.020
2026-05-11 20:34:28.270680,SEARCHING,16.690,1.000,0.00,0.00,-10.25,3.415,3.945,3.134,3.945,3.814,0.700,0.005,0.012,0.024
2026-05-11 20:34:28.479265,SEARCHING,16.828,1.000,0.00,0.00,-10.02,3.365,3.751,3.178,3.878,3.691,0.700,0.008,0.008,0.016
2026-05-11 20:34:28.693207,SEARCHING,16.966,1.000,0.00,0.00,-9.85,3.316,3.691,3.178,3.751,3.632,0.700,0.005,0.006,0.012
2026-05-11 20:34:28.905264,SEARCHING,17.104,1.000,0.00,0.00,-9.70,3.365,3.520,3.178,3.575,3.467,0.700,0.005,0.008,0.016
2026-05-11 20:34:29.103901,SEARCHING,17.242,1.000,0.00,0.00,-9.52,3.316,3.415,3.178,3.415,3.316,0.700,0.005,0.006,0.012
2026-05-11 20:34:29.301241,SEARCHING,17.380,1.000,0.00,0.00,-9.37,3.269,3.269,3.178,3.316,3.134,0.700,0.010,0.004,0.008
2026-05-11 20:34:29.515924,SEARCHING,17.518,1.000,0.00,0.00,-9.28,3.134,3.178,3.178,3.178,3.092,0.700,0.005,-0.002,-0.004
2026-05-11 20:34:29.722530,SEARCHING,17.656,1.000,0.00,0.00,-9.34,3.011,2.972,3.223,3.051,2.934,0.700,0.008,-0.010,-0.020
2026-05-11 20:34:29.930726,SEARCHING,17.794,1.000,0.00,0.00,-9.57,2.860,2.860,3.134,2.860,2.896,0.700,-0.003,-0.014,-0.028
2026-05-11 20:34:30.141778,SEARCHING,17.932,1.000,0.00,0.00,-9.89,2.724,2.724,3.134,2.757,2.757,0.700,0.000,-0.022,-0.043
2026-05-11 20:34:30.338079,SEARCHING,18.070,1.000,0.00,0.00,-10.40,2.600,2.724,3.092,2.724,2.724,0.700,0.000,-0.028,-0.055
2026-05-11 20:34:30.546468,SEARCHING,18.208,1.000,0.00,0.00,-11.07,2.434,2.542,2.972,2.630,2.661,0.700,-0.003,-0.033,-0.067
2026-05-11 20:34:30.753422,SEARCHING,18.345,1.000,0.00,0.00,-11.84,2.266,6.022,2.896,2.514,2.571,0.700,-0.005,-0.043,-0.087
2026-05-11 20:34:30.950283,SEARCHING,18.482,1.000,0.00,0.00,-12.80,2.099,7.381,2.790,2.460,2.434,0.700,0.003,-0.053,-0.106
2026-05-11 20:34:31.151497,SEARCHING,18.618,1.000,0.00,0.00,-13.99,2.007,7.151,2.724,4.767,2.288,0.700,0.136,-0.059,-0.118
2026-05-11 20:34:31.347958,SEARCHING,18.753,1.000,0.00,0.00,-15.41,1.845,8.475,2.661,4.767,5.867,0.700,-0.024,-0.075,-0.149
2026-05-11 20:34:31.575817,SEARCHING,18.888,1.000,0.00,0.00,-17.14,1.634,8.475,2.409,4.767,5.867,0.700,-0.024,-0.088,-0.177
2026-05-11 20:34:31.787942,SEARCHING,19.021,1.000,0.00,0.00,-19.16,1.578,7.381,2.288,4.868,5.867,0.700,-0.021,-0.088,-0.177
2026-05-11 20:34:31.995330,SEARCHING,19.152,1.000,0.00,0.00,-21.20,1.505,6.184,2.138,4.868,4.487,0.700,0.010,-0.088,-0.177
2026-05-11 20:34:32.199374,SEARCHING,19.282,1.000,0.00,0.00,-23.18,4.487,5.448,2.007,4.868,4.086,0.700,0.024,0.124,0.248
2026-05-11 20:34:32.449419,SEARCHING,19.411,1.000,0.00,0.00,-20.99,4.487,5.321,1.939,4.868,4.086,0.700,0.024,0.132,0.264
2026-05-11 20:34:32.643177,SEARCHING,19.543,1.000,0.00,0.00,-18.02,4.086,6.538,2.061,4.974,4.237,0.700,0.021,0.108,0.216
2026-05-11 20:34:32.856698,SEARCHING,19.677,1.000,0.00,0.00,-15.51,3.691,8.172,2.119,4.868,5.720,0.700,-0.018,0.090,0.181
2026-05-11 20:34:33.073167,SEARCHING,19.813,1.000,0.00,0.00,-13.42,3.575,8.172,2.630,4.868,6.356,0.700,-0.029,0.045,0.090
2026-05-11 20:34:33.277581,SEARCHING,19.949,1.000,0.00,0.00,-12.29,3.415,7.627,2.860,4.868,7.151,0.700,-0.039,0.026,0.051
2026-05-11 20:34:33.472782,SEARCHING,20.086,1.000,0.00,0.00,-11.74,3.415,6.934,3.092,4.868,6.356,0.700,-0.029,0.014,0.028
2026-05-11 20:34:33.691816,SEARCHING,20.223,1.000,0.00,0.00,-11.55,3.269,6.730,3.632,4.868,6.184,0.700,-0.026,-0.014,-0.028
2026-05-11 20:34:33.904024,SEARCHING,20.360,1.000,0.00,0.00,-11.86,3.134,6.730,3.751,4.868,6.730,0.700,-0.034,-0.024,-0.047
2026-05-11 20:34:34.099917,SEARCHING,20.497,1.000,0.00,0.00,-12.43,3.092,6.934,3.814,4.868,6.022,0.700,-0.024,-0.028,-0.055
2026-05-11 20:34:34.321227,SEARCHING,20.634,1.000,0.00,0.00,-13.07,3.134,6.934,3.691,4.767,6.730,0.700,-0.037,-0.022,-0.043
2026-05-11 20:34:34.534405,SEARCHING,20.770,1.000,0.00,0.00,-13.60,3.092,7.381,3.691,4.767,6.184,0.700,-0.029,-0.024,-0.047
2026-05-11 20:34:34.728335,SEARCHING,20.906,1.000,0.00,0.00,-14.08,3.092,7.627,3.520,4.868,6.538,0.700,-0.031,-0.018,-0.035
2026-05-11 20:34:34.943056,SEARCHING,21.042,1.000,0.00,0.00,-14.44,3.092,7.890,3.415,4.868,6.730,0.700,-0.034,-0.014,-0.028
2026-05-11 20:34:35.144220,SEARCHING,21.177,1.000,0.00,0.00,-14.76,3.092,6.730,3.365,4.868,6.184,0.700,-0.026,-0.012,-0.024
2026-05-11 20:34:35.360460,SEARCHING,21.313,1.000,0.00,0.00,-15.02,3.092,8.475,3.269,4.868,6.184,0.700,-0.026,-0.008,-0.016
2026-05-11 20:34:35.574478,SEARCHING,21.448,1.000,0.00,0.00,-15.21,3.051,8.801,3.223,4.767,2.384,0.700,0.126,-0.008,-0.016
2026-05-11 20:34:35.768028,SEARCHING,21.583,1.000,0.00,0.00,-15.39,3.051,8.801,3.223,4.868,5.200,0.700,-0.008,-0.008,-0.016
2026-05-11 20:34:36.003458,SEARCHING,21.718,1.000,0.00,0.00,-15.58,3.092,8.801,3.178,4.868,6.022,0.700,-0.024,-0.004,-0.008
2026-05-11 20:34:36.222560,SEARCHING,21.853,1.000,0.00,0.00,-15.68,3.178,8.801,3.178,4.868,6.184,0.700,-0.026,0.000,0.000
2026-05-11 20:34:36.428990,SEARCHING,21.987,1.000,0.00,0.00,-15.65,3.223,8.801,3.134,4.868,6.022,0.700,-0.024,0.004,0.008
2026-05-11 20:34:36.671691,SEARCHING,22.122,1.000,0.00,0.00,-15.52,3.365,8.801,3.134,4.868,6.022,0.700,-0.024,0.010,0.020
2026-05-11 20:34:36.862578,SEARCHING,22.257,1.000,0.00,0.00,-15.31,3.365,8.475,3.178,4.868,6.022,0.700,-0.024,0.008,0.016
2026-05-11 20:34:37.068274,SEARCHING,22.392,1.000,0.00,0.00,-15.13,3.316,8.801,3.134,4.868,6.022,0.700,-0.024,0.008,0.016
2026-05-11 20:34:37.289309,SEARCHING,22.527,1.000,0.00,0.00,-14.96,3.269,8.801,3.223,4.868,6.022,0.700,-0.024,0.002,0.004
2026-05-11 20:34:37.483834,SEARCHING,22.663,1.000,0.00,0.00,-14.90,3.269,8.475,3.223,4.868,6.022,0.700,-0.024,0.002,0.004
2026-05-11 20:34:37.689777,SEARCHING,22.798,1.000,0.00,0.00,-14.87,3.223,8.475,3.269,4.868,6.356,0.700,-0.029,-0.002,-0.004
2026-05-11 20:34:37.915058,SEARCHING,22.933,1.000,0.00,0.00,-14.91,3.178,8.172,3.316,4.868,6.022,0.700,-0.024,-0.006,-0.012
2026-05-11 20:34:38.129368,SEARCHING,23.069,1.000,0.00,0.00,-15.05,3.134,8.172,3.316,4.868,5.867,0.700,-0.021,-0.008,-0.016
2026-05-11 20:34:38.331208,SEARCHING,23.204,1.000,0.00,0.00,-15.25,3.134,8.475,3.365,4.868,6.022,0.700,-0.024,-0.010,-0.020
2026-05-11 20:34:38.540804,SEARCHING,23.339,1.000,0.00,0.00,-15.46,3.178,8.801,3.365,4.767,6.022,0.700,-0.026,-0.008,-0.016
2026-05-11 20:34:38.747483,SEARCHING,23.474,1.000,0.00,0.00,-15.65,3.178,8.172,3.316,4.868,5.867,0.700,-0.021,-0.006,-0.012
2026-05-11 20:34:38.962914,SEARCHING,23.608,1.000,0.00,0.00,-15.82,3.178,8.475,3.365,4.868,5.720,0.700,-0.018,-0.008,-0.016
2026-05-11 20:34:39.181586,SEARCHING,23.743,1.000,0.00,0.00,-16.00,3.178,8.172,3.365,4.868,4.576,0.700,0.008,-0.008,-0.016
2026-05-11 20:34:39.377338,SEARCHING,23.877,1.000,0.00,0.00,-16.16,3.223,8.475,3.316,4.974,5.720,0.700,-0.016,-0.004,-0.008
2026-05-11 20:34:39.585077,SEARCHING,24.012,1.000,0.00,0.00,-16.26,3.178,8.172,3.269,4.868,5.720,0.700,-0.018,-0.004,-0.008
2026-05-11 20:34:39.805315,SEARCHING,24.146,1.000,0.00,0.00,-16.36,3.223,8.475,3.269,4.868,5.867,0.700,-0.021,-0.002,-0.004
2026-05-11 20:34:39.996437,SEARCHING,24.281,1.000,0.00,0.00,-16.42,3.178,8.475,3.316,4.868,4.767,0.700,0.003,-0.006,-0.012
2026-05-11 20:34:40.206876,SEARCHING,24.415,1.000,0.00,0.00,-16.54,3.223,8.475,3.365,4.868,5.720,0.700,-0.018,-0.006,-0.012
2026-05-11 20:34:40.415523,SEARCHING,24.549,1.000,0.00,0.00,-16.68,3.223,8.475,3.316,4.868,5.867,0.700,-0.021,-0.004,-0.008
2026-05-11 20:34:40.613951,SEARCHING,24.683,1.000,0.00,0.00,-16.79,3.223,8.172,3.316,4.868,5.720,0.700,-0.018,-0.004,-0.008
2026-05-11 20:34:40.840678,SEARCHING,24.817,1.000,0.00,0.00,-16.89,3.223,8.475,3.316,4.868,5.867,0.700,-0.021,-0.004,-0.008
2026-05-11 20:34:41.045241,SEARCHING,24.951,1.000,0.00,0.00,-16.98,3.223,8.801,3.316,4.868,5.720,0.700,-0.018,-0.004,-0.008
2026-05-11 20:34:41.254890,SEARCHING,25.085,1.000,0.00,0.00,-17.05,3.223,8.172,3.269,4.868,5.867,0.700,-0.021,-0.002,-0.004
2026-05-11 20:34:41.458748,SEARCHING,25.219,1.000,0.00,0.00,-17.16,3.223,8.801,3.269,4.868,5.867,0.700,-0.021,-0.002,-0.004
2026-05-11 20:34:41.682124,SEARCHING,25.352,1.000,0.00,0.00,-17.21,3.223,8.801,3.269,4.868,5.867,0.700,-0.021,-0.002,-0.004
2026-05-11 20:34:41.871252,SEARCHING,25.486,1.000,0.00,0.00,-17.29,3.223,9.153,3.269,4.974,5.720,0.700,-0.016,-0.002,-0.004
2026-05-11 20:34:42.086129,SEARCHING,25.620,1.000,0.00,0.00,-17.31,3.223,9.153,3.269,4.974,5.867,0.700,-0.018,-0.002,-0.004
2026-05-11 20:34:42.301653,SEARCHING,25.753,1.000,0.00,0.00,-17.31,3.316,8.475,3.178,4.974,3.691,0.700,0.042,0.006,0.012
2026-05-11 20:34:42.479451,SEARCHING,25.887,1.000,0.00,0.00,-17.19,3.365,9.153,3.134,4.974,6.022,0.700,-0.021,0.010,0.020
2026-05-11 20:34:42.710599,SEARCHING,26.021,1.000,0.00,0.00,-16.97,3.365,8.475,3.134,4.868,6.184,0.700,-0.026,0.010,0.020
2026-05-11 20:34:42.906608,SEARCHING,26.155,1.000,0.00,0.00,-16.75,3.365,9.153,3.134,4.767,6.022,0.700,-0.026,0.010,0.020
2026-05-11 20:34:43.133657,SEARCHING,26.289,1.000,0.00,0.00,-16.51,3.365,8.475,3.134,4.670,6.022,0.700,-0.029,0.010,0.020
2026-05-11 20:34:43.325953,SEARCHING,26.423,1.000,0.00,0.00,-16.28,3.365,8.475,3.134,4.576,6.022,0.700,-0.031,0.010,0.020
2026-05-11 20:34:43.541057,SEARCHING,26.558,1.000,0.00,0.00,-16.06,3.365,8.172,3.178,4.487,6.730,0.700,-0.045,0.008,0.016
2026-05-11 20:34:43.757551,SEARCHING,26.692,1.000,0.00,0.00,-15.87,3.365,7.627,3.134,4.317,6.184,0.700,-0.042,0.010,0.020
2026-05-11 20:34:44.622275,SEARCHING,26.827,1.000,0.00,0.00,-15.67,3.365,8.475,3.134,4.237,6.022,0.700,-0.042,0.010,0.020
2026-05-11 20:34:44.656127,SEARCHING,26.962,1.000,0.00,0.00,-15.47,3.316,8.475,3.223,4.160,6.538,0.700,-0.052,0.004,0.008
2026-05-11 20:34:45.688432,SEARCHING,27.097,1.000,0.00,0.00,-15.36,3.269,7.381,3.223,3.878,6.356,0.700,-0.060,0.002,0.004
2026-05-11 20:34:45.705710,SEARCHING,27.232,1.000,0.00,0.00,-15.30,3.269,7.381,3.223,3.878,6.356,0.700,-0.060,0.002,0.004
2026-05-11 20:34:45.858044,SEARCHING,27.367,1.000,0.00,0.00,-15.25,3.269,8.172,3.178,3.575,6.184,0.700,-0.071,0.004,0.008
2026-05-11 20:34:46.058564,SEARCHING,27.502,1.000,0.00,0.00,-15.19,3.269,7.381,3.269,3.365,6.730,0.700,-0.089,0.000,0.000
2026-05-11 20:34:46.267684,SEARCHING,27.637,1.000,0.00,0.00,-15.16,3.269,7.381,3.178,3.316,6.730,0.700,-0.092,0.004,0.008
2026-05-11 20:34:46.479618,SEARCHING,27.772,1.000,0.00,0.00,-15.10,3.269,8.172,3.223,3.134,6.538,0.700,-0.100,0.002,0.004
2026-05-11 20:34:46.667792,SEARCHING,27.908,1.000,0.00,0.00,-15.05,3.269,7.627,3.223,2.934,6.184,0.700,-0.108,0.002,0.004
2026-05-11 20:34:46.887840,SEARCHING,28.043,1.000,0.00,0.00,-15.02,3.269,7.627,3.223,2.825,5.581,0.700,-0.105,0.002,0.004
2026-05-11 20:34:47.092508,SEARCHING,28.178,1.000,0.00,0.00,-14.98,3.269,7.381,3.223,2.757,4.237,0.700,-0.076,0.002,0.004
2026-05-11 20:34:47.300585,SEARCHING,28.313,1.000,0.00,0.00,-14.92,3.365,8.172,3.223,2.600,6.356,0.700,-0.136,0.006,0.012
2026-05-11 20:34:47.508119,SEARCHING,28.449,1.000,0.00,0.00,-14.79,3.316,7.381,3.178,2.514,5.867,0.700,-0.136,0.006,0.012
2026-05-11 20:34:47.725718,SEARCHING,28.584,1.000,0.00,0.00,-14.71,3.134,7.151,3.316,2.335,5.200,0.700,-0.142,-0.008,-0.016
2026-05-11 20:34:47.920971,SEARCHING,28.719,1.000,0.00,0.00,-14.84,3.223,7.381,3.467,2.222,4.237,0.700,-0.128,-0.010,-0.020
2026-05-11 20:34:48.132368,SEARCHING,28.855,1.000,0.00,0.00,-15.10,3.092,6.934,3.691,2.138,5.085,0.700,-0.163,-0.024,-0.047
2026-05-11 20:34:48.353472,SEARCHING,28.990,1.000,0.00,0.00,-15.63,3.011,7.381,3.691,2.043,5.720,0.700,-0.189,-0.028,-0.055
2026-05-11 20:34:48.540004,SEARCHING,29.124,1.000,0.00,0.00,-16.24,3.051,7.151,3.632,2.025,4.767,0.700,-0.170,-0.024,-0.047
2026-05-11 20:34:48.748603,SEARCHING,29.259,1.000,0.00,0.00,-16.81,3.092,7.151,3.575,4.868,5.200,0.700,-0.008,-0.020,-0.039
2026-05-11 20:34:48.945715,SEARCHING,29.392,1.000,0.00,0.00,-17.26,3.134,7.381,3.467,4.868,6.934,0.700,-0.037,-0.014,-0.028
2026-05-11 20:34:49.165616,SEARCHING,29.526,1.000,0.00,0.00,-17.61,3.092,7.151,3.467,4.868,4.974,0.700,-0.003,-0.016,-0.031
2026-05-11 20:34:49.364028,SEARCHING,29.659,1.000,0.00,0.00,-17.97,3.134,6.934,3.365,4.974,6.934,0.700,-0.034,-0.010,-0.020
2026-05-11 20:34:49.574245,SEARCHING,29.792,1.000,0.00,0.00,-18.21,3.134,6.730,3.365,4.868,4.237,0.700,0.018,-0.010,-0.020
2026-05-11 20:34:49.781237,SEARCHING,29.925,1.000,0.00,0.00,-18.42,3.134,6.730,3.316,4.974,6.538,0.700,-0.029,-0.008,-0.016
2026-05-11 20:34:49.984455,SEARCHING,30.058,1.000,0.00,0.00,-18.60,3.178,6.730,3.269,4.868,4.576,0.700,0.008,-0.004,-0.008
2026-05-11 20:34:50.190009,SEARCHING,30.191,1.000,0.00,0.00,-18.70,3.178,6.538,3.316,4.868,4.237,0.700,0.018,-0.006,-0.012
2026-05-11 20:34:50.401353,SEARCHING,30.323,1.000,0.00,0.00,-18.82,3.223,6.356,3.316,4.767,6.184,0.700,-0.029,-0.004,-0.008
2026-05-11 20:34:50.604093,SEARCHING,30.456,1.000,0.00,0.00,-18.89,3.223,6.356,3.269,4.868,4.487,0.700,0.010,-0.002,-0.004
2026-05-11 20:34:50.820577,SEARCHING,30.588,1.000,0.00,0.00,-18.94,3.223,6.184,3.269,4.868,5.720,0.700,-0.018,-0.002,-0.004
2026-05-11 20:34:51.009055,SEARCHING,30.721,1.000,0.00,0.00,-19.00,3.223,5.867,3.269,4.868,6.022,0.700,-0.024,-0.002,-0.004
2026-05-11 20:34:51.229283,SEARCHING,30.853,1.000,0.00,0.00,-19.05,3.223,5.867,3.223,4.868,5.581,0.700,-0.016,0.000,0.000
2026-05-11 20:34:51.446070,SEARCHING,30.985,1.000,0.00,0.00,-19.07,3.269,5.720,3.269,4.868,5.581,0.700,-0.016,0.000,0.000
2026-05-11 20:34:51.648455,SEARCHING,31.118,1.000,0.00,0.00,-19.08,3.223,5.581,3.269,4.868,5.085,0.700,-0.005,-0.002,-0.004
2026-05-11 20:34:51.858552,SEARCHING,31.250,1.000,0.00,0.00,-19.12,3.223,5.321,3.316,4.868,4.974,0.700,-0.003,-0.004,-0.008
2026-05-11 20:34:52.071672,SEARCHING,31.382,1.000,0.00,0.00,-19.15,3.269,5.321,3.178,4.974,4.767,0.700,0.005,0.004,0.008
2026-05-11 20:34:52.272552,SEARCHING,31.514,1.000,0.00,0.00,-19.07,3.316,5.085,3.178,4.868,4.670,0.700,0.005,0.006,0.012
2026-05-11 20:34:52.482025,SEARCHING,31.647,1.000,0.00,0.00,-18.93,3.365,4.974,3.092,4.868,4.767,0.700,0.003,0.012,0.024
2026-05-11 20:34:52.672682,SEARCHING,31.779,1.000,0.00,0.00,-18.68,3.415,4.868,3.134,4.767,4.767,0.700,0.000,0.012,0.024
2026-05-11 20:34:52.910620,SEARCHING,31.912,1.000,0.00,0.00,-18.42,3.365,4.767,3.134,4.767,4.487,0.700,0.008,0.010,0.020
2026-05-11 20:34:53.106265,SEARCHING,32.045,1.000,0.00,0.00,-18.17,3.365,4.670,3.134,4.670,4.487,0.700,0.005,0.010,0.020
2026-05-11 20:34:53.311788,SEARCHING,32.178,1.000,0.00,0.00,-17.94,3.365,4.576,3.178,4.576,4.160,0.700,0.013,0.008,0.016
2026-05-11 20:34:53.515230,SEARCHING,32.311,1.000,0.00,0.00,-17.75,3.365,4.400,3.178,4.400,4.160,0.700,0.008,0.008,0.016
2026-05-11 20:34:53.729983,SEARCHING,32.445,1.000,0.00,0.00,-17.56,3.316,4.317,3.134,4.317,4.086,0.700,0.008,0.008,0.016
2026-05-11 20:34:53.937317,SEARCHING,32.578,1.000,0.00,0.00,-17.35,3.269,4.160,3.178,4.160,4.014,0.700,0.005,0.004,0.008
2026-05-11 20:34:54.133356,SEARCHING,32.712,1.000,0.00,0.00,-17.26,3.316,4.014,3.223,4.014,3.632,0.700,0.016,0.004,0.008
2026-05-11 20:34:54.346527,SEARCHING,32.846,1.000,0.00,0.00,-17.15,3.316,3.878,3.178,3.878,3.691,0.700,0.008,0.006,0.012
2026-05-11 20:34:54.561850,SEARCHING,32.979,1.000,0.00,0.00,-17.03,3.134,3.691,3.223,3.751,3.365,0.700,0.018,-0.004,-0.008
2026-05-11 20:34:54.759879,SEARCHING,33.113,1.000,0.00,0.00,-17.12,3.011,3.575,3.269,3.520,3.365,0.700,0.008,-0.012,-0.024
2026-05-11 20:34:54.972470,SEARCHING,33.247,1.000,0.00,0.00,-17.35,3.011,3.467,3.316,3.467,3.365,0.700,0.005,-0.014,-0.028
2026-05-11 20:34:55.184531,SEARCHING,33.381,1.000,0.00,0.00,-17.66,2.934,3.365,3.223,3.365,3.178,0.700,0.010,-0.014,-0.028
2026-05-11 20:34:55.382182,SEARCHING,33.514,1.000,0.00,0.00,-17.94,2.934,3.316,3.134,3.269,3.178,0.700,0.005,-0.010,-0.020
2026-05-11 20:34:55.589394,SEARCHING,33.647,1.000,0.00,0.00,-18.10,2.896,3.051,2.934,3.051,2.860,0.700,0.013,-0.002,-0.004
2026-05-11 20:34:55.786724,SEARCHING,33.780,1.000,0.00,0.00,-18.10,2.896,2.972,2.790,2.972,2.934,0.700,0.003,0.006,0.012
2026-05-11 20:34:55.994444,SEARCHING,33.913,1.000,0.00,0.00,-17.97,2.825,2.790,2.692,2.825,2.790,0.700,0.003,0.008,0.016
2026-05-11 20:34:56.207444,SEARCHING,34.046,1.000,0.00,0.00,-17.75,2.825,2.661,2.571,2.692,2.661,0.700,0.003,0.016,0.031
2026-05-11 20:34:56.406269,SEARCHING,34.180,1.000,0.00,0.00,-17.38,2.724,2.571,2.434,2.571,2.542,0.700,0.003,0.020,0.039
2026-05-11 20:34:56.620534,SEARCHING,34.314,1.000,0.00,0.00,-16.92,2.600,2.434,2.288,2.409,2.434,0.700,-0.003,0.024,0.047
2026-05-11 20:34:56.816598,SEARCHING,34.448,1.000,0.00,0.00,-16.40,2.434,2.311,2.179,2.311,2.311,0.700,0.000,0.022,0.043
2026-05-11 20:34:57.008162,SEARCHING,34.582,1.000,0.00,0.00,-15.89,2.335,2.200,2.061,2.200,2.200,0.700,0.000,0.026,0.051
2026-05-11 20:34:57.222752,SEARCHING,34.717,1.000,0.00,0.00,-15.31,2.200,2.061,1.939,2.061,2.061,0.700,0.000,0.028,0.055
2026-05-11 20:34:57.421423,SEARCHING,34.852,1.000,0.00,0.00,-14.67,2.043,1.907,1.774,1.907,1.907,0.667,0.000,0.033,0.067
2026-05-11 20:34:57.633244,SEARCHING,34.981,1.000,0.00,0.00,-13.90,1.907,1.760,1.634,1.760,1.747,0.616,0.003,0.039,0.079
2026-05-11 20:34:57.846284,SEARCHING,35.100,1.000,0.00,0.00,-13.03,1.802,1.658,1.546,1.658,1.658,0.580,0.000,0.041,0.083
2026-05-11 20:34:58.072016,SEARCHING,35.214,1.000,0.00,0.00,-12.08,1.682,1.546,1.421,1.546,1.546,0.541,0.000,0.049,0.098
2026-05-11 20:34:58.261901,SEARCHING,35.319,1.000,0.00,0.00,-10.96,1.567,1.430,1.308,1.430,1.430,0.501,0.000,0.057,0.114
2026-05-11 20:34:58.465090,SEARCHING,35.417,1.000,0.00,0.00,-9.66,1.486,1.354,1.230,1.354,1.354,0.474,0.000,0.063,0.126
2026-05-11 20:34:58.668645,SEARCHING,35.510,1.000,0.00,0.00,-8.18,1.412,1.278,1.156,1.278,1.271,0.447,0.003,0.071,0.142
2026-05-11 20:34:58.872455,SEARCHING,35.598,1.000,0.00,0.00,-6.52,1.395,1.250,1.127,1.250,1.250,0.438,0.000,0.077,0.153
2026-05-11 20:34:59.089994,SEARCHING,35.684,1.000,0.00,0.00,-4.68,1.278,1.127,1.004,1.122,1.122,0.395,0.000,0.096,0.193
2026-05-11 20:34:59.287550,SEARCHING,35.762,1.000,0.00,0.00,-2.41,1.230,1.069,0.942,1.069,1.069,0.374,0.000,0.112,0.224
2026-05-11 20:34:59.492193,SEARCHING,35.835,1.000,0.00,0.00,0.24,1.179,1.008,0.877,1.008,1.008,0.353,0.000,0.132,0.264
2026-05-11 20:34:59.749927,INSPECTING,35.896,1.000,0.00,0.00,2.78,1.138,0.949,0.814,0.953,0.946,0.350,0.550,0.552,0.850
2026-05-11 20:34:59.932710,INSPECTING,35.962,1.000,0.00,0.00,12.03,1.173,0.942,0.786,0.942,0.946,0.350,-0.550,0.552,0.850
2026-05-11 20:35:00.212668,INSPECTING,36.029,1.000,0.00,0.00,21.77,1.173,1.004,0.778,1.004,1.004,0.350,0.550,0.552,0.850
2026-05-11 20:35:00.357853,INSPECTING,36.091,1.000,0.00,0.00,31.51,1.084,1.116,0.809,1.116,1.116,0.350,0.550,0.552,0.850
2026-05-11 20:35:00.576210,INSPECTING,36.148,1.000,0.00,0.00,41.25,1.022,1.186,0.867,1.179,1.186,0.350,0.550,0.552,0.850
2026-05-11 20:35:00.734801,INSPECTING,36.197,1.000,0.00,0.00,50.99,0.982,1.105,0.942,1.105,1.105,0.350,0.550,0.552,0.850
2026-05-11 20:35:01.001140,INSPECTING,36.237,1.000,0.00,0.00,60.73,0.986,0.995,1.026,0.995,0.995,0.350,0.550,-0.552,-0.850
2026-05-11 20:35:01.339915,INSPECTING,36.268,1.000,0.00,0.00,61.71,1.050,0.934,0.942,0.934,0.938,0.350,0.550,-0.552,-0.850
2026-05-11 20:35:01.510346,INSPECTING,36.285,1.000,0.00,0.00,56.83,0.867,0.880,0.912,0.880,0.887,0.350,0.550,-0.552,-0.850
2026-05-11 20:35:01.704205,INSPECTING,36.306,1.000,0.00,0.00,51.96,0.826,0.847,0.890,0.847,0.847,0.350,0.550,-0.552,-0.850
2026-05-11 20:35:01.866127,INSPECTING,36.328,1.000,0.00,0.00,47.09,0.724,0.795,0.877,0.792,0.795,0.350,0.550,-0.552,-0.850
2026-05-11 20:35:02.141908,INSPECTING,36.393,1.000,0.00,0.00,34.92,0.630,0.748,0.698,0.750,0.750,0.350,-0.550,0.552,0.850
2026-05-11 20:35:02.507975,INSPECTING,36.470,1.000,0.00,0.00,22.74,0.559,0.683,0.591,0.681,0.679,0.350,-0.550,0.552,0.850
2026-05-11 20:35:02.818173,TURNING,36.533,1.000,0.00,0.00,29.56,0.495,0.572,0.639,0.573,0.572,0.000,0.000,0.000,0.000
2026-05-11 20:35:02.889936,TURNING,36.591,1.000,0.00,0.00,39.30,0.466,0.524,0.597,0.524,0.524,0.000,0.000,0.000,0.800
2026-05-11 20:35:03.069662,TURNING,36.685,1.000,0.00,0.00,65.23,0.398,0.399,0.401,0.399,0.399,0.000,0.000,0.000,0.800
2026-05-11 20:35:03.275895,TURNING,36.685,1.000,0.00,0.00,74.40,0.415,0.399,0.385,0.399,0.399,0.000,0.000,0.000,0.800
2026-05-11 20:35:03.497182,TURNING,36.685,1.000,0.00,0.00,83.56,0.450,0.409,0.375,0.409,0.409,0.000,0.000,0.000,0.800
2026-05-11 20:35:03.711338,TURNING,36.685,1.000,0.00,0.00,92.73,0.731,0.437,0.379,0.435,0.437,0.000,0.000,0.000,0.800
2026-05-11 20:35:04.017888,TURNING,36.685,1.000,0.00,0.00,104.19,0.814,0.490,0.404,0.489,0.492,0.000,0.000,0.000,0.800
2026-05-11 20:35:04.218707,TURNING,36.685,1.000,0.00,0.00,115.65,0.934,0.776,0.432,0.773,0.773,0.000,0.000,0.000,0.800
2026-05-11 20:35:04.397931,TURNING,36.685,1.000,0.00,0.00,124.82,1.111,0.817,0.486,0.817,0.820,0.000,0.000,0.000,0.800
2026-05-11 20:35:04.620051,TURNING,36.685,1.000,0.00,0.00,133.98,1.623,0.991,0.722,0.995,0.999,0.000,0.000,0.000,0.800
2026-05-11 20:35:04.848780,TURNING,36.685,1.000,0.00,0.00,143.15,1.923,1.156,0.786,1.150,1.162,0.000,0.000,0.000,0.800
2026-05-11 20:35:05.033156,TURNING,36.685,1.000,0.00,0.00,152.32,4.576,1.557,0.926,1.536,1.536,0.000,0.000,0.000,0.800
2026-05-11 20:35:05.237896,TURNING,36.685,1.000,0.00,0.00,161.49,6.356,2.159,1.156,2.159,2.222,0.000,0.000,0.000,0.800
2026-05-11 20:35:05.469428,TURNING,36.685,1.000,0.00,0.00,170.58,4.487,6.730,1.578,4.868,4.400,0.000,0.000,0.000,0.680
2026-05-11 20:35:05.676491,TURNING,36.685,1.000,0.00,0.00,178.48,3.814,7.151,1.907,4.868,7.151,0.000,0.000,0.000,0.542
2026-05-11 20:35:05.878973,TURNING,36.685,1.000,0.00,-0.00,-175.14,3.415,5.448,2.934,4.767,3.051,0.000,0.000,0.000,0.431
2026-05-11 20:35:06.092509,TURNING,36.685,1.000,0.00,-0.00,-169.96,3.011,4.487,7.627,4.487,4.487,0.000,0.000,0.000,0.341
2026-05-11 20:35:06.286778,TURNING,36.685,1.000,0.00,-0.00,-165.90,2.724,4.014,6.934,3.945,2.661,0.000,0.000,0.000,0.300
2026-05-11 20:35:06.478877,TURNING,36.685,1.000,0.00,-0.00,-162.45,2.600,3.691,5.720,3.691,3.316,0.000,0.000,0.000,0.300
2026-05-11 20:35:06.693217,TURNING,36.685,1.000,0.00,-0.00,-159.01,2.487,3.520,4.974,3.520,3.467,0.000,0.000,0.000,0.300
2026-05-11 20:35:06.995561,RETURNING,36.685,1.000,0.00,-0.00,-155.58,2.409,3.365,4.767,3.365,3.223,0.000,0.000,0.000,0.000
2026-05-11 20:35:07.230179,RETURNING,36.685,1.000,0.00,-0.00,-153.00,2.384,3.223,4.487,3.178,2.972,0.500,0.011,0.000,-0.157
2026-05-11 20:35:07.370689,RETURNING,36.667,1.000,0.00,-0.00,-153.37,2.335,3.134,4.400,3.092,3.011,0.500,0.004,0.000,-0.161
2026-05-11 20:35:07.604240,RETURNING,36.555,1.000,0.00,-0.00,-155.67,2.335,3.134,4.400,3.134,3.092,0.500,0.002,0.000,-0.161
2026-05-11 20:35:07.846795,RETURNING,36.463,1.000,0.00,-0.00,-157.51,2.335,3.134,4.400,3.134,3.092,0.500,0.002,0.000,-0.161
2026-05-11 20:35:08.082705,RETURNING,36.370,1.000,0.00,-0.00,-159.35,2.288,3.134,4.576,3.134,3.092,0.500,0.002,0.000,-0.175
2026-05-11 20:35:08.267981,RETURNING,36.276,1.000,0.00,-0.00,-161.28,2.266,3.178,4.576,3.134,3.092,0.500,0.002,0.000,-0.178
2026-05-11 20:35:08.463185,RETURNING,36.181,1.000,0.00,-0.00,-163.30,2.222,3.134,4.670,3.134,3.051,0.500,0.004,0.000,-0.189
2026-05-11 20:35:08.644528,RETURNING,36.084,1.000,0.00,-0.00,-165.38,2.288,3.223,4.868,3.223,3.092,0.500,0.007,0.000,-0.185
2026-05-11 20:35:08.823691,RETURNING,35.938,1.000,0.00,-0.00,-168.67,2.311,3.223,5.200,3.223,3.051,0.500,0.009,0.000,-0.192
2026-05-11 20:35:09.031710,RETURNING,35.840,1.000,0.00,-0.00,-170.89,2.311,3.316,6.184,3.365,3.134,0.500,0.011,0.000,-0.217
2026-05-11 20:35:09.222425,RETURNING,35.741,1.000,0.00,-0.00,-173.33,2.335,3.415,6.356,3.415,3.316,0.500,0.004,0.000,-0.217
2026-05-11 20:35:09.409775,RETURNING,35.641,1.000,0.00,-0.00,-175.83,2.359,3.575,8.475,3.575,3.520,0.500,0.002,0.000,-0.245
2026-05-11 20:35:09.641483,RETURNING,35.542,1.000,0.00,-0.00,-178.60,2.409,3.751,9.153,3.751,3.632,0.500,0.004,0.000,-0.245
2026-05-11 20:35:09.891555,RETURNING,35.442,1.000,0.00,0.00,178.65,2.487,3.814,7.151,3.878,3.814,0.500,0.002,0.000,-0.210
2026-05-11 20:35:10.093537,RETURNING,35.342,1.000,0.00,0.00,176.25,2.514,4.014,5.867,3.945,3.878,0.500,0.002,0.000,-0.182
2026-05-11 20:35:10.295406,RETURNING,35.242,1.000,0.00,0.00,173.99,2.661,4.317,5.448,3.945,3.945,0.500,0.000,0.000,-0.154
2026-05-11 20:35:10.533283,RETURNING,35.143,1.000,0.00,0.00,172.17,2.724,4.868,4.767,3.814,4.576,0.500,-0.022,0.000,-0.126
2026-05-11 20:35:10.715313,RETURNING,35.044,1.000,0.00,0.00,170.60,2.790,5.200,4.576,3.691,4.767,0.500,-0.031,0.000,-0.112
2026-05-11 20:35:10.884318,RETURNING,34.945,1.000,0.00,0.00,169.28,2.860,6.022,4.317,3.691,5.200,0.500,-0.039,0.000,-0.094
2026-05-11 20:35:11.118109,RETURNING,34.847,1.000,0.00,0.00,168.17,2.860,6.356,4.160,3.575,5.321,0.500,-0.046,0.000,-0.087
2026-05-11 20:35:11.300760,RETURNING,34.750,1.000,0.00,0.00,167.21,2.896,6.934,3.945,3.520,5.720,0.500,-0.055,0.000,-0.073
2026-05-11 20:35:11.510219,RETURNING,34.652,1.000,0.00,0.00,166.39,2.934,7.151,3.814,3.415,5.867,0.500,-0.061,0.000,-0.063
2026-05-11 20:35:11.729495,RETURNING,34.555,1.000,0.00,0.00,165.66,2.896,7.381,3.691,3.365,7.151,0.500,-0.079,0.000,-0.059
2026-05-11 20:35:11.912683,RETURNING,34.458,1.000,0.00,0.00,164.97,2.860,7.890,3.575,3.178,6.538,0.500,-0.081,0.000,-0.056
2026-05-11 20:35:12.117182,RETURNING,34.362,1.000,0.00,0.00,164.34,2.934,8.172,3.467,3.051,6.022,0.500,-0.081,0.000,-0.042
2026-05-11 20:35:12.353916,RETURNING,34.266,1.000,0.00,0.00,163.84,2.972,8.172,3.467,2.972,6.022,0.500,-0.085,0.000,-0.038
2026-05-11 20:35:12.569220,RETURNING,34.170,1.000,0.00,0.00,163.39,3.051,8.475,3.415,2.896,6.022,0.500,-0.090,0.000,-0.028
2026-05-11 20:35:12.772113,RETURNING,34.074,1.000,0.00,0.00,163.05,3.092,8.172,3.365,2.757,1.760,0.500,0.103,0.000,-0.021
2026-05-11 20:35:12.984150,RETURNING,33.979,1.000,0.00,0.00,162.80,3.134,8.801,3.365,2.757,6.356,0.500,-0.103,0.000,-0.017
2026-05-11 20:35:13.197480,RETURNING,33.883,1.000,0.00,0.00,162.62,3.269,8.801,3.269,2.600,4.767,0.500,-0.087,0.000,0.000
2026-05-11 20:35:13.397526,RETURNING,33.788,1.000,0.00,0.00,162.59,3.269,7.627,3.223,2.487,4.767,0.500,-0.096,0.000,0.003
2026-05-11 20:35:13.614866,RETURNING,33.692,1.000,0.00,0.00,162.61,3.316,8.475,3.269,2.409,6.022,0.500,-0.125,0.000,0.003
2026-05-11 20:35:13.830490,RETURNING,33.597,1.000,0.00,0.00,162.65,3.269,8.172,3.269,2.335,5.867,0.500,-0.129,0.000,0.000
2026-05-11 20:35:14.033278,RETURNING,33.501,1.000,0.00,0.00,162.64,3.316,8.801,3.223,2.266,5.720,0.500,-0.133,0.000,0.007
2026-05-11 20:35:14.210225,RETURNING,33.406,1.000,0.00,0.00,162.68,3.269,6.934,3.223,2.138,5.867,0.500,-0.149,0.000,0.003
2026-05-11 20:35:14.436827,RETURNING,33.310,1.000,0.00,0.00,162.68,3.269,7.151,3.223,2.061,6.022,0.500,-0.160,0.000,0.003
2026-05-11 20:35:14.667419,RETURNING,33.215,1.000,0.00,0.00,162.72,3.269,8.475,3.178,2.025,5.867,0.500,-0.162,0.000,0.007
2026-05-11 20:35:14.868318,RETURNING,33.119,1.000,0.00,0.00,162.80,3.316,8.172,3.223,1.956,6.022,0.500,-0.173,0.000,0.007
2026-05-11 20:35:15.076330,RETURNING,33.024,1.000,0.00,0.00,162.88,3.316,8.801,3.223,1.923,6.022,0.500,-0.177,0.000,0.007
2026-05-11 20:35:15.292576,RETURNING,32.928,1.000,0.00,0.00,162.96,3.269,8.801,3.223,4.868,3.178,0.500,0.055,0.000,0.003
2026-05-11 20:35:16.206629,RETURNING,32.833,1.000,0.00,0.00,163.04,3.365,8.475,3.223,4.868,3.751,0.500,0.031,0.000,0.010
2026-05-11 20:35:16.283365,RETURNING,32.785,1.000,0.00,0.00,163.10,3.316,8.172,3.223,4.868,3.878,0.500,0.026,0.000,0.007
2026-05-11 20:35:17.368076,RETURNING,32.593,1.000,0.00,0.00,163.32,3.365,7.627,3.178,4.868,5.720,0.500,-0.015,0.000,0.014
2026-05-11 20:35:17.590694,RETURNING,32.498,1.000,0.00,0.00,163.44,3.316,8.801,3.223,4.767,5.720,0.500,-0.017,0.000,0.007
2026-05-11 20:35:17.762466,RETURNING,32.402,1.000,0.00,0.00,163.52,3.316,8.172,3.178,4.868,5.867,0.500,-0.017,0.000,0.010
2026-05-11 20:35:17.970501,RETURNING,32.306,1.000,0.00,0.00,163.64,3.365,8.801,3.223,4.868,5.581,0.500,-0.013,0.000,0.010
2026-05-11 20:35:18.191327,RETURNING,32.210,1.000,0.00,0.00,163.75,3.316,8.801,3.178,4.868,5.867,0.500,-0.017,0.000,0.010
2026-05-11 20:35:18.363576,RETURNING,32.114,1.000,0.00,0.00,163.87,3.316,8.172,3.134,4.767,3.415,0.500,0.042,0.000,0.014
2026-05-11 20:35:18.635751,RETURNING,32.018,1.000,0.00,0.00,164.02,3.365,7.890,3.092,4.868,2.288,0.500,0.116,0.000,0.021
2026-05-11 20:35:18.798942,RETURNING,31.922,1.000,0.00,0.00,164.24,3.365,8.801,3.092,4.868,3.751,0.500,0.031,0.000,0.021
2026-05-11 20:35:18.994033,RETURNING,31.825,1.000,0.00,0.00,164.49,3.365,8.801,3.051,4.868,5.720,0.500,-0.015,0.000,0.024
2026-05-11 20:35:19.176884,RETURNING,31.729,1.000,0.00,0.00,164.75,3.316,8.475,3.178,4.868,7.151,0.500,-0.033,0.000,0.010
2026-05-11 20:35:19.393767,RETURNING,31.632,1.000,0.00,0.00,164.89,3.269,7.890,3.223,4.868,6.356,0.500,-0.024,0.000,0.003
2026-05-11 20:35:19.608912,RETURNING,31.536,1.000,0.00,0.00,164.96,3.269,5.867,3.269,4.868,6.356,0.500,-0.024,0.000,0.000
2026-05-11 20:35:19.807718,RETURNING,31.439,1.000,0.00,0.00,164.97,3.269,7.890,3.269,4.868,6.356,0.500,-0.024,0.000,0.000
2026-05-11 20:35:20.013491,RETURNING,31.343,1.000,0.00,0.00,164.97,3.223,7.381,3.269,4.868,7.381,0.500,-0.035,0.000,-0.003
2026-05-11 20:35:20.212999,RETURNING,31.246,1.000,0.00,0.00,164.95,3.269,7.627,3.316,4.868,7.381,0.500,-0.035,0.000,-0.003
2026-05-11 20:35:20.453315,RETURNING,31.149,1.000,0.00,0.00,164.90,3.223,5.867,3.316,4.868,6.730,0.500,-0.028,0.000,-0.007
2026-05-11 20:35:20.641212,RETURNING,31.053,1.000,0.00,0.00,164.80,3.223,7.627,3.316,4.868,7.381,0.500,-0.035,0.000,-0.007
2026-05-11 20:35:20.852941,RETURNING,30.956,1.000,0.00,0.00,164.70,3.223,6.184,3.269,4.868,7.627,0.500,-0.037,0.000,-0.003
2026-05-11 20:35:21.042826,RETURNING,30.860,1.000,0.00,0.00,164.63,3.223,6.356,3.316,4.868,7.627,0.500,-0.037,0.000,-0.007
2026-05-11 20:35:21.267292,RETURNING,30.764,1.000,0.00,0.00,164.55,3.223,7.381,3.316,4.868,7.381,0.500,-0.035,0.000,-0.007
2026-05-11 20:35:21.471904,RETURNING,30.667,1.000,0.00,0.00,164.47,3.223,5.867,3.316,4.868,7.381,0.500,-0.035,0.000,-0.007
2026-05-11 20:35:21.701934,RETURNING,30.571,1.000,0.00,0.00,164.40,3.223,7.627,3.316,4.868,5.581,0.500,-0.013,0.000,-0.007
2026-05-11 20:35:21.882624,RETURNING,30.475,1.000,0.00,0.00,164.33,3.223,6.934,3.269,4.974,3.365,0.500,0.048,0.000,-0.003
2026-05-11 20:35:22.080335,RETURNING,30.378,1.000,0.00,0.00,164.26,3.178,7.381,3.316,4.868,7.151,0.500,-0.033,0.000,-0.010
2026-05-11 20:35:22.286534,RETURNING,30.282,1.000,0.00,0.00,164.14,3.178,7.151,3.316,4.974,7.151,0.500,-0.031,0.000,-0.010
2026-05-11 20:35:22.508179,RETURNING,30.186,1.000,0.00,0.00,164.03,3.223,6.022,3.316,4.868,7.151,0.500,-0.033,0.000,-0.007
2026-05-11 20:35:22.700919,RETURNING,30.090,1.000,0.00,0.00,163.95,3.223,7.151,3.316,4.868,6.730,0.500,-0.028,0.000,-0.007
2026-05-11 20:35:22.903083,RETURNING,29.994,1.000,0.00,0.00,163.87,3.223,7.381,3.316,4.767,7.151,0.500,-0.035,0.000,-0.007
2026-05-11 20:35:23.133494,RETURNING,29.898,1.000,0.00,0.00,163.78,3.223,6.356,3.316,4.868,5.867,0.500,-0.017,0.000,-0.007
2026-05-11 20:35:23.321736,RETURNING,29.802,1.000,0.00,0.00,163.69,3.223,6.538,3.269,4.868,6.730,0.500,-0.028,0.000,-0.003
2026-05-11 20:35:23.517647,RETURNING,29.706,1.000,0.00,0.00,163.64,3.223,7.381,3.269,4.868,6.538,0.500,-0.026,0.000,-0.003
2026-05-11 20:35:23.723741,RETURNING,29.610,1.000,0.00,0.00,163.60,3.223,7.381,3.316,4.868,6.356,0.500,-0.024,0.000,-0.007
2026-05-11 20:35:23.967175,RETURNING,29.514,1.000,0.00,0.00,163.53,3.223,6.730,3.316,4.868,6.730,0.500,-0.028,0.000,-0.007
2026-05-11 20:35:24.142726,RETURNING,29.418,1.000,0.00,0.00,163.45,3.223,5.720,3.269,4.868,6.934,0.500,-0.031,0.000,-0.003
2026-05-11 20:35:24.358724,RETURNING,29.322,1.000,0.00,0.00,163.39,3.178,5.720,3.269,4.868,6.184,0.500,-0.022,0.000,-0.007
2026-05-11 20:35:24.552729,RETURNING,29.226,1.000,0.00,0.00,163.29,3.223,7.627,3.316,4.868,5.867,0.500,-0.017,0.000,-0.007
2026-05-11 20:35:24.769945,RETURNING,29.131,1.000,0.00,0.00,163.18,3.178,5.720,3.316,4.868,6.730,0.500,-0.028,0.000,-0.010
2026-05-11 20:35:24.969854,RETURNING,29.035,1.000,0.00,0.00,163.05,3.178,5.867,3.316,4.868,5.867,0.500,-0.017,0.000,-0.010
2026-05-11 20:35:25.174940,RETURNING,28.939,1.000,0.00,0.00,162.91,3.134,5.720,3.316,4.868,5.448,0.500,-0.011,0.000,-0.014
2026-05-11 20:35:25.373342,RETURNING,28.844,1.000,0.00,0.00,162.74,3.178,5.720,3.316,4.868,7.151,0.500,-0.033,0.000,-0.010
2026-05-11 20:35:25.582977,RETURNING,28.748,1.000,0.00,0.00,162.63,3.223,5.720,3.316,4.974,6.022,0.500,-0.017,0.000,-0.007
2026-05-11 20:35:25.791623,RETURNING,28.653,1.000,0.00,0.00,162.56,3.223,5.720,3.269,4.868,6.934,0.500,-0.031,0.000,-0.003
2026-05-11 20:35:26.018023,RETURNING,28.557,1.000,0.00,0.00,162.54,3.223,5.867,3.269,4.868,6.184,0.500,-0.022,0.000,-0.003
2026-05-11 20:35:26.215439,RETURNING,28.462,1.000,0.00,0.00,162.51,3.223,5.867,3.269,4.868,6.184,0.500,-0.022,0.000,-0.003
2026-05-11 20:35:26.400455,RETURNING,28.367,1.000,0.00,0.00,162.47,3.269,5.867,3.269,4.868,5.720,0.500,-0.015,0.000,0.000
2026-05-11 20:35:26.623896,RETURNING,28.271,1.000,0.00,0.00,162.46,3.316,5.867,3.269,4.868,6.022,0.500,-0.020,0.000,0.003
2026-05-11 20:35:26.819510,RETURNING,28.176,1.000,0.00,0.00,162.49,3.316,5.867,3.223,4.767,5.867,0.500,-0.020,0.000,0.007
2026-05-11 20:35:27.038244,RETURNING,28.081,1.000,0.00,0.00,162.56,3.269,6.184,3.223,4.868,6.022,0.500,-0.020,0.000,0.003
2026-05-11 20:35:27.243356,RETURNING,27.985,1.000,0.00,0.00,162.63,3.316,5.867,3.178,4.868,5.720,0.500,-0.015,0.000,0.010
2026-05-11 20:35:27.457504,RETURNING,27.890,1.000,0.00,0.00,162.75,3.316,5.581,3.051,4.868,5.448,0.500,-0.011,0.000,0.021
2026-05-11 20:35:27.656163,RETURNING,27.794,1.000,0.00,0.00,162.96,3.316,6.022,3.051,4.868,6.184,0.500,-0.022,0.000,0.021
2026-05-11 20:35:27.875977,RETURNING,27.698,1.000,0.00,0.00,163.24,3.365,5.720,2.972,4.868,6.022,0.500,-0.020,0.000,0.031
2026-05-11 20:35:28.085076,RETURNING,27.603,1.000,0.00,0.00,163.58,3.316,5.720,2.972,4.868,6.022,0.500,-0.020,0.000,0.028
2026-05-11 20:35:28.275086,RETURNING,27.507,1.000,0.00,0.00,163.92,3.316,5.720,3.092,4.868,5.581,0.500,-0.013,0.000,0.017
2026-05-11 20:35:28.478276,RETURNING,27.410,1.000,0.00,0.00,164.13,3.316,5.720,3.178,4.974,5.581,0.500,-0.011,0.000,0.010
2026-05-11 20:35:28.656825,RETURNING,27.314,1.000,0.00,0.00,164.23,3.316,6.184,3.269,4.868,5.448,0.500,-0.011,0.000,0.003
2026-05-11 20:35:28.915885,RETURNING,27.218,1.000,0.00,0.00,164.26,3.316,5.720,3.365,4.868,4.974,0.500,-0.002,0.000,-0.003
2026-05-11 20:35:29.079163,RETURNING,27.122,1.000,0.00,0.00,164.20,3.269,5.720,3.415,4.868,5.720,0.500,-0.015,0.000,-0.010
2026-05-11 20:35:29.288454,RETURNING,27.026,1.000,0.00,0.00,164.08,3.223,5.720,3.415,4.868,5.200,0.500,-0.007,0.000,-0.014
2026-05-11 20:35:29.513166,RETURNING,26.929,1.000,0.00,0.00,163.91,3.223,5.720,3.415,4.767,5.448,0.500,-0.013,0.000,-0.014
2026-05-11 20:35:29.758293,RETURNING,26.835,1.000,0.00,0.00,163.72,3.223,5.867,3.467,4.767,4.974,0.500,-0.004,0.000,-0.017
2026-05-11 20:35:29.957625,RETURNING,26.742,1.000,0.00,0.00,163.52,3.178,5.720,3.467,4.868,5.720,0.500,-0.015,0.000,-0.021
2026-05-11 20:35:30.140468,RETURNING,26.646,1.000,0.00,0.00,163.28,3.178,5.448,3.467,4.868,4.487,0.500,0.009,0.000,-0.021
2026-05-11 20:35:30.350323,RETURNING,26.550,1.000,0.00,0.00,163.04,3.178,5.581,3.467,4.868,4.487,0.500,0.009,0.000,-0.021
2026-05-11 20:35:30.544938,RETURNING,26.454,1.000,0.00,0.00,162.80,3.178,5.321,3.520,4.868,4.974,0.500,-0.002,0.000,-0.024
2026-05-11 20:35:30.766815,RETURNING,26.359,1.000,0.00,0.00,162.53,3.178,5.448,3.520,4.868,4.400,0.500,0.011,0.000,-0.024
2026-05-11 20:35:30.978884,RETURNING,26.264,1.000,0.00,0.00,162.23,3.051,5.200,3.520,4.974,4.767,0.500,0.004,0.000,-0.035
2026-05-11 20:35:31.184569,RETURNING,26.168,1.000,0.00,0.00,161.85,3.092,5.085,3.520,4.974,4.237,0.500,0.017,0.000,-0.031
2026-05-11 20:35:31.375205,RETURNING,26.074,1.000,0.00,0.00,161.47,3.051,4.868,3.415,4.767,4.670,0.500,0.002,0.000,-0.028
2026-05-11 20:35:31.577200,RETURNING,25.979,1.000,0.00,0.00,161.14,3.051,4.868,3.415,4.767,4.317,0.500,0.011,0.000,-0.028
2026-05-11 20:35:31.819801,RETURNING,25.884,1.000,0.00,0.00,160.82,3.134,4.767,3.365,4.767,4.160,0.500,0.015,0.000,-0.017
2026-05-11 20:35:32.077542,RETURNING,25.790,1.000,0.00,0.00,160.60,3.178,4.576,3.316,4.576,4.086,0.500,0.013,0.000,-0.010
2026-05-11 20:35:32.250856,RETURNING,25.696,1.000,0.00,0.00,160.46,3.223,4.670,3.269,4.576,4.086,0.500,0.013,0.000,-0.003
2026-05-11 20:35:32.444186,RETURNING,25.601,1.000,0.00,0.00,160.35,3.269,4.576,3.316,4.487,4.086,0.500,0.011,0.000,-0.003
2026-05-11 20:35:32.649438,RETURNING,25.507,1.000,0.00,0.00,160.29,3.223,4.487,3.269,4.400,4.086,0.500,0.009,0.000,-0.003
2026-05-11 20:35:32.870672,RETURNING,25.413,1.000,0.00,0.00,160.25,3.223,4.487,3.269,4.400,3.878,0.500,0.015,0.000,-0.003
2026-05-11 20:35:33.052810,RETURNING,25.319,1.000,0.00,0.00,160.22,3.223,4.317,3.223,4.317,4.086,0.500,0.007,0.000,0.000
2026-05-11 20:35:33.263012,RETURNING,25.225,1.000,0.00,0.00,160.23,3.134,4.237,3.178,4.237,3.945,0.500,0.009,0.000,-0.003
2026-05-11 20:35:33.464761,RETURNING,25.131,1.000,0.00,0.00,160.20,3.092,4.237,3.223,4.160,3.945,0.500,0.007,0.000,-0.010
2026-05-11 20:35:33.699652,RETURNING,25.037,1.000,0.00,0.00,160.09,3.051,4.160,3.178,4.086,3.878,0.500,0.007,0.000,-0.010
2026-05-11 20:35:33.901226,RETURNING,24.943,1.000,0.00,0.00,159.96,3.011,4.014,3.178,4.014,3.269,0.500,0.028,0.000,-0.014
2026-05-11 20:35:34.078808,RETURNING,24.849,1.000,0.00,0.00,159.80,3.051,4.014,3.134,3.945,3.415,0.500,0.020,0.000,-0.007
2026-05-11 20:35:34.285682,RETURNING,24.755,1.000,0.00,0.00,159.74,3.092,3.751,3.134,3.691,3.316,0.500,0.015,0.000,-0.003
2026-05-11 20:35:34.491219,RETURNING,24.661,1.000,0.00,0.00,159.71,3.316,3.691,3.134,3.691,3.365,0.500,0.013,0.000,0.014
2026-05-11 20:35:34.717210,RETURNING,24.567,1.000,0.00,0.00,159.89,3.415,3.575,3.134,3.520,3.269,0.500,0.011,0.000,0.021
2026-05-11 20:35:34.905799,RETURNING,24.473,1.000,0.00,0.00,160.21,3.751,3.467,3.223,3.467,3.269,0.500,0.009,0.000,0.035
2026-05-11 20:35:35.111201,RETURNING,24.379,1.000,0.00,0.00,160.55,3.467,3.415,3.316,3.365,3.011,0.500,0.017,0.000,0.010
2026-05-11 20:35:35.332009,RETURNING,24.285,1.000,0.00,0.00,160.71,3.467,3.269,3.316,3.269,3.092,0.500,0.009,0.000,0.010
2026-05-11 20:35:35.552510,RETURNING,24.190,1.000,0.00,0.00,160.87,3.520,3.223,3.269,3.223,3.011,0.500,0.011,0.000,0.017
2026-05-11 20:35:35.754993,RETURNING,24.096,1.000,0.00,0.00,161.11,3.467,3.092,3.134,3.092,2.757,0.500,0.020,0.000,0.024
2026-05-11 20:35:35.967325,RETURNING,24.001,1.000,0.00,0.00,161.40,3.520,2.790,2.972,2.972,2.179,0.500,0.061,0.000,0.042
2026-05-11 20:35:36.231002,RETURNING,23.906,1.000,0.00,0.00,161.80,3.415,2.757,2.825,2.860,2.460,0.500,0.028,0.000,0.049
2026-05-11 20:35:36.404971,RETURNING,23.811,1.000,0.00,0.00,162.30,3.365,2.724,2.790,2.860,2.043,0.500,0.070,0.000,0.049
2026-05-11 20:35:36.588599,RETURNING,23.716,1.000,0.00,0.00,162.83,3.415,2.790,2.724,2.790,2.692,0.500,0.007,0.000,0.059
2026-05-11 20:35:36.810920,RETURNING,23.620,1.000,0.00,0.00,163.45,3.269,2.790,2.600,2.692,2.661,0.500,0.002,0.000,0.063
2026-05-11 20:35:37.025792,RETURNING,23.524,1.000,0.00,0.00,164.10,3.269,2.934,2.487,2.630,2.600,0.500,0.002,0.000,0.077
2026-05-11 20:35:37.220393,RETURNING,23.428,1.000,0.00,0.00,164.92,3.178,2.934,2.409,2.630,2.222,0.500,0.035,0.000,0.080
2026-05-11 20:35:37.420685,RETURNING,23.331,1.000,0.00,0.00,165.85,3.051,6.356,2.288,2.487,2.288,0.500,0.017,0.000,0.087
2026-05-11 20:35:37.636241,RETURNING,23.234,1.000,0.00,0.00,166.86,2.972,6.730,2.159,2.487,2.222,0.500,0.024,0.000,0.101
2026-05-11 20:35:37.857188,RETURNING,23.136,1.000,0.00,0.00,168.02,2.790,6.730,2.007,4.868,5.720,0.500,-0.015,0.000,0.112
2026-05-11 20:35:38.075852,RETURNING,23.038,1.000,0.00,0.00,169.27,2.571,6.538,1.907,4.974,5.867,0.500,-0.015,0.000,0.108
2026-05-11 20:35:38.275868,RETURNING,22.940,1.000,0.00,0.00,170.56,2.630,7.627,1.816,4.868,6.022,0.500,-0.020,0.000,0.136
2026-05-11 20:35:38.503626,RETURNING,22.841,1.000,0.00,0.00,172.07,2.434,7.627,1.760,4.767,7.381,0.500,-0.037,0.000,0.126
2026-05-11 20:35:38.693554,RETURNING,22.742,1.000,0.00,0.00,173.52,2.335,6.934,1.670,4.868,5.867,0.500,-0.017,0.000,0.136
2026-05-11 20:35:38.873981,RETURNING,22.642,1.000,0.00,0.00,175.06,2.222,6.538,1.634,4.767,2.080,0.500,0.135,0.000,0.129
2026-05-11 20:35:39.122547,RETURNING,22.543,1.000,0.00,0.00,175.99,2.138,6.022,4.670,4.868,4.868,0.500,0.000,0.000,-0.203
2026-05-11 20:35:39.339422,RETURNING,22.443,1.000,0.00,0.00,173.67,2.119,6.022,4.400,4.868,5.321,0.500,-0.009,0.000,-0.196
2026-05-11 20:35:39.524912,RETURNING,22.344,1.000,0.00,0.00,171.44,2.335,7.151,1.224,4.868,6.730,0.500,-0.028,0.000,0.311
2026-05-11 20:35:39.720370,RETURNING,22.245,1.000,0.00,0.00,173.58,2.409,7.151,4.086,4.868,6.934,0.500,-0.031,0.000,-0.136
2026-05-11 20:35:39.932857,RETURNING,22.145,1.000,0.00,0.00,173.30,2.179,6.356,4.317,4.868,5.448,0.500,-0.011,0.000,-0.182
2026-05-11 20:35:40.157455,RETURNING,22.046,1.000,0.00,0.00,171.44,2.359,6.730,4.086,4.868,6.022,0.500,-0.020,0.000,-0.143
2026-05-11 20:35:40.333385,RETURNING,21.948,1.000,0.00,0.00,169.72,2.542,7.151,3.751,4.868,7.151,0.500,-0.033,0.000,-0.101
2026-05-11 20:35:40.536522,RETURNING,21.849,1.000,0.00,0.00,168.46,2.661,7.381,3.751,4.868,4.767,0.500,0.002,0.000,-0.087
2026-05-11 20:35:40.757484,RETURNING,21.752,1.000,0.00,0.00,167.45,2.860,8.172,3.520,4.868,7.627,0.500,-0.037,0.000,-0.052
2026-05-11 20:35:40.962477,RETURNING,21.654,1.000,0.00,0.00,166.71,3.051,8.475,3.415,4.868,5.720,0.500,-0.015,0.000,-0.028
2026-05-11 20:35:41.158421,RETURNING,21.557,1.000,0.00,0.00,166.33,3.178,7.151,3.365,4.868,5.720,0.500,-0.015,0.000,-0.014
2026-05-11 20:35:41.355731,RETURNING,21.460,1.000,0.00,0.00,166.15,3.269,7.381,3.316,4.868,0.387,0.129,0.400,0.000,-0.003
2026-05-11 20:35:41.583231,RETURNING,21.417,1.000,0.00,0.00,166.10,3.269,7.381,3.316,4.868,5.720,0.500,-0.015,0.000,-0.003
2026-05-11 20:35:41.791289,RETURNING,21.352,1.000,0.00,0.00,166.06,3.316,7.151,3.269,4.767,5.720,0.500,-0.017,0.000,0.003
2026-05-11 20:35:41.981474,RETURNING,21.255,1.000,0.00,0.00,166.10,3.415,7.627,3.223,4.868,5.720,0.500,-0.015,0.000,0.014
2026-05-11 20:35:42.192936,RETURNING,21.158,1.000,0.00,0.00,166.27,3.467,7.890,3.178,4.868,5.720,0.500,-0.015,0.000,0.021
2026-05-11 20:35:42.402009,RETURNING,21.061,1.000,0.00,0.00,166.49,3.467,8.172,3.223,4.868,4.767,0.500,0.002,0.000,0.017
2026-05-11 20:35:42.660914,RETURNING,20.964,1.000,0.00,0.00,166.70,3.520,8.172,3.178,4.868,5.867,0.500,-0.017,0.000,0.024
2026-05-11 20:35:42.866935,RETURNING,20.866,1.000,0.00,0.00,166.94,3.575,7.890,3.178,4.868,7.151,0.500,-0.033,0.000,0.028
2026-05-11 20:35:43.059675,RETURNING,20.769,1.000,0.00,0.00,167.23,3.520,7.890,3.134,4.868,7.890,0.500,-0.039,0.000,0.028
2026-05-11 20:35:43.259126,RETURNING,20.671,1.000,0.00,0.00,167.53,3.575,7.627,3.134,4.868,4.767,0.500,0.002,0.000,0.031
2026-05-11 20:35:43.466121,RETURNING,20.573,1.000,0.00,0.00,167.87,3.575,7.381,3.051,4.868,5.581,0.500,-0.013,0.000,0.038
2026-05-11 20:35:43.667758,RETURNING,20.476,1.000,0.00,0.00,168.29,3.520,7.151,3.051,4.868,7.381,0.500,-0.035,0.000,0.035
2026-05-11 20:35:43.874223,RETURNING,20.378,1.000,0.00,0.00,168.70,3.467,7.151,3.011,4.868,7.151,0.500,-0.033,0.000,0.035
2026-05-11 20:35:44.101517,RETURNING,20.279,1.000,0.00,0.00,169.10,3.415,6.934,3.011,4.868,6.934,0.500,-0.031,0.000,0.031
2026-05-11 20:35:44.325209,RETURNING,20.181,1.000,0.00,0.00,169.45,3.415,6.934,3.092,4.868,6.934,0.500,-0.031,0.000,0.024
2026-05-11 20:35:44.525202,RETURNING,20.083,1.000,0.00,0.00,169.73,3.316,6.934,3.178,4.868,6.356,0.500,-0.024,0.000,0.010
2026-05-11 20:35:44.694798,RETURNING,19.984,1.000,0.00,0.00,169.88,3.316,6.730,3.223,4.868,5.448,0.500,-0.011,0.000,0.007
2026-05-11 20:35:44.916791,RETURNING,19.886,1.000,0.00,0.00,169.96,3.269,6.730,3.269,4.868,5.448,0.500,-0.011,0.000,0.000
2026-05-11 20:35:45.128873,RETURNING,19.788,1.000,0.00,0.00,169.99,3.269,6.730,3.269,4.868,5.200,0.500,-0.007,0.000,0.000
2026-05-11 20:35:45.341772,RETURNING,19.689,1.000,0.00,0.00,169.99,3.269,6.538,3.269,4.868,5.321,0.500,-0.009,0.000,0.000
2026-05-11 20:35:45.535583,RETURNING,19.591,1.000,0.00,0.00,169.98,3.223,6.538,3.223,4.868,5.867,0.500,-0.017,0.000,0.000
2026-05-11 20:35:45.739323,RETURNING,19.492,1.000,0.00,0.00,169.97,3.223,6.356,3.178,4.868,6.022,0.500,-0.020,0.000,0.003
2026-05-11 20:35:45.946713,RETURNING,19.394,1.000,0.00,0.00,170.00,3.223,6.356,3.051,4.868,5.321,0.500,-0.009,0.000,0.014
2026-05-11 20:35:46.162098,RETURNING,19.295,1.000,0.00,0.00,170.14,3.178,6.356,3.092,4.974,5.867,0.500,-0.015,0.000,0.007
