timestamp,state,x,y,z,roll_deg,pitch_deg,yaw_deg,dist_left,dist_center,dist_right,dist_top,dist_bottom,dtof_alert,collision_event,best_dir,max_space,cmd_vx,cmd_vz,cmd_yaw
23:21:45.117,SEARCHING,0.000,0.000,0.000,0.00,0.00,0.00,10.000,10.000,10.000,10.000,10.000,0,0,SEARCHING,0.000,0.526,0.000,0.000
23:21:46.173,SEARCHING,0.042,0.000,1.000,0.00,0.00,0.00,10.000,10.000,10.000,10.000,10.000,0,0,SEARCHING,0.000,0.734,0.000,0.000
23:21:46.376,SEARCHING,0.193,0.000,1.000,0.00,0.00,0.00,10.000,10.000,10.000,10.000,10.000,0,0,SEARCHING,0.000,0.784,0.000,0.000
23:21:46.577,SEARCHING,0.350,0.000,1.000,0.00,0.00,0.00,5.516,8.844,4.261,7.581,5.279,0,0,SEARCHING,0.000,0.796,0.021,0.013
23:21:46.777,SEARCHING,0.446,0.000,1.007,0.00,0.00,0.12,3.443,8.099,4.356,6.422,3.474,0,0,SEARCHING,0.000,0.799,0.083,-0.005
23:21:46.980,SEARCHING,0.542,0.000,1.030,0.00,0.00,-0.09,3.186,8.011,4.458,6.204,3.032,0,0,SEARCHING,0.000,0.800,0.175,-0.051
23:21:47.181,SEARCHING,0.638,-0.000,1.068,0.00,0.00,-0.51,3.176,7.807,4.483,6.087,2.962,0,0,SEARCHING,0.000,0.800,0.206,-0.068
23:21:47.382,SEARCHING,0.734,-0.001,1.105,0.00,0.00,-0.99,3.193,6.877,4.421,6.026,5.385,0,0,SEARCHING,0.000,0.800,0.103,-0.070
23:21:47.582,SEARCHING,0.830,-0.003,1.122,0.00,0.00,-1.46,3.214,6.865,4.403,5.972,5.152,0,0,SEARCHING,0.000,0.800,0.051,-0.069
23:21:47.782,SEARCHING,0.926,-0.006,1.133,0.00,0.00,-1.92,3.288,7.327,4.303,5.879,3.653,0,0,SEARCHING,0.000,0.800,0.091,-0.063
23:21:47.982,SEARCHING,1.022,-0.010,1.155,0.00,0.00,-2.33,3.304,6.585,4.154,5.816,4.505,0,0,SEARCHING,0.000,0.800,0.121,-0.054
23:21:48.183,SEARCHING,1.118,-0.014,1.174,0.00,0.00,-2.68,3.306,6.296,4.103,5.788,5.561,0,0,SEARCHING,0.000,0.800,0.035,-0.049
23:21:48.384,SEARCHING,1.214,-0.019,1.181,0.00,0.00,-3.01,3.291,6.855,4.026,5.777,4.058,0,0,SEARCHING,0.000,0.800,0.059,-0.046
23:21:48.584,SEARCHING,1.309,-0.024,1.194,0.00,0.00,-3.31,3.310,6.609,3.956,5.738,4.884,0,0,SEARCHING,0.000,0.800,0.050,-0.042
23:21:48.785,SEARCHING,1.405,-0.030,1.204,0.00,0.00,-3.58,3.358,6.716,3.886,5.688,3.433,0,0,SEARCHING,0.000,0.800,0.091,-0.036
23:21:48.986,SEARCHING,1.501,-0.036,1.223,0.00,0.00,-3.81,3.390,6.728,3.830,5.692,3.673,0,0,SEARCHING,0.000,0.800,0.090,-0.031
23:21:49.186,SEARCHING,1.597,-0.042,1.240,0.00,0.00,-4.01,3.388,6.533,3.793,5.673,3.710,0,0,SEARCHING,0.000,0.800,0.087,-0.028
23:21:49.387,SEARCHING,1.693,-0.049,1.260,0.00,0.00,-4.20,3.390,6.265,3.750,5.597,3.882,0,0,SEARCHING,0.000,0.800,0.109,-0.025
23:21:49.589,SEARCHING,1.788,-0.056,1.280,0.00,0.00,-4.36,3.382,6.166,3.680,5.515,3.981,0,0,SEARCHING,0.000,0.800,0.087,-0.022
23:21:49.788,SEARCHING,1.884,-0.064,1.297,0.00,0.00,-4.50,3.411,6.334,3.645,5.482,3.713,0,0,SEARCHING,0.000,0.800,0.092,-0.018
23:21:49.989,SEARCHING,1.980,-0.071,1.316,0.00,0.00,-4.61,3.414,6.223,3.602,5.452,4.570,0,0,SEARCHING,0.000,0.800,0.063,-0.014
23:21:50.189,SEARCHING,2.075,-0.079,1.326,0.00,0.00,-4.70,3.401,6.034,3.578,5.449,3.752,0,0,SEARCHING,0.000,0.800,0.065,-0.013
23:21:50.389,SEARCHING,2.171,-0.087,1.342,0.00,0.00,-4.78,3.389,6.000,3.511,5.421,4.128,0,0,SEARCHING,0.000,0.800,0.085,-0.011
23:21:50.590,SEARCHING,2.267,-0.095,1.358,0.00,0.00,-4.84,3.381,5.950,3.487,5.371,3.969,0,0,SEARCHING,0.000,0.800,0.078,-0.007
23:21:50.791,SEARCHING,2.362,-0.103,1.374,0.00,0.00,-4.82,5.201,5.780,3.477,5.291,3.903,0,0,SEARCHING,0.000,0.800,0.078,0.031
23:21:50.992,SEARCHING,2.458,-0.111,1.388,0.00,0.00,-4.45,5.381,5.797,3.457,5.271,4.438,0,0,SEARCHING,0.000,0.800,0.046,0.069
23:21:51.192,SEARCHING,2.554,-0.118,1.397,0.00,0.00,-3.91,5.573,5.833,3.417,5.281,3.950,0,0,SEARCHING,0.000,0.800,0.054,0.086
23:21:51.393,SEARCHING,2.650,-0.124,1.408,0.00,0.00,-3.33,4.820,5.853,3.450,5.219,3.939,0,0,SEARCHING,0.000,0.800,0.061,0.079
23:21:51.593,SEARCHING,2.746,-0.129,1.421,0.00,0.00,-2.83,5.040,5.890,3.497,5.209,3.870,0,0,SEARCHING,0.000,0.800,0.076,0.071
23:21:51.794,SEARCHING,2.841,-0.134,1.437,0.00,0.00,-2.33,5.271,5.927,3.477,5.134,4.010,0,0,SEARCHING,0.000,0.800,0.081,0.075
23:21:51.995,SEARCHING,2.937,-0.137,1.453,0.00,0.00,-1.80,5.223,6.155,3.422,5.134,4.082,0,0,SEARCHING,0.000,0.800,0.069,0.079
23:21:52.196,SEARCHING,3.033,-0.140,1.466,0.00,0.00,-1.26,5.177,5.966,3.462,5.108,4.296,0,0,SEARCHING,0.000,0.800,0.045,0.077
23:21:52.396,SEARCHING,3.129,-0.142,1.473,0.00,0.00,-0.74,5.023,6.695,3.448,4.998,3.881,0,0,SEARCHING,0.000,0.800,0.032,0.075
23:21:52.596,SEARCHING,3.225,-0.143,1.481,0.00,0.00,-0.23,4.948,7.834,3.465,5.055,4.043,0,0,SEARCHING,0.000,0.800,0.058,0.072
23:21:52.797,SEARCHING,3.321,-0.143,1.491,0.00,0.00,0.25,4.878,7.998,3.486,5.040,4.334,0,0,SEARCHING,0.000,0.800,0.020,0.068
23:21:52.998,SEARCHING,3.449,-0.141,1.493,0.00,0.00,0.86,4.818,7.903,3.467,4.950,4.434,0,0,SEARCHING,0.000,0.800,0.005,0.066
23:21:53.198,SEARCHING,3.609,-0.138,1.493,0.00,0.00,1.61,4.687,7.785,3.472,4.933,5.508,0,0,SEARCHING,0.000,0.800,0.001,0.062
23:21:53.400,SEARCHING,3.769,-0.133,1.493,0.00,0.00,2.31,4.549,7.580,3.477,4.909,4.260,0,0,SEARCHING,0.000,0.800,0.000,0.057
23:21:53.600,SEARCHING,3.929,-0.125,1.493,0.00,0.00,2.95,4.448,7.550,3.508,4.960,4.167,0,0,SEARCHING,0.000,0.800,0.000,0.052
23:21:53.800,SEARCHING,4.089,-0.116,1.493,0.00,0.00,3.54,4.388,7.419,3.523,4.973,5.422,0,0,SEARCHING,0.000,0.800,0.000,0.048
23:21:54.002,SEARCHING,4.248,-0.106,1.493,0.00,0.00,4.08,4.313,7.199,3.492,4.974,5.102,0,0,SEARCHING,0.000,0.800,0.000,0.045
23:21:54.202,SEARCHING,4.408,-0.094,1.493,0.00,0.00,4.59,4.211,7.014,3.496,4.974,4.282,0,0,SEARCHING,0.000,0.800,0.000,0.042
23:21:54.402,SEARCHING,4.567,-0.080,1.493,0.00,0.00,5.06,4.112,6.943,3.534,5.003,4.845,0,0,SEARCHING,0.000,0.800,0.000,0.037
23:21:54.603,SEARCHING,4.727,-0.066,1.493,0.00,0.00,5.46,4.035,6.765,3.526,5.001,4.500,0,0,SEARCHING,0.000,0.800,0.000,0.031
23:21:54.803,SEARCHING,4.886,-0.050,1.493,0.00,0.00,5.81,3.936,6.608,3.520,4.955,4.724,0,0,SEARCHING,0.000,0.800,0.000,0.027
23:21:55.004,SEARCHING,5.045,-0.034,1.493,0.00,0.00,6.10,3.885,6.408,3.485,5.038,4.304,0,0,SEARCHING,0.000,0.800,0.000,0.024
23:21:55.205,SEARCHING,5.204,-0.016,1.493,0.00,0.00,6.37,3.822,6.311,3.656,5.071,5.132,0,0,SEARCHING,0.000,0.800,0.000,0.017
23:21:55.405,SEARCHING,5.363,0.002,1.493,0.00,0.00,6.54,3.770,6.199,3.725,5.072,4.857,0,0,SEARCHING,0.000,0.800,0.000,0.008
23:21:55.606,SEARCHING,5.522,0.020,1.493,0.00,0.00,6.60,3.779,6.062,4.045,4.986,5.286,0,0,SEARCHING,0.000,0.800,0.000,-0.004
23:21:55.806,SEARCHING,5.681,0.038,1.493,0.00,0.00,6.52,3.754,5.846,4.127,5.011,4.232,0,0,SEARCHING,0.000,0.800,0.000,-0.014
23:21:56.007,SEARCHING,5.840,0.056,1.493,0.00,0.00,6.33,3.701,5.743,4.527,4.995,4.479,0,0,SEARCHING,0.000,0.800,0.000,-0.027
23:21:56.208,SEARCHING,5.999,0.074,1.493,0.00,0.00,5.95,3.618,5.600,5.031,4.990,4.141,0,0,SEARCHING,0.000,0.800,0.000,-0.048
23:21:56.408,SEARCHING,6.158,0.089,1.493,0.00,0.00,5.35,3.580,5.536,5.087,5.049,4.317,0,0,SEARCHING,0.000,0.800,0.000,-0.061
23:21:56.610,SEARCHING,6.286,0.101,1.494,0.00,0.00,4.78,3.530,5.420,4.969,5.047,4.603,0,0,SEARCHING,0.000,0.800,0.020,-0.065
23:21:56.809,SEARCHING,6.413,0.111,1.496,0.00,0.00,4.18,3.523,5.473,4.883,5.069,4.103,0,0,SEARCHING,0.000,0.800,0.022,-0.065
23:21:57.010,SEARCHING,6.509,0.118,1.503,0.00,0.00,3.74,3.517,5.451,4.824,5.072,3.956,0,0,SEARCHING,0.000,0.800,0.056,-0.063
23:21:57.212,SEARCHING,6.605,0.124,1.515,0.00,0.00,3.32,3.551,5.422,4.710,5.027,4.048,0,0,SEARCHING,0.000,0.800,0.060,-0.059
23:21:57.412,SEARCHING,6.701,0.129,1.525,0.00,0.00,2.93,3.528,5.407,4.633,4.980,4.896,0,0,SEARCHING,0.000,0.800,0.020,-0.055
23:21:57.612,SEARCHING,6.829,0.135,1.527,0.00,0.00,2.43,3.531,5.430,4.537,4.975,4.281,0,0,SEARCHING,0.000,0.800,0.005,-0.052
23:21:57.812,SEARCHING,6.957,0.140,1.529,0.00,0.00,1.96,3.571,5.341,4.454,4.936,4.482,0,0,SEARCHING,0.000,0.800,0.022,-0.048
23:21:58.013,SEARCHING,7.053,0.143,1.532,0.00,0.00,1.65,3.567,5.343,4.356,4.964,4.644,0,0,SEARCHING,0.000,0.800,0.005,-0.043
23:21:58.214,SEARCHING,7.212,0.147,1.532,0.00,0.00,1.17,3.534,5.311,4.213,4.896,4.798,0,0,SEARCHING,0.000,0.800,0.001,-0.039
23:21:58.415,SEARCHING,7.372,0.150,1.532,0.00,0.00,0.74,3.558,5.257,3.986,4.941,4.657,0,0,SEARCHING,0.000,0.800,0.000,-0.032
23:21:58.616,SEARCHING,7.532,0.151,1.532,0.00,0.00,0.40,3.524,5.207,3.792,4.937,4.365,0,0,SEARCHING,0.000,0.800,0.000,-0.022
23:21:58.815,SEARCHING,7.692,0.152,1.532,0.00,0.00,0.18,3.507,5.072,3.541,4.912,4.341,0,0,SEARCHING,0.000,0.800,0.000,-0.011
23:21:59.016,SEARCHING,7.852,0.152,1.532,0.00,0.00,0.08,3.445,4.991,3.417,4.967,4.353,0,0,SEARCHING,0.000,0.800,0.000,-0.003
23:21:59.217,SEARCHING,7.980,0.153,1.533,0.00,0.00,0.06,3.340,4.929,3.376,4.868,4.187,0,0,SEARCHING,0.000,0.800,0.019,-0.002
23:21:59.417,SEARCHING,8.108,0.153,1.535,0.00,0.00,0.04,3.214,4.809,3.321,4.838,4.265,0,0,SEARCHING,0.000,0.800,0.004,-0.004
23:21:59.617,SEARCHING,8.268,0.153,1.535,0.00,0.00,-0.02,3.095,4.772,3.161,4.783,4.377,0,0,SEARCHING,0.000,0.800,0.001,-0.006
23:21:59.819,SEARCHING,8.428,0.153,1.535,0.00,0.00,-0.08,3.018,4.682,3.029,4.690,4.205,0,0,SEARCHING,0.000,0.800,0.000,-0.003
23:22:00.019,SEARCHING,8.588,0.152,1.535,0.00,0.00,-0.11,2.921,4.543,2.883,4.571,4.248,0,0,SEARCHING,0.000,0.800,0.000,0.001
23:22:00.220,SEARCHING,8.748,0.152,1.535,0.00,0.00,-0.08,2.876,4.427,2.784,4.444,4.203,0,0,SEARCHING,0.000,0.800,0.000,0.006
23:22:00.420,SEARCHING,8.908,0.152,1.535,0.00,0.00,-0.01,2.792,4.325,2.732,4.351,4.156,0,0,SEARCHING,0.000,0.800,0.000,0.006
23:22:00.621,SEARCHING,9.068,0.152,1.535,0.00,0.00,0.07,2.726,4.193,2.641,4.237,4.106,0,0,SEARCHING,0.000,0.800,0.000,0.008
23:22:00.821,SEARCHING,9.228,0.152,1.535,0.00,0.00,0.17,2.661,4.026,2.568,4.073,4.019,0,0,SEARCHING,0.000,0.800,0.000,0.009
23:22:01.022,SEARCHING,9.388,0.153,1.535,0.00,0.00,0.11,2.559,3.899,4.148,3.935,3.898,0,0,SEARCHING,0.000,0.800,0.000,-0.062
23:22:01.223,SEARCHING,9.548,0.152,1.535,0.00,0.00,-0.79,2.526,3.797,4.497,3.833,3.855,0,0,SEARCHING,0.000,0.800,0.000,-0.115
23:22:01.423,SEARCHING,9.708,0.148,1.535,0.00,0.00,-2.19,2.506,3.811,4.814,3.830,3.841,0,0,SEARCHING,0.000,0.800,0.000,-0.141
23:22:01.623,SEARCHING,9.868,0.140,1.535,0.00,0.00,-3.84,2.501,3.845,4.738,3.853,3.837,0,0,SEARCHING,0.000,0.800,0.000,-0.149
23:22:01.823,SEARCHING,10.028,0.127,1.535,0.00,0.00,-5.55,2.513,3.918,4.699,3.935,3.709,0,0,SEARCHING,0.000,0.800,0.000,-0.149
23:22:02.024,SEARCHING,10.187,0.110,1.535,0.00,0.00,-7.25,2.533,4.032,4.627,4.020,3.932,0,0,SEARCHING,0.000,0.800,0.000,-0.146
23:22:02.225,SEARCHING,10.345,0.087,1.535,0.00,0.00,-8.91,2.529,4.138,4.570,4.146,3.954,0,0,SEARCHING,0.000,0.800,0.000,-0.143
23:22:02.426,SEARCHING,10.503,0.061,1.535,0.00,0.00,-10.55,2.548,4.261,4.557,4.238,3.989,0,0,SEARCHING,0.000,0.800,0.000,-0.140
23:22:02.626,SEARCHING,10.660,0.029,1.535,0.00,0.00,-12.14,2.568,4.412,4.516,4.151,4.074,0,0,SEARCHING,0.000,0.800,0.000,-0.136
23:22:02.828,SEARCHING,10.816,-0.006,1.535,0.00,0.00,-13.69,2.600,4.350,4.354,4.017,3.963,0,0,SEARCHING,0.000,0.800,0.000,-0.130
23:22:03.027,SEARCHING,10.971,-0.046,1.535,0.00,0.00,-15.16,2.627,4.292,4.378,3.849,4.874,0,0,SEARCHING,0.000,0.800,-0.020,-0.123
23:22:03.604,SEARCHING,11.048,-0.067,1.529,0.00,0.00,-15.86,2.619,4.300,4.411,3.801,4.638,0,0,SEARCHING,0.000,0.800,-0.049,-0.123
23:22:03.727,SEARCHING,11.140,-0.094,1.518,0.00,0.00,-16.73,2.655,4.524,5.325,3.678,4.846,0,0,SEARCHING,0.000,0.800,-0.065,-0.136
23:22:03.917,SEARCHING,11.232,-0.122,1.503,0.00,0.00,-17.72,2.700,5.751,5.973,3.552,4.970,0,0,SEARCHING,0.000,0.800,-0.092,-0.152
23:22:04.118,SEARCHING,11.323,-0.152,1.483,0.00,0.00,-18.80,2.731,6.479,6.285,3.513,5.217,0,0,SEARCHING,0.000,0.800,-0.116,-0.162
23:22:04.316,SEARCHING,11.414,-0.184,1.459,0.00,0.00,-19.93,2.764,7.177,6.275,3.438,4.715,0,0,SEARCHING,0.000,0.800,-0.118,-0.164
23:22:04.517,SEARCHING,11.504,-0.217,1.437,0.00,0.00,-21.04,2.834,7.606,6.195,3.360,4.115,0,0,SEARCHING,0.000,0.800,-0.091,-0.158
23:22:04.719,SEARCHING,11.593,-0.253,1.417,0.00,0.00,-22.10,2.901,7.471,5.985,3.262,5.222,0,0,SEARCHING,0.000,0.800,-0.123,-0.149
23:22:04.918,SEARCHING,11.682,-0.289,1.392,0.00,0.00,-23.09,3.574,7.680,5.859,3.176,4.167,0,0,SEARCHING,0.000,0.800,-0.118,-0.124
23:22:05.119,SEARCHING,11.770,-0.327,1.371,0.00,0.00,-23.77,4.308,7.691,5.628,3.040,5.120,0,0,SEARCHING,0.000,0.800,-0.112,-0.073
23:22:05.320,SEARCHING,11.857,-0.366,1.348,0.00,0.00,-24.17,4.580,7.561,5.586,2.931,3.878,0,0,SEARCHING,0.000,0.800,-0.110,-0.044
23:22:05.520,SEARCHING,11.945,-0.406,1.324,0.00,0.00,-24.42,4.703,7.532,5.426,2.861,4.906,0,0,SEARCHING,0.000,0.800,-0.153,-0.030
23:22:05.720,SEARCHING,12.032,-0.446,1.291,0.00,0.00,-24.60,4.796,7.399,5.407,2.812,4.867,0,0,SEARCHING,0.000,0.800,-0.177,-0.023
23:22:05.921,SEARCHING,12.120,-0.486,1.257,0.00,0.00,-24.74,4.849,7.383,5.339,2.725,3.611,0,0,SEARCHING,0.000,0.800,-0.144,-0.018
23:22:06.121,SEARCHING,12.207,-0.526,1.227,0.00,0.00,-24.85,4.899,7.230,5.275,2.605,4.589,0,0,SEARCHING,0.000,0.800,-0.176,-0.014
23:22:06.322,SEARCHING,12.294,-0.566,1.193,0.00,0.00,-24.94,4.963,7.160,5.260,2.564,5.156,0,0,SEARCHING,0.000,0.800,-0.182,-0.011
23:22:06.523,SEARCHING,12.381,-0.607,1.153,0.00,0.00,-25.01,4.989,7.152,5.278,2.515,3.968,0,0,SEARCHING,0.000,0.800,-0.204,-0.009
23:22:06.723,SEARCHING,12.468,-0.648,1.116,0.00,0.00,-25.07,5.044,6.975,5.210,2.534,3.079,0,0,SEARCHING,0.000,0.800,-0.130,-0.007
23:22:06.924,SEARCHING,12.555,-0.688,1.094,0.00,0.00,-25.11,5.080,6.939,5.184,2.616,4.571,0,0,SEARCHING,0.000,0.800,-0.122,-0.005
23:22:07.125,SEARCHING,12.642,-0.729,1.065,0.00,0.00,-25.13,5.084,6.873,5.143,2.680,3.439,0,0,SEARCHING,0.000,0.800,-0.144,-0.003
23:22:07.325,SEARCHING,12.729,-0.770,1.043,0.00,0.00,-25.14,5.187,6.761,5.115,2.756,3.953,0,0,SEARCHING,0.000,0.800,-0.084,0.000
23:22:07.526,SEARCHING,12.815,-0.811,1.026,0.00,0.00,-25.13,5.291,6.734,5.088,2.768,3.623,0,0,SEARCHING,0.000,0.800,-0.085,0.004
23:22:07.728,SEARCHING,12.902,-0.851,1.011,0.00,0.00,-25.10,5.318,6.690,5.085,2.842,2.760,0,0,SEARCHING,0.000,0.800,-0.031,0.006
23:22:07.928,SEARCHING,12.989,-0.892,1.005,0.00,0.00,-25.05,5.321,6.565,5.069,2.864,3.590,0,0,SEARCHING,0.000,0.800,-0.056,0.007
23:22:08.129,SEARCHING,13.076,-0.933,0.992,0.00,0.00,-25.00,5.348,6.541,5.038,2.888,4.773,0,0,SEARCHING,0.000,0.800,-0.096,0.008
23:22:08.329,SEARCHING,13.163,-0.973,0.969,0.00,0.00,-24.94,5.324,6.529,4.982,2.921,3.376,0,0,SEARCHING,0.000,0.800,-0.114,0.010
23:22:08.529,SEARCHING,13.250,-1.014,0.949,0.00,0.00,-24.87,5.285,6.524,4.938,2.940,4.502,0,0,SEARCHING,0.000,0.800,-0.101,0.010
23:22:08.730,SEARCHING,13.338,-1.054,0.928,0.00,0.00,-24.80,5.305,6.417,4.867,3.025,3.004,0,0,SEARCHING,0.000,0.800,-0.080,0.012
23:22:08.931,SEARCHING,13.425,-1.094,0.916,0.00,0.00,-24.72,5.188,6.363,4.827,3.094,3.451,0,0,SEARCHING,0.000,0.800,-0.019,0.012
23:22:09.131,SEARCHING,13.512,-1.134,0.910,0.00,0.00,-24.63,5.117,6.357,4.774,3.073,3.906,0,0,SEARCHING,0.000,0.800,-0.069,0.012
23:22:09.332,SEARCHING,13.599,-1.174,0.898,0.00,0.00,-24.55,5.044,6.269,4.758,3.131,4.048,0,0,SEARCHING,0.000,0.800,-0.051,0.011
23:22:09.532,SEARCHING,13.687,-1.214,0.889,0.00,0.00,-24.49,4.983,6.384,4.833,3.156,3.365,0,0,SEARCHING,0.000,0.800,-0.021,0.008
23:22:09.731,SEARCHING,13.774,-1.254,0.884,0.00,0.00,-24.44,4.889,6.321,4.846,3.139,3.231,0,0,SEARCHING,0.000,0.800,-0.025,0.004
23:22:09.931,SEARCHING,13.861,-1.294,0.881,0.00,0.00,-24.42,4.819,6.200,4.747,3.165,3.652,0,0,SEARCHING,0.000,0.800,-0.021,0.003
23:22:10.132,SEARCHING,13.949,-1.333,0.879,0.00,0.00,-24.40,4.773,6.186,4.765,3.266,3.614,0,0,SEARCHING,0.000,0.800,0.009,0.001
23:22:10.332,SEARCHING,14.065,-1.386,0.884,0.00,0.00,-24.40,4.682,6.061,4.693,5.323,2.499,0,0,SEARCHING,0.000,0.800,0.135,-0.000
23:22:10.532,SEARCHING,14.153,-1.426,0.915,0.00,0.00,-24.40,4.589,6.170,4.663,5.674,3.817,0,0,SEARCHING,0.000,0.800,0.140,-0.001
23:22:10.733,SEARCHING,14.240,-1.465,0.941,0.00,0.00,-24.42,4.537,6.088,4.698,5.644,2.936,0,0,SEARCHING,0.000,0.800,0.147,-0.004
23:22:10.935,SEARCHING,14.328,-1.505,0.974,0.00,0.00,-24.45,4.436,5.928,4.673,5.388,2.753,0,0,SEARCHING,0.000,0.800,0.190,-0.007
23:22:11.136,SEARCHING,14.415,-1.545,1.013,0.00,0.00,-24.50,4.367,5.885,4.588,5.161,3.150,0,0,SEARCHING,0.000,0.800,0.182,-0.008
23:22:11.335,SEARCHING,14.502,-1.585,1.048,0.00,0.00,-24.56,4.297,5.753,4.584,4.871,3.369,0,0,SEARCHING,0.000,0.800,0.160,-0.010
23:22:11.538,SEARCHING,14.590,-1.625,1.078,0.00,0.00,-24.64,4.198,5.682,4.568,4.775,3.240,0,0,SEARCHING,0.000,0.800,0.124,-0.013
23:22:11.736,SEARCHING,14.677,-1.665,1.098,0.00,0.00,-24.75,4.087,5.586,4.548,4.958,3.618,0,0,SEARCHING,0.000,0.800,0.069,-0.017
23:22:11.937,SEARCHING,14.764,-1.705,1.113,0.00,0.00,-24.88,3.950,5.493,4.505,5.308,3.750,0,0,SEARCHING,0.000,0.800,0.083,-0.022
23:22:12.139,SEARCHING,14.851,-1.746,1.129,0.00,0.00,-25.04,3.867,5.453,4.432,5.326,3.942,0,0,SEARCHING,0.000,0.800,0.080,-0.025
23:22:12.339,SEARCHING,14.938,-1.786,1.145,0.00,0.00,-25.22,3.820,5.392,4.350,5.322,3.914,0,0,SEARCHING,0.000,0.800,0.076,-0.026
23:22:12.538,SEARCHING,15.025,-1.827,1.161,0.00,0.00,-25.40,3.759,5.250,4.285,5.236,3.447,0,0,SEARCHING,0.000,0.800,0.098,-0.026
23:22:12.740,SEARCHING,15.111,-1.869,1.181,0.00,0.00,-25.58,3.712,5.087,4.192,5.152,3.671,0,0,SEARCHING,0.000,0.800,0.100,-0.026
23:22:12.940,SEARCHING,15.198,-1.910,1.201,0.00,0.00,-25.75,3.722,5.080,4.108,5.070,4.074,0,0,SEARCHING,0.000,0.800,0.081,-0.023
23:22:13.141,SEARCHING,15.284,-1.952,1.215,0.00,0.00,-25.90,3.789,4.980,4.006,5.031,3.522,0,0,SEARCHING,0.000,0.800,0.076,-0.017
23:22:13.342,SEARCHING,15.371,-1.994,1.233,0.00,0.00,-25.98,3.864,4.919,3.925,4.981,3.520,0,0,SEARCHING,0.000,0.800,0.102,-0.008
23:22:13.541,SEARCHING,15.457,-2.036,1.253,0.00,0.00,-26.01,3.980,4.847,3.799,4.895,4.023,0,0,SEARCHING,0.000,0.800,0.084,0.002
23:22:13.743,SEARCHING,15.543,-2.078,1.266,0.00,0.00,-25.96,4.034,4.784,3.695,4.841,3.754,0,0,SEARCHING,0.000,0.800,0.047,0.012
23:22:13.943,SEARCHING,15.630,-2.120,1.277,0.00,0.00,-25.85,4.033,4.769,3.601,4.874,4.093,0,0,SEARCHING,0.000,0.800,0.051,0.020
23:22:14.144,SEARCHING,15.716,-2.162,1.285,0.00,0.00,-25.69,4.076,4.767,3.530,4.885,3.900,0,0,SEARCHING,0.000,0.800,0.031,0.027
23:22:14.345,SEARCHING,15.803,-2.203,1.293,0.00,0.00,-25.49,4.089,4.777,3.451,4.876,3.533,0,0,SEARCHING,0.000,0.800,0.068,0.033
23:22:14.544,SEARCHING,15.889,-2.244,1.307,0.00,0.00,-25.25,4.092,4.768,3.367,4.869,3.855,0,0,SEARCHING,0.000,0.800,0.072,0.038
23:22:14.746,SEARCHING,15.976,-2.285,1.321,0.00,0.00,-24.97,4.047,4.791,3.263,4.828,3.961,0,0,SEARCHING,0.000,0.800,0.062,0.044
23:22:14.946,SEARCHING,16.063,-2.326,1.331,0.00,0.00,-24.64,4.023,4.859,3.139,4.859,4.048,0,0,SEARCHING,0.000,0.800,0.020,0.051
23:22:15.147,SEARCHING,16.151,-2.365,1.337,0.00,0.00,-24.27,3.989,4.904,3.013,4.873,3.771,0,0,SEARCHING,0.000,0.800,0.053,0.059
23:22:15.346,SEARCHING,16.238,-2.405,1.349,0.00,0.00,-23.84,3.950,4.938,2.919,4.885,3.767,0,0,SEARCHING,0.000,0.800,0.067,0.067
23:22:15.547,SEARCHING,16.326,-2.443,1.362,0.00,0.00,-23.36,3.895,4.965,2.830,4.870,3.722,0,0,SEARCHING,0.000,0.800,0.073,0.073
23:22:15.748,SEARCHING,16.415,-2.481,1.377,0.00,0.00,-22.84,3.795,4.900,2.757,4.884,3.686,0,0,SEARCHING,0.000,0.800,0.075,0.077
23:22:15.949,SEARCHING,16.503,-2.518,1.392,0.00,0.00,-22.30,3.738,4.839,2.662,4.915,3.705,0,0,SEARCHING,0.000,0.800,0.078,0.082
23:22:16.149,SEARCHING,16.592,-2.554,1.408,0.00,0.00,-21.72,3.658,4.768,2.635,4.930,3.585,0,0,SEARCHING,0.000,0.800,0.083,0.085
23:22:16.350,SEARCHING,16.681,-2.589,1.425,0.00,0.00,-21.14,3.581,4.649,2.681,4.881,3.561,0,0,SEARCHING,0.000,0.800,0.089,0.080
23:22:16.550,SEARCHING,16.771,-2.623,1.443,0.00,0.00,-20.61,3.566,4.594,2.680,4.796,3.497,0,0,SEARCHING,0.000,0.800,0.092,0.076
23:22:16.750,SEARCHING,16.861,-2.657,1.462,0.00,0.00,-20.10,3.510,4.542,2.692,4.729,3.455,0,0,SEARCHING,0.000,0.800,0.093,0.072
23:22:16.951,SEARCHING,16.951,-2.689,1.480,0.00,0.00,-19.62,3.477,4.452,2.731,4.677,3.367,0,0,SEARCHING,0.000,0.800,0.096,0.067
23:22:17.152,SEARCHING,17.042,-2.721,1.500,0.00,0.00,-19.17,3.434,4.352,2.739,4.609,3.263,0,0,SEARCHING,0.000,0.800,0.103,0.062
23:22:17.353,SEARCHING,17.133,-2.753,1.521,0.00,0.00,-18.76,3.379,4.289,2.770,4.521,3.178,0,0,SEARCHING,0.000,0.800,0.109,0.057
23:22:17.553,SEARCHING,17.224,-2.783,1.543,0.00,0.00,-18.40,3.312,4.204,2.807,4.434,3.079,0,0,SEARCHING,0.000,0.800,0.115,0.049
23:22:17.754,SEARCHING,17.315,-2.813,1.567,0.00,0.00,-18.08,3.279,4.117,2.839,4.341,2.977,0,0,SEARCHING,0.000,0.800,0.121,0.042
23:22:17.954,SEARCHING,17.406,-2.843,1.591,0.00,0.00,-17.81,3.234,4.018,2.819,4.259,2.885,0,0,SEARCHING,0.000,0.800,0.129,0.038
23:22:18.155,SEARCHING,17.498,-2.872,1.617,0.00,0.00,-17.56,3.229,3.924,2.838,4.178,2.809,0,0,SEARCHING,0.000,0.800,0.136,0.035
23:22:18.356,SEARCHING,17.589,-2.901,1.645,0.00,0.00,-17.32,3.186,3.687,2.851,4.087,2.727,0,0,SEARCHING,0.000,0.800,0.142,0.033
23:22:18.557,SEARCHING,17.681,-2.929,1.674,0.00,0.00,-17.11,3.149,3.524,2.876,3.955,2.679,0,0,SEARCHING,0.000,0.800,0.145,0.028
23:22:18.757,SEARCHING,17.773,-2.957,1.703,0.00,0.00,-16.94,3.100,3.460,2.886,3.853,2.658,0,0,SEARCHING,0.000,0.800,0.143,0.022
23:22:18.958,SEARCHING,17.865,-2.985,1.731,0.00,0.00,-16.80,3.097,3.439,2.903,3.736,2.645,0,0,SEARCHING,0.000,0.800,0.137,0.018
23:22:19.158,SEARCHING,17.956,-3.013,1.758,0.00,0.00,-16.67,3.123,3.428,2.886,3.685,2.686,0,0,SEARCHING,0.000,0.800,0.129,0.020
23:22:19.359,SEARCHING,18.048,-3.040,1.783,0.00,0.00,-16.53,3.131,3.351,2.890,3.630,2.725,0,0,SEARCHING,0.000,0.800,0.118,0.021
23:22:19.559,SEARCHING,18.141,-3.068,1.806,0.00,0.00,-16.40,3.108,3.264,2.928,3.564,2.799,0,0,SEARCHING,0.000,0.800,0.103,0.017
23:22:19.760,SEARCHING,18.233,-3.095,1.825,0.00,0.00,-16.28,3.141,3.181,2.881,3.490,2.887,0,0,SEARCHING,0.000,0.800,0.085,0.019
23:22:19.961,SEARCHING,18.325,-3.121,1.841,0.00,0.00,-16.13,3.150,3.064,2.759,3.404,2.934,0,0,SEARCHING,0.000,0.800,0.068,0.028
23:22:20.162,SEARCHING,18.417,-3.148,1.854,0.00,0.00,-15.91,3.107,2.953,2.763,3.301,2.917,0,0,SEARCHING,0.000,0.800,0.041,0.032
23:22:20.361,SEARCHING,18.509,-3.174,1.860,0.00,0.00,-15.69,3.111,2.834,2.733,3.217,2.851,0,0,SEARCHING,0.000,0.800,0.010,0.034
23:22:20.562,SEARCHING,18.664,-3.217,1.860,0.00,0.00,-15.29,3.023,2.699,2.658,3.097,2.739,0,0,SEARCHING,0.000,0.800,0.018,0.035
23:22:20.762,SEARCHING,18.756,-3.242,1.865,0.00,0.00,-15.04,2.986,2.633,2.612,2.990,2.639,0,0,SEARCHING,0.000,0.800,0.044,0.037
23:22:20.963,SEARCHING,18.849,-3.267,1.875,0.00,0.00,-14.78,2.969,2.544,2.516,2.913,2.527,0,0,SEARCHING,0.000,0.800,0.055,0.042
23:22:21.163,SEARCHING,18.942,-3.291,1.886,0.00,0.00,-14.46,2.924,2.456,2.416,2.826,2.443,0,0,SEARCHING,0.000,0.800,0.063,0.051
23:22:21.364,SEARCHING,19.035,-3.315,1.899,0.00,0.00,-14.08,2.876,2.374,2.308,2.730,2.376,0,0,SEARCHING,0.000,0.800,0.065,0.062
23:22:21.565,SEARCHING,19.128,-3.338,1.912,0.00,0.00,-13.62,2.812,2.310,2.227,2.640,2.303,0,0,SEARCHING,0.000,0.800,0.066,0.070
23:22:21.765,SEARCHING,19.222,-3.360,1.925,0.00,0.00,-13.12,2.768,2.232,2.103,2.549,2.228,0,0,SEARCHING,0.000,0.800,0.066,0.081
23:22:21.967,SEARCHING,19.315,-3.382,1.938,0.00,0.00,-12.51,2.720,2.161,2.007,2.444,2.134,0,0,SEARCHING,0.000,0.800,0.069,0.096
23:22:22.167,SEARCHING,19.409,-3.402,1.952,0.00,0.00,-11.82,2.639,2.083,1.941,2.363,2.065,0,0,SEARCHING,0.000,0.800,0.071,0.104
23:22:22.367,SEARCHING,19.503,-3.421,1.967,0.00,0.00,-11.08,2.561,2.024,1.829,2.276,1.994,0,0,SEARCHING,0.000,0.796,0.074,0.115
23:22:22.568,SEARCHING,19.597,-3.439,1.982,0.00,0.00,-10.25,2.469,2.145,1.733,2.197,1.905,0,0,SEARCHING,0.000,0.798,0.080,0.129
23:22:22.769,SEARCHING,19.691,-3.455,1.992,0.00,0.00,-9.32,2.387,2.049,1.626,2.112,3.490,0,0,SEARCHING,0.000,0.791,-0.070,0.144
23:22:22.969,SEARCHING,19.783,-3.470,1.968,0.00,0.00,-8.27,2.305,1.970,1.517,2.048,3.817,0,0,SEARCHING,0.000,0.744,-0.213,0.164
23:22:23.173,SEARCHING,19.869,-3.481,1.921,0.00,0.00,-7.07,2.200,1.975,1.424,1.980,3.575,0,0,SEARCHING,0.000,0.709,-0.258,0.186
23:22:23.375,SEARCHING,19.952,-3.491,1.869,0.00,0.00,-5.74,2.158,1.908,1.366,1.899,3.325,0,0,SEARCHING,0.000,0.676,-0.267,0.202
23:22:23.577,SEARCHING,20.031,-3.498,1.815,0.00,0.00,-4.29,2.096,1.875,1.313,1.823,3.141,0,0,SEARCHING,0.000,0.640,-0.271,0.218
23:22:23.777,SEARCHING,20.106,-3.503,1.761,0.00,0.00,-2.77,2.003,1.946,1.278,1.768,2.915,0,0,SEARCHING,0.000,0.637,-0.270,0.224
23:22:23.978,SEARCHING,20.188,-3.506,1.707,0.00,0.00,-1.22,1.931,2.399,1.228,1.725,2.676,0,0,SEARCHING,0.000,0.740,-0.258,0.230
23:22:24.177,SEARCHING,20.280,-3.507,1.657,0.00,0.00,0.40,1.841,2.786,3.119,1.662,2.517,0,0,SEARCHING,0.000,0.786,-0.248,0.113
23:22:24.379,SEARCHING,20.375,-3.506,1.607,0.00,0.00,0.10,1.785,2.764,4.392,1.588,2.374,0,0,SEARCHING,0.000,0.797,-0.249,-0.159
23:22:24.580,SEARCHING,20.471,-3.507,1.557,0.00,0.00,-1.37,1.767,2.768,4.706,1.496,2.247,0,0,SEARCHING,0.000,0.799,-0.258,-0.250
23:22:24.780,SEARCHING,20.567,-3.510,1.504,0.00,0.00,-3.19,1.779,2.802,4.889,1.466,2.126,0,0,SEARCHING,0.000,0.800,-0.262,-0.276
23:22:24.981,SEARCHING,20.662,-3.517,1.454,0.00,0.00,-5.13,1.792,2.872,5.138,1.563,1.968,0,0,SEARCHING,0.000,0.800,-0.211,-0.287
23:22:25.181,SEARCHING,20.758,-3.527,1.417,0.00,0.00,-7.12,1.830,2.941,5.338,1.659,1.866,0,0,SEARCHING,0.000,0.800,-0.131,-0.289
23:22:25.381,SEARCHING,20.853,-3.540,1.395,0.00,0.00,-9.09,1.868,3.077,5.634,1.716,1.793,0,0,SEARCHING,0.000,0.800,-0.060,-0.287
23:22:25.583,SEARCHING,20.947,-3.557,1.386,0.00,0.00,-11.06,1.911,3.144,5.957,1.748,1.747,0,0,SEARCHING,0.000,0.800,-0.014,-0.286
23:22:25.782,SEARCHING,21.073,-3.584,1.385,0.00,0.00,-13.68,1.981,3.315,6.465,1.794,1.728,0,0,SEARCHING,0.000,0.800,-0.003,-0.282
23:22:25.983,SEARCHING,21.196,-3.616,1.381,0.00,0.00,-16.26,2.053,3.489,7.460,1.792,2.502,0,0,SEARCHING,0.000,0.800,-0.102,-0.282
23:22:26.183,SEARCHING,21.288,-3.645,1.355,0.00,0.00,-18.21,2.091,3.654,8.672,1.855,2.638,0,0,SEARCHING,0.000,0.800,-0.172,-0.287
23:22:26.385,SEARCHING,21.379,-3.676,1.320,0.00,0.00,-20.19,2.182,3.845,9.712,1.920,2.599,0,0,SEARCHING,0.000,0.800,-0.174,-0.287
23:22:26.585,SEARCHING,21.468,-3.710,1.286,0.00,0.00,-22.15,2.265,4.117,9.926,2.008,2.513,0,0,SEARCHING,0.000,0.800,-0.147,-0.280
23:22:26.785,SEARCHING,21.557,-3.748,1.259,0.00,0.00,-24.03,2.334,4.387,9.241,2.054,2.438,0,0,SEARCHING,0.000,0.800,-0.111,-0.266
23:22:26.985,SEARCHING,21.644,-3.788,1.239,0.00,0.00,-25.81,2.422,4.550,8.450,2.137,2.352,0,0,SEARCHING,0.000,0.800,-0.078,-0.248
23:22:27.186,SEARCHING,21.730,-3.831,1.226,0.00,0.00,-27.46,2.476,4.715,7.591,2.174,2.297,0,0,SEARCHING,0.000,0.800,-0.024,-0.230
23:22:27.387,SEARCHING,21.815,-3.876,1.223,0.00,0.00,-28.98,2.575,4.870,6.797,2.170,2.288,0,0,SEARCHING,0.000,0.800,-0.006,-0.208
23:22:27.587,SEARCHING,21.953,-3.956,1.223,0.00,0.00,-31.29,2.724,5.265,6.000,2.156,2.315,0,0,SEARCHING,0.000,0.800,-0.001,-0.180
23:22:27.788,SEARCHING,22.062,-4.024,1.221,0.00,0.00,-32.87,2.875,5.867,5.480,2.129,2.479,0,0,SEARCHING,0.000,0.800,-0.045,-0.151
23:22:27.988,SEARCHING,22.142,-4.077,1.210,0.00,0.00,-33.83,2.967,6.391,5.248,2.871,2.613,0,0,SEARCHING,0.000,0.800,-0.050,-0.129
23:22:28.189,SEARCHING,22.221,-4.131,1.208,0.00,0.00,-34.66,3.042,6.880,5.020,4.692,2.714,0,0,SEARCHING,0.000,0.800,0.101,-0.113
23:22:28.390,SEARCHING,22.300,-4.186,1.234,0.00,0.00,-35.40,3.115,7.107,4.892,4.947,2.775,0,0,SEARCHING,0.000,0.800,0.168,-0.101
23:22:28.590,SEARCHING,22.378,-4.242,1.269,0.00,0.00,-36.06,3.151,7.628,4.826,4.899,2.854,0,0,SEARCHING,0.000,0.800,0.178,-0.093
23:22:28.791,SEARCHING,22.455,-4.299,1.304,0.00,0.00,-36.68,3.175,8.031,4.710,4.795,2.988,0,0,SEARCHING,0.000,0.800,0.164,-0.086
23:22:28.992,SEARCHING,22.532,-4.356,1.336,0.00,0.00,-37.25,3.243,8.499,4.674,4.673,3.112,0,0,SEARCHING,0.000,0.800,0.144,-0.080
23:22:29.192,SEARCHING,22.608,-4.415,1.363,0.00,0.00,-37.78,3.285,8.935,4.588,4.566,3.193,0,0,SEARCHING,0.000,0.800,0.125,-0.073
23:22:29.393,SEARCHING,22.684,-4.474,1.387,0.00,0.00,-38.26,3.305,9.698,4.510,4.523,3.293,0,0,SEARCHING,0.000,0.800,0.109,-0.068
23:22:29.593,SEARCHING,22.759,-4.533,1.408,0.00,0.00,-38.71,3.311,9.832,4.387,4.463,3.490,0,0,SEARCHING,0.000,0.800,0.089,-0.063
23:22:29.794,SEARCHING,22.834,-4.594,1.424,0.00,0.00,-39.13,3.316,9.620,4.325,4.454,3.517,0,0,SEARCHING,0.000,0.800,0.076,-0.058
23:22:29.995,SEARCHING,22.908,-4.654,1.439,0.00,0.00,-39.52,3.320,9.494,4.222,4.477,3.549,0,0,SEARCHING,0.000,0.800,0.071,-0.054
23:22:30.195,SEARCHING,22.982,-4.716,1.453,0.00,0.00,-39.88,3.343,9.366,4.177,4.512,3.605,0,0,SEARCHING,0.000,0.800,0.069,-0.050
23:22:30.395,SEARCHING,23.055,-4.777,1.467,0.00,0.00,-40.21,3.354,9.072,4.134,4.464,3.641,0,0,SEARCHING,0.000,0.800,0.065,-0.047
23:22:30.596,SEARCHING,23.129,-4.840,1.480,0.00,0.00,-40.52,3.471,8.955,4.075,4.473,3.711,0,0,SEARCHING,0.000,0.800,0.059,-0.041
23:22:30.797,SEARCHING,23.201,-4.902,1.491,0.00,0.00,-40.78,3.495,8.823,4.004,4.578,3.765,0,0,SEARCHING,0.000,0.800,0.057,-0.034
23:22:30.998,SEARCHING,23.274,-4.965,1.502,0.00,0.00,-40.99,3.471,8.604,3.985,4.563,3.795,0,0,SEARCHING,0.000,0.800,0.055,-0.030
23:22:31.199,SEARCHING,23.346,-5.028,1.511,0.00,0.00,-41.19,3.537,8.506,3.901,4.566,3.856,0,0,SEARCHING,0.000,0.800,0.019,-0.026
23:22:31.398,SEARCHING,23.443,-5.113,1.513,0.00,0.00,-41.41,3.583,8.478,3.881,4.599,3.910,0,0,SEARCHING,0.000,0.800,0.004,-0.021
23:22:31.599,SEARCHING,23.562,-5.219,1.513,0.00,0.00,-41.63,3.678,8.394,3.798,4.579,3.941,0,0,SEARCHING,0.000,0.800,0.001,-0.013
23:22:31.800,SEARCHING,23.682,-5.325,1.513,0.00,0.00,-41.75,3.771,8.306,3.769,4.532,3.894,0,0,SEARCHING,0.000,0.800,0.000,-0.004
23:22:32.000,SEARCHING,23.801,-5.432,1.513,0.00,0.00,-41.78,3.799,8.146,3.760,4.571,3.901,0,0,SEARCHING,0.000,0.800,0.000,0.000
23:22:32.202,SEARCHING,23.921,-5.538,1.513,0.00,0.00,-41.77,3.826,8.019,3.717,4.579,3.901,0,0,SEARCHING,0.000,0.800,0.000,0.004
23:22:32.403,SEARCHING,24.040,-5.645,1.513,0.00,0.00,-41.72,3.872,7.926,3.720,4.720,3.906,0,0,SEARCHING,0.000,0.800,0.016,0.006
23:22:32.604,SEARCHING,24.112,-5.709,1.518,0.00,0.00,-41.67,3.874,7.894,3.705,4.688,3.882,0,0,SEARCHING,0.000,0.800,0.045,0.008
23:22:32.805,SEARCHING,24.183,-5.772,1.528,0.00,0.00,-41.61,3.911,7.718,3.684,4.672,3.893,0,0,SEARCHING,0.000,0.800,0.050,0.010
23:22:33.004,SEARCHING,24.255,-5.836,1.538,0.00,0.00,-41.54,3.902,7.464,3.693,4.650,3.931,0,0,SEARCHING,0.000,0.800,0.035,0.011
23:22:33.204,SEARCHING,24.327,-5.900,1.543,0.00,0.00,-41.46,3.898,7.429,3.691,4.722,3.943,0,0,SEARCHING,0.000,0.800,0.024,0.011
23:22:33.405,SEARCHING,24.399,-5.963,1.549,0.00,0.00,-41.39,3.847,7.387,3.763,4.698,3.983,0,0,SEARCHING,0.000,0.800,0.029,0.008
23:22:33.607,SEARCHING,24.471,-6.027,1.553,0.00,0.00,-41.35,3.849,7.014,3.804,4.759,4.036,0,0,SEARCHING,0.000,0.800,0.007,0.004
23:22:33.808,SEARCHING,24.591,-6.132,1.553,0.00,0.00,-41.31,3.844,7.108,3.941,4.747,4.077,0,0,SEARCHING,0.000,0.800,0.002,-0.000
23:22:34.009,SEARCHING,24.711,-6.238,1.553,0.00,0.00,-41.33,3.850,7.052,4.139,4.714,4.052,0,0,SEARCHING,0.000,0.800,0.000,-0.009
23:22:34.209,SEARCHING,24.831,-6.344,1.553,0.00,0.00,-41.46,3.875,7.178,4.163,4.695,4.034,0,0,SEARCHING,0.000,0.800,0.000,-0.013
23:22:34.410,SEARCHING,24.951,-6.450,1.553,0.00,0.00,-41.61,3.878,7.169,4.083,4.687,4.076,0,0,SEARCHING,0.000,0.800,0.000,-0.012
23:22:34.611,SEARCHING,25.071,-6.556,1.553,0.00,0.00,-41.74,3.841,7.259,4.044,4.715,4.025,0,0,SEARCHING,0.000,0.800,0.000,-0.011
23:22:34.811,SEARCHING,25.190,-6.663,1.553,0.00,0.00,-41.86,3.866,7.367,3.985,4.779,4.063,0,0,SEARCHING,0.000,0.800,0.000,-0.008
23:22:35.012,SEARCHING,25.309,-6.770,1.553,0.00,0.00,-41.95,3.943,7.145,4.007,4.768,4.091,0,0,SEARCHING,0.000,0.800,0.000,-0.005
23:22:35.212,SEARCHING,25.428,-6.877,1.553,0.00,0.00,-41.99,4.123,7.150,3.974,4.809,4.087,0,0,SEARCHING,0.000,0.800,0.000,0.002
23:22:35.413,SEARCHING,25.547,-6.984,1.553,0.00,0.00,-41.95,4.216,7.150,3.942,4.779,4.086,0,0,SEARCHING,0.000,0.800,0.000,0.009
23:22:35.614,SEARCHING,25.666,-7.091,1.553,0.00,0.00,-41.83,4.253,7.031,3.913,4.688,4.120,0,0,SEARCHING,0.000,0.800,0.000,0.015
23:22:35.815,SEARCHING,25.785,-7.197,1.553,0.00,0.00,-41.66,4.247,6.945,3.900,4.601,4.098,0,0,SEARCHING,0.000,0.800,0.000,0.016
23:22:37.396,SEARCHING,25.905,-7.303,1.553,0.00,0.00,-41.47,4.242,6.939,3.909,4.543,4.114,0,0,SEARCHING,0.000,0.800,0.000,0.016
23:22:37.442,SEARCHING,26.025,-7.409,1.553,0.00,0.00,-41.29,4.218,6.938,3.941,4.475,4.106,0,0,SEARCHING,0.000,0.800,0.000,0.015
23:22:37.614,SEARCHING,26.146,-7.514,1.553,0.00,0.00,-41.12,4.165,6.830,3.879,4.159,4.135,0,0,SEARCHING,0.000,0.800,0.000,0.013
23:22:37.812,SEARCHING,26.266,-7.619,1.553,0.00,0.00,-40.96,4.676,6.759,3.854,3.974,4.148,0,0,SEARCHING,0.000,0.800,0.000,0.021
23:22:38.011,SEARCHING,26.387,-7.724,1.553,0.00,0.00,-40.62,6.257,6.673,3.838,3.751,4.159,0,0,SEARCHING,0.000,0.800,0.000,0.056
23:22:38.212,SEARCHING,26.509,-7.828,1.553,0.00,0.00,-39.91,6.174,6.611,3.837,3.618,4.160,0,0,SEARCHING,0.000,0.800,0.000,0.075
23:22:38.412,SEARCHING,26.608,-7.909,1.551,0.00,0.00,-39.22,5.892,6.546,3.845,3.480,4.160,0,0,SEARCHING,0.000,0.800,-0.035,0.074
23:22:38.613,SEARCHING,26.682,-7.970,1.543,0.00,0.00,-38.72,5.881,6.539,3.866,3.364,4.160,0,0,SEARCHING,0.000,0.800,-0.057,0.072
23:22:38.814,SEARCHING,26.758,-8.030,1.531,0.00,0.00,-38.23,5.880,6.538,3.843,3.281,4.106,0,0,SEARCHING,0.000,0.800,-0.068,0.072
23:22:39.015,SEARCHING,26.833,-8.089,1.516,0.00,0.00,-37.74,6.028,6.578,3.894,3.210,4.073,0,0,SEARCHING,0.000,0.800,-0.076,0.072
23:22:39.216,SEARCHING,26.909,-8.147,1.501,0.00,0.00,-37.24,5.874,6.712,3.926,3.117,4.025,0,0,SEARCHING,0.000,0.800,-0.082,0.070
23:22:39.416,SEARCHING,26.986,-8.205,1.484,0.00,0.00,-36.77,5.647,6.728,3.917,3.005,3.980,0,0,SEARCHING,0.000,0.800,-0.090,0.066
23:22:39.617,SEARCHING,27.063,-8.262,1.465,0.00,0.00,-36.33,5.549,6.730,3.893,2.906,3.935,0,0,SEARCHING,0.000,0.800,-0.101,0.063
23:22:39.817,SEARCHING,27.141,-8.319,1.445,0.00,0.00,-35.91,5.509,6.730,3.928,2.817,3.888,0,0,SEARCHING,0.000,0.800,-0.111,0.060
23:22:40.018,SEARCHING,27.218,-8.375,1.422,0.00,0.00,-35.50,5.465,6.730,3.922,2.740,3.830,0,0,SEARCHING,0.000,0.800,-0.119,0.059
23:22:40.219,SEARCHING,27.297,-8.430,1.398,0.00,0.00,-35.10,5.367,6.730,3.946,2.668,3.764,0,0,SEARCHING,0.000,0.800,-0.126,0.056
23:22:40.419,SEARCHING,27.376,-8.485,1.372,0.00,0.00,-34.73,5.229,6.730,3.976,2.603,3.658,0,0,SEARCHING,0.000,0.800,-0.131,0.052
23:22:40.621,SEARCHING,27.455,-8.540,1.346,0.00,0.00,-34.38,5.231,6.730,3.934,2.496,3.606,0,0,SEARCHING,0.000,0.800,-0.140,0.050
23:22:40.821,SEARCHING,27.534,-8.594,1.317,0.00,0.00,-34.04,5.196,6.730,4.006,2.411,3.506,0,0,SEARCHING,0.000,0.800,-0.150,0.048
23:22:41.021,SEARCHING,27.614,-8.647,1.286,0.00,0.00,-33.72,5.188,6.644,3.978,2.364,3.440,0,0,SEARCHING,0.000,0.800,-0.155,0.047
23:22:41.222,SEARCHING,27.694,-8.701,1.255,0.00,0.00,-33.40,5.152,6.710,3.985,2.390,3.351,0,0,SEARCHING,0.000,0.800,-0.152,0.046
23:22:41.424,SEARCHING,27.774,-8.753,1.226,0.00,0.00,-33.09,5.134,6.728,4.016,4.050,3.293,0,0,SEARCHING,0.000,0.800,-0.078,0.044
23:22:41.624,SEARCHING,27.854,-8.805,1.221,0.00,0.00,-32.78,5.167,6.730,3.934,5.524,3.272,0,0,SEARCHING,0.000,0.800,0.081,0.046
23:22:41.824,SEARCHING,27.935,-8.857,1.242,0.00,0.00,-32.47,5.200,6.702,4.032,5.612,3.267,0,0,SEARCHING,0.000,0.800,0.136,0.044
23:22:42.025,SEARCHING,28.016,-8.909,1.270,0.00,0.00,-32.15,5.492,6.686,4.002,5.562,3.353,0,0,SEARCHING,0.000,0.800,0.145,0.050
23:22:42.226,SEARCHING,28.098,-8.959,1.299,0.00,0.00,-31.79,5.570,6.681,3.978,5.501,3.434,0,0,SEARCHING,0.000,0.800,0.138,0.055
23:22:42.426,SEARCHING,28.179,-9.010,1.326,0.00,0.00,-31.40,5.703,6.682,4.010,5.461,3.506,0,0,SEARCHING,0.000,0.800,0.129,0.058
23:22:42.627,SEARCHING,28.262,-9.060,1.351,0.00,0.00,-31.00,5.884,6.705,4.061,5.372,3.581,0,0,SEARCHING,0.000,0.800,0.119,0.059
23:22:42.829,SEARCHING,28.344,-9.109,1.374,0.00,0.00,-30.59,5.971,6.669,4.140,5.340,3.669,0,0,SEARCHING,0.000,0.800,0.110,0.059
23:22:43.028,SEARCHING,28.427,-9.157,1.396,0.00,0.00,-30.18,5.967,6.695,4.060,5.287,3.705,0,0,SEARCHING,0.000,0.800,0.101,0.061
23:22:43.227,SEARCHING,28.510,-9.205,1.416,0.00,0.00,-29.76,6.015,6.726,4.052,5.229,3.759,0,0,SEARCHING,0.000,0.800,0.095,0.063
23:22:43.427,SEARCHING,28.593,-9.253,1.434,0.00,0.00,-29.32,5.974,6.720,4.055,5.180,3.771,0,0,SEARCHING,0.000,0.800,0.090,0.064
23:22:43.632,SEARCHING,28.677,-9.300,1.452,0.00,0.00,-28.87,5.951,6.729,4.049,5.157,3.862,0,0,SEARCHING,0.000,0.800,0.083,0.064
23:22:43.828,SEARCHING,28.761,-9.346,1.468,0.00,0.00,-28.44,5.877,6.794,4.035,5.093,3.876,0,0,SEARCHING,0.000,0.800,0.077,0.063
23:22:44.029,SEARCHING,28.846,-9.391,1.483,0.00,0.00,-28.01,5.702,6.737,3.993,5.086,3.969,0,0,SEARCHING,0.000,0.800,0.071,0.061
23:22:44.229,SEARCHING,28.931,-9.436,1.497,0.00,0.00,-27.60,5.588,6.774,4.002,5.007,3.995,0,0,SEARCHING,0.000,0.800,0.065,0.058
23:22:44.431,SEARCHING,29.016,-9.480,1.510,0.00,0.00,-27.21,5.582,6.735,4.013,4.978,4.012,0,0,SEARCHING,0.000,0.800,0.060,0.057
23:22:44.633,SEARCHING,29.102,-9.524,1.522,0.00,0.00,-26.82,5.605,6.731,4.020,4.962,4.065,0,0,SEARCHING,0.000,0.800,0.056,0.057
23:22:44.833,SEARCHING,29.187,-9.567,1.533,0.00,0.00,-26.43,5.496,6.690,3.998,4.951,4.084,0,0,SEARCHING,0.000,0.800,0.053,0.056
23:22:45.032,SEARCHING,29.273,-9.609,1.541,0.00,0.00,-26.05,5.541,6.556,4.060,4.906,4.151,0,0,SEARCHING,0.000,0.800,0.018,0.053
23:22:45.233,SEARCHING,29.389,-9.665,1.543,0.00,0.00,-25.57,5.542,6.425,4.046,4.896,4.144,0,0,SEARCHING,0.000,0.800,0.004,0.053
23:22:45.433,SEARCHING,29.533,-9.733,1.543,0.00,0.00,-24.95,5.489,6.313,4.022,4.902,4.128,0,0,SEARCHING,0.000,0.800,0.001,0.054
23:22:45.633,SEARCHING,29.679,-9.800,1.543,0.00,0.00,-24.34,5.373,6.116,4.057,4.895,4.102,0,0,SEARCHING,0.000,0.800,0.000,0.051
23:22:45.835,SEARCHING,29.825,-9.866,1.543,0.00,0.00,-23.77,5.291,5.986,4.037,4.884,4.134,0,0,SEARCHING,0.000,0.800,0.000,0.048
23:22:46.035,SEARCHING,29.972,-9.929,1.543,0.00,0.00,-23.22,5.175,5.900,4.028,4.918,4.148,0,0,SEARCHING,0.000,0.800,0.000,0.046
23:22:46.235,SEARCHING,30.119,-9.992,1.543,0.00,0.00,-22.70,5.101,5.678,3.986,4.890,4.138,0,0,SEARCHING,0.000,0.800,0.000,0.045
23:22:46.437,SEARCHING,30.267,-10.053,1.543,0.00,0.00,-22.19,4.989,5.505,3.962,4.906,4.142,0,0,SEARCHING,0.000,0.800,0.000,0.043
23:22:46.637,SEARCHING,30.415,-10.113,1.543,0.00,0.00,-21.71,4.965,5.390,3.969,4.932,4.158,0,0,SEARCHING,0.000,0.800,0.000,0.041
23:22:46.837,SEARCHING,30.564,-10.172,1.543,0.00,0.00,-21.25,4.880,5.188,3.948,4.932,4.160,0,0,SEARCHING,0.000,0.800,0.000,0.039
23:22:47.038,SEARCHING,30.713,-10.229,1.543,0.00,0.00,-20.80,4.803,5.064,3.943,4.876,4.138,0,0,SEARCHING,0.000,0.800,0.000,0.038
23:22:47.238,SEARCHING,30.863,-10.285,1.543,0.00,0.00,-20.38,4.690,4.931,3.938,4.875,4.135,0,0,SEARCHING,0.000,0.800,0.000,0.035
23:22:47.439,SEARCHING,31.013,-10.341,1.543,0.00,0.00,-19.98,4.574,4.712,3.900,4.756,4.146,0,0,SEARCHING,0.000,0.800,0.000,0.032
23:22:47.640,SEARCHING,31.164,-10.395,1.543,0.00,0.00,-19.63,4.453,4.613,3.927,4.637,4.159,0,0,SEARCHING,0.000,0.800,0.000,0.028
23:22:47.840,SEARCHING,31.315,-10.448,1.543,0.00,0.00,-19.33,4.352,4.458,3.899,4.483,4.118,0,0,SEARCHING,0.000,0.800,0.000,0.023
23:22:48.041,SEARCHING,31.466,-10.501,1.543,0.00,0.00,-19.07,4.200,4.344,3.889,4.356,4.103,0,0,SEARCHING,0.000,0.800,0.000,0.019
23:22:48.242,SEARCHING,31.617,-10.553,1.543,0.00,0.00,-18.88,4.056,4.211,3.891,4.216,4.066,0,0,SEARCHING,0.000,0.800,0.000,0.012
23:22:48.442,SEARCHING,31.768,-10.604,1.543,0.00,0.00,-18.75,3.914,4.072,3.831,4.074,3.985,0,0,SEARCHING,0.000,0.800,0.000,0.007
23:22:48.642,SEARCHING,31.920,-10.656,1.543,0.00,0.00,-18.68,3.747,3.886,3.788,3.930,3.861,0,0,SEARCHING,0.000,0.800,0.000,0.002
23:22:48.843,SEARCHING,32.071,-10.707,1.543,0.00,0.00,-18.68,3.583,3.744,3.751,3.757,3.736,0,0,SEARCHING,0.000,0.800,0.000,-0.004
23:22:49.043,SEARCHING,32.223,-10.758,1.543,0.00,0.00,-18.75,3.468,3.591,3.659,3.587,3.610,0,0,SEARCHING,0.000,0.800,0.000,-0.009
23:22:49.244,SEARCHING,32.374,-10.810,1.543,0.00,0.00,-18.87,3.333,3.462,3.581,3.461,3.464,0,0,SEARCHING,0.000,0.800,0.000,-0.014
23:22:49.444,SEARCHING,32.526,-10.862,1.543,0.00,0.00,-19.04,3.180,3.325,3.453,3.328,3.325,0,0,SEARCHING,0.000,0.800,0.000,-0.017
23:22:49.646,SEARCHING,32.677,-10.914,1.543,0.00,0.00,-19.24,3.033,3.159,3.304,3.160,3.151,0,0,SEARCHING,0.000,0.800,0.000,-0.020
23:22:49.846,SEARCHING,32.828,-10.967,1.543,0.00,0.00,-19.48,2.883,3.002,3.140,2.996,2.997,0,0,SEARCHING,0.000,0.800,0.000,-0.022
23:22:50.048,SEARCHING,32.979,-11.021,1.543,0.00,0.00,-19.73,2.738,2.838,2.968,2.847,2.847,0,0,SEARCHING,0.000,0.800,0.000,-0.022
23:22:50.247,SEARCHING,33.129,-11.075,1.543,0.00,0.00,-19.98,2.579,2.711,2.820,2.705,2.706,0,0,SEARCHING,0.000,0.800,0.000,-0.024
23:22:50.448,SEARCHING,33.279,-11.130,1.543,0.00,0.00,-20.27,2.431,2.543,2.683,2.541,2.539,0,0,SEARCHING,0.000,0.800,0.000,-0.028
23:22:50.648,SEARCHING,33.429,-11.186,1.543,0.00,0.00,-20.60,2.288,2.389,2.516,2.387,2.378,0,0,SEARCHING,0.000,0.800,0.000,-0.031
23:22:50.849,SEARCHING,33.579,-11.243,1.543,0.00,0.00,-20.96,2.130,2.246,2.368,2.245,2.244,0,0,SEARCHING,0.000,0.800,0.000,-0.034
23:22:51.050,SEARCHING,33.728,-11.300,1.543,0.00,0.00,-21.37,1.988,2.085,2.209,2.091,2.089,0,0,SEARCHING,0.000,0.800,0.000,-0.038
23:22:51.248,SEARCHING,33.877,-11.359,1.543,0.00,0.00,-21.82,1.831,1.938,2.049,1.940,1.938,0,0,SEARCHING,0.000,0.778,0.000,-0.043
23:22:51.449,SEARCHING,34.017,-11.416,1.543,0.00,0.00,-22.32,1.688,1.788,1.900,1.790,1.791,0,0,SEARCHING,0.000,0.691,0.000,-0.048
23:22:51.649,SEARCHING,34.140,-11.467,1.543,0.00,0.00,-22.90,1.560,1.650,1.763,1.652,1.652,0,0,SEARCHING,0.000,0.596,0.000,-0.055
23:22:51.849,SEARCHING,34.246,-11.512,1.543,0.00,0.00,-23.55,1.440,1.533,1.640,1.538,1.535,0,0,SEARCHING,0.000,0.512,0.000,-0.062
23:22:52.049,SEARCHING,34.336,-11.552,1.543,0.00,0.00,-24.29,1.342,1.435,1.541,1.436,1.436,0,0,SEARCHING,0.000,0.443,0.000,-0.071
23:22:52.251,SEARCHING,34.414,-11.588,1.543,0.00,0.00,-25.13,1.256,1.348,1.457,1.346,1.347,0,0,SEARCHING,0.000,0.388,0.000,-0.081
23:22:52.451,SEARCHING,34.482,-11.620,1.543,0.00,0.00,-26.09,1.183,1.276,1.383,1.276,1.275,0,0,SEARCHING,0.000,0.344,0.000,-0.091
23:22:52.652,SEARCHING,34.542,-11.650,1.543,0.00,0.00,-27.16,1.114,1.209,1.320,1.207,1.208,0,0,SEARCHING,0.000,0.306,0.000,-0.103
23:22:52.853,SEARCHING,34.594,-11.678,1.543,0.00,0.00,-28.37,1.054,1.152,1.268,1.151,1.152,0,0,SEARCHING,0.000,0.276,0.000,-0.117
23:22:53.052,SEARCHING,34.642,-11.704,1.543,0.00,0.00,-29.75,1.004,1.102,1.220,1.102,1.102,0,0,SEARCHING,0.000,0.257,0.000,-0.131
23:22:53.252,SEARCHING,34.686,-11.730,1.543,0.00,0.00,-31.31,0.954,1.056,1.184,1.055,1.055,0,0,SEARCHING,0.000,0.252,0.000,-0.149
23:22:53.454,SEARCHING,34.728,-11.757,1.543,0.00,0.00,-33.08,0.908,1.015,1.150,1.014,1.014,0,0,SEARCHING,0.000,0.250,0.000,-0.171
23:22:53.654,SEARCHING,34.770,-11.785,1.543,0.00,0.00,-35.10,0.864,0.975,1.117,0.975,0.976,0,0,SEARCHING,0.000,0.250,0.000,-0.193
23:22:53.855,SEARCHING,34.810,-11.814,1.543,0.00,0.00,-37.39,0.821,0.939,1.092,0.938,0.938,0,0,SEARCHING,0.000,0.250,0.000,-0.220
23:22:54.056,SEARCHING,34.849,-11.845,1.543,0.00,0.00,-40.01,0.782,0.903,1.072,0.904,0.904,0,0,SEARCHING,0.000,0.250,0.000,-0.253
23:22:54.256,SEARCHING,34.887,-11.878,1.543,0.00,0.00,-43.02,0.744,0.874,1.058,0.874,0.874,0,0,SEARCHING,0.000,0.250,0.000,-0.291
23:22:54.457,SEARCHING,34.922,-11.913,1.543,0.00,0.00,-46.46,0.713,0.852,1.057,0.850,0.851,0,0,SEARCHING,0.000,0.250,0.000,-0.331
23:22:54.657,SEARCHING,34.956,-11.951,1.543,0.00,0.00,-50.41,0.682,0.833,1.070,0.834,0.834,0,0,SEARCHING,0.000,0.250,0.000,-0.386
23:22:54.857,SEARCHING,34.986,-11.990,1.543,0.00,0.00,-55.01,0.659,0.827,1.113,0.827,0.827,0,0,SEARCHING,0.000,0.250,0.000,-0.449
23:22:55.058,SEARCHING,35.013,-12.032,1.543,0.00,0.00,-60.35,0.647,0.837,1.193,0.839,0.840,0,0,SEARCHING,0.000,0.250,0.000,-0.517
23:22:55.260,SEARCHING,35.036,-12.077,1.543,0.00,0.00,-66.47,0.646,0.875,1.348,0.876,0.874,0,0,SEARCHING,0.000,0.250,0.000,-0.587
23:22:55.459,SEARCHING,35.053,-12.124,1.543,0.00,0.00,-73.36,0.665,0.954,1.379,0.953,0.954,0,0,SEARCHING,0.000,0.250,0.000,-0.624
23:22:55.660,SEARCHING,35.065,-12.172,1.543,0.00,0.00,-80.43,0.711,1.096,1.342,1.096,1.086,0,0,SEARCHING,0.000,0.250,0.000,-0.580
23:22:55.861,SEARCHING,35.071,-12.222,1.543,0.00,0.00,-86.83,0.781,1.303,1.319,1.309,1.310,0,0,SEARCHING,0.000,0.261,0.000,-0.487
23:22:56.061,SEARCHING,35.071,-12.276,1.543,0.00,0.00,-92.10,0.866,1.357,1.304,1.357,1.359,0,0,SEARCHING,0.000,0.299,0.000,-0.381
23:22:56.262,SEARCHING,35.067,-12.337,1.543,0.00,0.00,-96.16,0.958,1.312,1.285,1.312,1.312,0,0,SEARCHING,0.000,0.309,0.000,-0.280
23:22:56.462,SEARCHING,35.059,-12.398,1.543,0.00,0.00,-99.08,1.049,1.261,1.257,1.261,1.260,0,0,SEARCHING,0.000,0.303,0.000,-0.185
23:22:56.664,SEARCHING,35.051,-12.442,1.543,0.00,0.00,-100.60,1.123,1.198,1.204,1.198,1.197,0,0,SEARCHING,0.000,0.290,0.000,-0.104
23:22:56.863,SEARCHING,35.037,-12.513,1.543,0.00,0.00,-101.95,1.121,1.138,1.155,1.136,1.136,0,0,SEARCHING,0.000,0.272,0.000,-0.045
23:22:57.063,SEARCHING,35.026,-12.565,1.543,0.00,0.00,-102.39,1.071,1.083,1.104,1.084,1.081,0,0,SEARCHING,0.000,0.256,0.000,-0.026
23:22:57.264,SEARCHING,35.015,-12.615,1.543,0.00,0.00,-102.68,1.017,1.029,1.051,1.031,1.028,0,0,SEARCHING,0.000,0.251,0.000,-0.025
23:22:57.468,SEARCHING,35.004,-12.664,1.543,0.00,0.00,-102.98,0.962,0.980,1.004,0.981,0.980,0,0,SEARCHING,0.000,0.250,0.000,-0.029
23:22:57.670,SEARCHING,34.992,-12.713,1.543,0.00,0.00,-103.33,0.912,0.930,0.953,0.930,0.930,0,0,SEARCHING,0.000,0.250,0.000,-0.034
23:22:57.870,SEARCHING,34.981,-12.761,1.543,0.00,0.00,-103.73,0.855,0.881,0.905,0.881,0.881,0,0,SEARCHING,0.000,0.250,0.000,-0.042
23:22:58.071,SEARCHING,34.969,-12.810,1.543,0.00,0.00,-104.25,0.806,0.831,0.856,0.831,0.831,0,0,SEARCHING,0.000,0.250,0.000,-0.053
23:22:58.314,INSPECTING,34.956,-12.858,1.543,0.00,0.00,-104.88,0.756,0.781,0.808,0.781,0.782,0,0,SEARCHING,0.000,0.175,0.000,-0.062
23:22:58.472,INSPECTING,34.945,-12.897,1.543,0.00,0.00,-107.02,0.707,0.735,0.766,0.735,0.735,0,0,INSPECT_RIGHT,0.000,0.161,0.000,-0.395
23:22:58.673,INSPECTING,34.935,-12.927,1.543,0.00,0.00,-111.86,0.660,0.701,0.749,0.701,0.701,0,0,INSPECT_RIGHT,0.000,0.153,0.000,-0.475
23:22:58.874,INSPECTING,34.922,-12.955,1.543,0.00,0.00,-117.37,0.619,0.677,0.745,0.676,0.677,0,0,INSPECT_RIGHT,0.000,0.150,0.000,-0.494
23:22:59.074,INSPECTING,34.908,-12.980,1.543,0.00,0.00,-123.05,0.585,0.658,0.752,0.659,0.658,0,0,INSPECT_RIGHT,0.000,0.150,0.000,-0.499
23:22:59.273,INSPECTING,34.890,-13.005,1.543,0.00,0.00,-128.77,0.559,0.649,0.773,0.649,0.649,0,0,INSPECT_RIGHT,0.000,0.152,0.000,-0.500
23:22:59.473,INSPECTING,34.870,-13.028,1.543,0.00,0.00,-134.49,0.542,0.649,0.808,0.649,0.649,0,0,INSPECT_RIGHT,0.000,0.157,0.000,-0.500
23:22:59.674,INSPECTING,34.846,-13.050,1.543,0.00,0.00,-140.22,0.531,0.657,0.862,0.657,0.657,0,0,INSPECT_RIGHT,0.000,0.166,0.000,-0.500
23:22:59.875,INSPECTING,34.820,-13.070,1.543,0.00,0.00,-145.95,0.526,0.675,0.944,0.677,0.675,0,0,INSPECT_RIGHT,0.000,0.178,0.000,-0.500
23:23:00.075,INSPECTING,34.788,-13.089,1.543,0.00,0.00,-151.68,0.527,0.707,1.069,0.707,0.707,0,0,INSPECT_RIGHT,0.000,0.198,0.000,-0.500
23:23:00.276,INSPECTING,34.752,-13.107,1.543,0.00,0.00,-157.41,0.537,0.753,1.247,0.753,0.752,0,0,INSPECT_RIGHT,0.000,0.226,0.000,-0.500
23:23:00.477,INSPECTING,34.707,-13.123,1.543,0.00,0.00,-163.14,0.553,0.806,1.479,0.805,0.804,0,0,INSPECT_RIGHT,0.000,0.268,0.000,-0.500
23:23:00.677,INSPECTING,34.652,-13.137,1.543,0.00,0.00,-168.87,0.585,0.922,2.172,0.917,0.924,0,0,INSPECT_RIGHT,0.000,0.346,0.000,-0.500
23:23:00.878,INSPECTING,34.580,-13.147,1.543,0.00,0.00,-174.60,0.624,1.066,3.185,1.062,1.068,0,0,INSPECT_RIGHT,0.000,0.387,0.000,-0.500
23:23:01.079,INSPECTING,34.503,-13.151,1.543,-0.00,0.00,179.67,0.690,1.310,4.470,1.307,1.312,0,0,INSPECT_RIGHT,0.000,0.397,0.000,-0.500
23:23:01.281,SEARCHING,34.423,-13.147,1.543,-0.00,0.00,173.48,0.794,1.849,6.451,1.830,1.855,0,0,SEARCHING,0.000,0.437,0.000,-0.709
23:23:01.481,SEARCHING,34.328,-13.129,1.543,-0.00,0.00,164.93,1.059,3.139,5.664,3.159,3.114,0,0,SEARCHING,0.000,0.647,0.000,-0.740
23:23:01.681,SEARCHING,34.198,-13.085,1.543,-0.00,0.00,157.12,1.655,5.273,5.353,4.631,3.973,0,0,SEARCHING,0.000,0.763,0.000,-0.500
23:23:01.883,SEARCHING,34.058,-13.018,1.543,-0.00,0.00,152.05,2.518,5.817,4.819,4.670,4.051,0,0,SEARCHING,0.000,0.791,0.000,-0.285
23:23:02.083,SEARCHING,33.920,-12.940,1.543,-0.00,0.00,149.25,3.186,5.353,4.559,4.562,4.049,0,0,SEARCHING,0.000,0.798,0.000,-0.148
23:23:02.283,SEARCHING,33.784,-12.857,1.543,-0.00,0.00,147.80,3.531,5.318,4.460,4.473,4.075,0,0,SEARCHING,0.000,0.799,0.000,-0.078
23:23:02.484,SEARCHING,33.649,-12.771,1.543,-0.00,0.00,147.02,3.847,5.404,4.328,4.354,4.101,0,0,SEARCHING,0.000,0.800,0.000,-0.043
23:23:02.685,SEARCHING,33.515,-12.683,1.543,-0.00,0.00,146.60,4.055,6.431,4.186,4.161,4.065,0,0,SEARCHING,0.000,0.800,0.000,-0.020
23:23:02.885,SEARCHING,33.382,-12.595,1.543,-0.00,0.00,146.43,4.182,8.385,4.038,4.052,4.082,0,0,SEARCHING,0.000,0.800,0.000,-0.003
23:23:03.086,SEARCHING,33.249,-12.507,1.543,-0.00,0.00,146.43,4.233,9.189,3.842,3.849,4.081,0,0,SEARCHING,0.000,0.800,0.000,0.011
23:23:03.286,SEARCHING,33.115,-12.418,1.543,-0.00,0.00,146.59,4.291,9.034,3.776,3.720,4.075,0,0,SEARCHING,0.000,0.800,0.000,0.020
23:23:03.488,SEARCHING,32.982,-12.330,1.543,-0.00,0.00,146.84,4.313,9.133,3.675,3.589,4.084,0,0,SEARCHING,0.000,0.800,0.000,0.028
23:23:03.688,SEARCHING,32.874,-12.261,1.541,-0.00,0.00,147.11,4.252,8.736,3.694,3.445,4.094,0,0,SEARCHING,0.000,0.800,-0.035,0.030
23:23:03.889,SEARCHING,32.794,-12.209,1.533,-0.00,0.00,147.30,4.228,8.695,3.784,3.366,4.065,0,0,SEARCHING,0.000,0.800,-0.053,0.025
23:23:04.092,SEARCHING,32.713,-12.157,1.522,-0.00,0.00,147.47,4.244,8.116,3.798,3.297,4.043,0,0,SEARCHING,0.000,0.800,-0.062,0.023
23:23:04.290,SEARCHING,32.632,-12.105,1.509,-0.00,0.00,147.62,4.250,8.219,3.860,3.184,3.996,0,0,SEARCHING,0.000,0.800,-0.070,0.021
23:23:04.491,SEARCHING,32.551,-12.054,1.494,-0.00,0.00,147.76,4.195,8.416,3.929,3.097,3.968,0,0,SEARCHING,0.000,0.800,-0.079,0.017
23:23:04.691,SEARCHING,32.469,-12.003,1.478,-0.00,0.00,147.86,4.212,8.402,3.967,2.974,3.891,0,0,SEARCHING,0.000,0.800,-0.089,0.013
23:23:04.891,SEARCHING,32.388,-11.952,1.459,-0.00,0.00,147.94,4.135,8.267,4.008,2.880,3.825,0,0,SEARCHING,0.000,0.800,-0.097,0.010
23:23:05.093,SEARCHING,32.307,-11.901,1.439,-0.00,0.00,148.00,4.119,7.935,4.012,2.821,3.785,0,0,SEARCHING,0.000,0.800,-0.104,0.007
23:23:05.294,SEARCHING,32.225,-11.850,1.418,-0.00,0.00,148.05,4.068,7.612,3.967,2.751,3.732,0,0,SEARCHING,0.000,0.800,-0.109,0.006
23:23:05.495,SEARCHING,32.144,-11.799,1.396,-0.00,0.00,148.09,4.063,7.671,3.962,2.692,3.684,0,0,SEARCHING,0.000,0.800,-0.116,0.006
23:23:05.694,SEARCHING,32.062,-11.748,1.372,-0.00,0.00,148.12,4.011,7.831,4.071,2.589,3.623,0,0,SEARCHING,0.000,0.800,-0.126,0.002
23:23:05.895,SEARCHING,31.981,-11.698,1.347,-0.00,0.00,148.12,3.995,7.585,4.002,2.502,3.556,0,0,SEARCHING,0.000,0.800,-0.137,-0.001
23:23:06.097,SEARCHING,31.899,-11.647,1.319,-0.00,0.00,148.11,3.965,7.491,4.075,2.460,3.500,0,0,SEARCHING,0.000,0.800,-0.143,-0.003
23:23:06.296,SEARCHING,31.818,-11.596,1.290,-0.00,0.00,148.07,3.932,7.611,4.130,2.479,3.444,0,0,SEARCHING,0.000,0.800,-0.141,-0.007
23:23:06.498,SEARCHING,31.736,-11.546,1.267,-0.00,0.00,148.01,3.926,7.644,4.155,3.803,3.382,0,0,SEARCHING,0.000,0.800,-0.048,-0.010
23:23:06.698,SEARCHING,31.655,-11.495,1.263,-0.00,0.00,147.94,3.930,7.624,4.240,4.780,3.300,0,0,SEARCHING,0.000,0.800,0.057,-0.013
23:23:06.898,SEARCHING,31.574,-11.444,1.278,-0.00,0.00,147.84,3.902,7.706,4.353,4.950,3.339,0,0,SEARCHING,0.000,0.800,0.102,-0.017
23:23:07.099,SEARCHING,31.492,-11.392,1.299,-0.00,0.00,147.71,3.900,7.599,4.365,4.991,3.390,0,0,SEARCHING,0.000,0.800,0.111,-0.021
23:23:07.300,SEARCHING,31.411,-11.341,1.322,-0.00,0.00,147.56,3.903,7.594,4.323,4.969,3.452,0,0,SEARCHING,0.000,0.800,0.111,-0.020
23:23:07.500,SEARCHING,31.330,-11.289,1.344,-0.00,0.00,147.43,3.935,7.529,4.331,4.926,3.526,0,0,SEARCHING,0.000,0.800,0.103,-0.019
23:23:07.701,SEARCHING,31.249,-11.238,1.364,-0.00,0.00,147.30,3.935,7.506,4.320,4.878,3.592,0,0,SEARCHING,0.000,0.800,0.093,-0.018
23:23:07.901,SEARCHING,31.169,-11.186,1.382,-0.00,0.00,147.17,3.862,7.601,4.330,4.826,3.619,0,0,SEARCHING,0.000,0.800,0.086,-0.021
23:23:08.102,SEARCHING,31.088,-11.134,1.399,-0.00,0.00,147.02,3.864,7.486,4.264,4.743,3.673,0,0,SEARCHING,0.000,0.800,0.079,-0.020
23:23:08.302,SEARCHING,31.008,-11.081,1.414,-0.00,0.00,146.89,3.880,7.487,4.251,4.683,3.686,0,0,SEARCHING,0.000,0.800,0.073,-0.019
23:23:08.506,SEARCHING,30.927,-11.029,1.428,-0.00,0.00,146.76,3.879,7.453,4.300,4.659,3.690,0,0,SEARCHING,0.000,0.800,0.070,-0.020
23:23:08.705,SEARCHING,30.847,-10.976,1.442,-0.00,0.00,146.63,3.927,7.487,4.253,4.648,3.798,0,0,SEARCHING,0.000,0.800,0.063,-0.018
23:23:08.906,SEARCHING,30.767,-10.923,1.454,-0.00,0.00,146.51,3.914,7.549,4.240,4.585,3.793,0,0,SEARCHING,0.000,0.800,0.057,-0.016
23:23:09.105,SEARCHING,30.687,-10.870,1.465,-0.00,0.00,146.41,3.921,7.490,4.187,4.582,3.808,0,0,SEARCHING,0.000,0.800,0.055,-0.014
23:23:09.305,SEARCHING,30.607,-10.817,1.476,-0.00,0.00,146.31,3.889,7.537,4.243,4.571,3.813,0,0,SEARCHING,0.000,0.800,0.053,-0.016
23:23:09.506,SEARCHING,30.527,-10.764,1.487,-0.00,0.00,146.19,3.827,7.561,4.297,4.629,3.856,0,0,SEARCHING,0.000,0.800,0.053,-0.020
23:23:10.597,SEARCHING,30.447,-10.710,1.496,-0.00,0.00,146.04,3.779,7.424,4.252,4.617,3.893,0,0,SEARCHING,0.000,0.800,0.018,-0.022
23:23:10.622,SEARCHING,30.355,-10.647,1.497,-0.00,0.00,145.86,3.779,7.424,4.252,4.617,3.893,0,0,SEARCHING,0.000,0.800,0.004,-0.023
23:23:10.778,SEARCHING,30.222,-10.557,1.497,-0.00,0.00,145.58,3.606,7.438,4.148,4.572,3.880,0,0,SEARCHING,0.000,0.800,0.001,-0.026
23:23:10.972,SEARCHING,30.091,-10.467,1.497,-0.00,0.00,145.27,3.543,7.352,4.151,4.552,3.869,0,0,SEARCHING,0.000,0.800,0.000,-0.030
23:23:11.172,SEARCHING,29.959,-10.375,1.497,-0.00,0.00,144.93,3.543,7.178,4.032,4.476,3.844,0,0,SEARCHING,0.000,0.800,0.000,-0.029
23:23:11.374,SEARCHING,29.829,-10.283,1.497,-0.00,0.00,144.60,3.563,7.122,3.987,4.389,3.824,0,0,SEARCHING,0.000,0.800,0.000,-0.026
23:23:11.572,SEARCHING,29.698,-10.190,1.497,-0.00,0.00,144.31,3.615,6.956,3.888,4.326,3.852,0,0,SEARCHING,0.000,0.800,0.000,-0.021
23:23:11.774,SEARCHING,29.569,-10.096,1.497,-0.00,0.00,144.09,3.622,6.802,3.923,4.258,3.817,0,0,SEARCHING,0.000,0.800,0.000,-0.018
23:23:11.975,SEARCHING,29.439,-10.002,1.497,-0.00,0.00,143.89,3.669,6.681,3.890,4.181,3.828,0,0,SEARCHING,0.000,0.800,0.000,-0.015
23:23:12.175,SEARCHING,29.310,-9.908,1.497,-0.00,0.00,143.72,3.676,6.554,3.860,4.140,3.815,0,0,SEARCHING,0.000,0.800,0.000,-0.012
23:23:12.375,SEARCHING,29.181,-9.813,1.497,-0.00,0.00,143.58,3.676,6.379,3.859,4.157,3.787,0,0,SEARCHING,0.000,0.800,0.000,-0.011
23:23:12.577,SEARCHING,29.053,-9.718,1.497,-0.00,0.00,143.46,3.692,6.228,3.843,4.137,3.796,0,0,SEARCHING,0.000,0.800,0.000,-0.010
23:23:12.775,SEARCHING,28.924,-9.622,1.497,-0.00,0.00,143.35,3.722,6.141,3.817,4.158,3.805,0,0,SEARCHING,0.000,0.800,0.000,-0.008
23:23:12.977,SEARCHING,28.796,-9.527,1.497,-0.00,0.00,143.27,3.694,6.036,3.811,4.205,3.761,0,0,SEARCHING,0.000,0.800,0.000,-0.006
23:23:13.177,SEARCHING,28.668,-9.431,1.497,-0.00,0.00,143.19,3.757,5.895,3.856,4.226,3.757,0,0,SEARCHING,0.000,0.800,0.000,-0.006
23:23:13.379,SEARCHING,28.540,-9.335,1.497,-0.00,0.00,143.13,3.802,5.741,3.868,4.177,3.698,0,0,SEARCHING,0.000,0.800,0.000,-0.004
23:23:13.580,SEARCHING,28.412,-9.239,1.497,-0.00,0.00,143.08,3.825,5.607,3.936,4.108,3.728,0,0,SEARCHING,0.000,0.800,0.000,-0.004
23:23:13.779,SEARCHING,28.284,-9.143,1.497,-0.00,0.00,143.03,3.822,5.473,4.044,4.010,3.725,0,0,SEARCHING,0.000,0.800,0.000,-0.007
23:23:13.980,SEARCHING,28.156,-9.047,1.497,-0.00,0.00,142.92,3.727,5.303,4.136,3.883,3.701,0,0,SEARCHING,0.000,0.800,0.000,-0.015
23:23:14.180,SEARCHING,28.028,-8.950,1.497,-0.00,0.00,142.72,3.650,5.091,4.163,3.730,3.653,0,0,SEARCHING,0.000,0.800,0.000,-0.023
23:23:14.381,SEARCHING,27.901,-8.853,1.497,-0.00,0.00,142.45,3.535,4.986,4.122,3.584,3.612,0,0,SEARCHING,0.000,0.800,0.000,-0.028
23:23:14.583,SEARCHING,27.775,-8.755,1.497,-0.00,0.00,142.11,3.484,4.831,4.099,3.461,3.580,0,0,SEARCHING,0.000,0.800,0.000,-0.032
23:23:14.781,SEARCHING,27.649,-8.656,1.497,-0.00,0.00,141.74,3.504,4.725,3.998,3.344,3.523,0,0,SEARCHING,0.000,0.800,0.000,-0.032
23:23:14.983,SEARCHING,27.523,-8.557,1.497,-0.00,0.00,141.40,3.554,4.600,3.884,3.280,3.509,0,0,SEARCHING,0.000,0.800,0.000,-0.025
23:23:15.186,SEARCHING,27.399,-8.457,1.497,-0.00,0.00,141.14,3.620,4.504,3.850,3.263,3.503,0,0,SEARCHING,0.000,0.800,0.000,-0.017
23:23:15.387,SEARCHING,27.274,-8.356,1.497,-0.00,0.00,140.96,3.660,4.362,3.815,3.271,3.463,0,0,SEARCHING,0.000,0.800,0.000,-0.013
23:23:15.587,SEARCHING,27.150,-8.255,1.497,-0.00,0.00,140.83,3.649,4.270,3.800,3.269,3.479,0,0,SEARCHING,0.000,0.800,0.000,-0.009
23:23:15.788,SEARCHING,27.026,-8.154,1.497,-0.00,0.00,140.73,3.634,4.107,3.749,3.301,3.521,0,0,SEARCHING,0.000,0.800,0.000,-0.008
23:23:15.997,SEARCHING,26.902,-8.053,1.497,-0.00,0.00,140.63,3.554,4.024,3.728,3.301,3.473,0,0,SEARCHING,0.000,0.800,0.000,-0.009
23:23:16.194,SEARCHING,26.779,-7.951,1.497,-0.00,0.00,140.53,3.559,3.913,3.674,3.303,3.468,0,0,SEARCHING,0.000,0.800,0.000,-0.009
23:23:16.394,SEARCHING,26.655,-7.849,1.497,-0.00,0.00,140.43,3.623,3.772,3.637,3.300,3.374,0,0,SEARCHING,0.000,0.800,0.000,-0.005
23:23:16.596,SEARCHING,26.532,-7.747,1.497,-0.00,0.00,140.40,3.701,4.997,3.621,3.233,3.273,0,0,SEARCHING,0.000,0.800,0.000,0.001
23:23:16.796,SEARCHING,26.409,-7.645,1.497,-0.00,0.00,140.42,3.764,5.409,3.631,3.114,3.195,0,0,SEARCHING,0.000,0.800,0.000,0.005
23:23:16.997,SEARCHING,26.285,-7.544,1.497,-0.00,0.00,140.50,3.760,5.251,3.619,2.957,3.114,0,0,SEARCHING,0.000,0.800,0.000,0.008
23:23:17.197,SEARCHING,26.162,-7.442,1.497,-0.00,0.00,140.59,3.725,5.080,3.568,2.799,3.058,0,0,SEARCHING,0.000,0.800,0.000,0.009
23:23:17.397,SEARCHING,26.038,-7.340,1.497,-0.00,0.00,140.69,3.624,4.825,3.574,2.661,3.052,0,0,SEARCHING,0.000,0.800,-0.017,0.007
23:23:17.598,SEARCHING,25.964,-7.280,1.491,-0.00,0.00,140.73,3.601,4.745,3.547,2.548,3.025,0,0,SEARCHING,0.000,0.800,-0.057,0.003
23:23:17.798,SEARCHING,25.889,-7.219,1.478,-0.00,0.00,140.75,3.559,4.617,3.504,2.451,2.971,0,0,SEARCHING,0.000,0.800,-0.075,0.004
23:23:17.999,SEARCHING,25.815,-7.158,1.462,-0.00,0.00,140.78,3.537,4.581,3.518,2.370,2.919,0,0,SEARCHING,0.000,0.800,-0.088,0.003
23:23:18.199,SEARCHING,25.741,-7.097,1.444,-0.00,0.00,140.79,3.555,4.577,3.515,2.279,2.880,0,0,SEARCHING,0.000,0.800,-0.100,0.002
23:23:18.400,SEARCHING,25.666,-7.037,1.423,-0.00,0.00,140.81,3.565,4.471,3.506,2.192,2.830,0,0,SEARCHING,0.000,0.800,-0.114,0.003
23:23:18.602,SEARCHING,25.592,-6.976,1.399,-0.00,0.00,140.84,3.681,4.354,3.478,2.100,2.754,0,0,SEARCHING,0.000,0.800,-0.127,0.008
23:23:18.801,SEARCHING,25.517,-6.916,1.373,-0.00,0.00,140.92,3.772,4.278,3.458,2.011,2.687,0,0,SEARCHING,0.000,0.800,-0.140,0.015
23:23:19.002,SEARCHING,25.443,-6.855,1.344,-0.00,0.00,141.03,3.810,4.152,3.466,1.937,2.623,0,0,SEARCHING,0.000,0.800,-0.154,0.019
23:23:19.203,SEARCHING,25.368,-6.795,1.313,-0.00,0.00,141.17,3.844,4.039,3.427,1.928,2.548,0,0,SEARCHING,0.000,0.800,-0.156,0.023
23:23:19.404,SEARCHING,25.293,-6.735,1.282,-0.00,0.00,141.34,3.822,3.934,3.409,2.004,2.478,0,0,SEARCHING,0.000,0.800,-0.137,0.025
23:23:19.604,SEARCHING,25.218,-6.675,1.257,-0.00,0.00,141.52,3.789,3.801,3.397,2.069,2.404,0,0,SEARCHING,0.000,0.800,-0.103,0.025
23:23:19.805,SEARCHING,25.143,-6.615,1.239,-0.00,0.00,141.68,3.632,3.720,3.386,2.150,2.353,0,0,SEARCHING,0.000,0.800,-0.055,0.021
23:23:20.006,SEARCHING,25.068,-6.556,1.231,-0.00,0.00,141.81,3.612,3.498,3.358,2.187,2.314,0,0,SEARCHING,0.000,0.800,-0.013,0.016
23:23:20.206,SEARCHING,24.967,-6.477,1.230,-0.00,0.00,141.93,3.416,3.512,3.390,2.183,2.308,0,0,SEARCHING,0.000,0.800,-0.003,0.007
23:23:20.407,SEARCHING,24.841,-6.378,1.230,-0.00,0.00,142.00,3.335,3.398,3.333,2.180,2.317,0,0,SEARCHING,0.000,0.800,-0.001,0.003
23:23:20.607,SEARCHING,24.715,-6.280,1.230,-0.00,0.00,142.03,3.347,3.240,3.292,2.163,2.317,0,0,SEARCHING,0.000,0.800,-0.000,0.003
23:23:20.809,SEARCHING,24.589,-6.181,1.230,-0.00,0.00,142.06,3.159,3.116,3.235,2.164,2.257,0,0,SEARCHING,0.000,0.800,-0.000,-0.002
23:23:21.009,SEARCHING,24.462,-6.083,1.230,-0.00,0.00,142.02,3.081,2.845,3.196,2.182,2.145,0,0,SEARCHING,0.000,0.800,-0.000,-0.006
