timestamp,state,x,y,z,roll_deg,pitch_deg,yaw_deg,dist_left,dist_center,dist_right,dist_top,dist_bottom,dtof_alert,collision_event,best_dir,max_space,cmd_vx,cmd_vz,cmd_yaw
23:09:57.816,SEARCHING,0.000,0.000,1.000,0.00,0.00,0.00,8.025,8.806,7.763,8.760,7.545,0,0,SEARCHING,0.000,0.240,0.059,-0.009
23:09:57.947,SEARCHING,0.049,-0.000,1.036,0.00,0.00,-0.19,3.495,5.959,2.600,5.907,3.007,0,0,SEARCHING,0.000,0.666,0.464,-0.046
23:09:58.147,SEARCHING,0.165,-0.001,1.134,0.00,0.00,-0.66,3.430,5.949,2.483,5.830,2.996,0,0,SEARCHING,0.000,0.768,0.528,-0.055
23:09:58.349,SEARCHING,0.291,-0.003,1.234,0.00,0.00,-1.18,3.351,6.013,2.386,5.756,3.645,0,0,SEARCHING,0.000,0.792,0.412,-0.056
23:09:58.549,SEARCHING,0.418,-0.006,1.313,0.00,0.00,-1.69,3.282,6.021,2.315,5.488,4.072,0,0,SEARCHING,0.000,0.798,0.337,-0.054
23:09:58.749,SEARCHING,0.546,-0.010,1.371,0.00,0.00,-2.18,3.288,6.045,2.201,5.330,4.428,0,0,SEARCHING,0.000,0.800,0.196,-0.055
23:09:58.948,SEARCHING,0.674,-0.016,1.411,0.00,0.00,-2.69,3.284,6.024,2.188,5.222,3.860,0,0,SEARCHING,0.000,0.800,0.225,-0.055
23:09:59.149,SEARCHING,0.801,-0.022,1.452,0.00,0.00,-3.18,3.307,6.022,2.596,5.085,4.235,0,0,SEARCHING,0.000,0.800,0.160,-0.051
23:09:59.350,SEARCHING,0.929,-0.030,1.483,0.00,0.00,-3.60,3.267,5.989,2.840,5.028,4.055,0,0,SEARCHING,0.000,0.800,0.157,-0.038
23:09:59.551,SEARCHING,1.057,-0.038,1.515,0.00,0.00,-3.90,3.288,5.926,2.841,4.925,4.334,0,0,SEARCHING,0.000,0.800,0.149,-0.031
23:09:59.751,SEARCHING,1.185,-0.047,1.544,0.00,0.00,-4.18,3.270,5.909,2.886,4.855,4.321,0,0,SEARCHING,0.000,0.800,0.127,-0.028
23:09:59.952,SEARCHING,1.312,-0.056,1.568,0.00,0.00,-4.42,3.271,5.882,2.926,4.783,4.423,0,0,SEARCHING,0.000,0.800,0.100,-0.025
23:10:00.153,SEARCHING,1.440,-0.067,1.587,0.00,0.00,-4.64,3.216,5.804,3.073,4.741,4.114,0,0,SEARCHING,0.000,0.800,0.095,-0.018
23:10:00.353,SEARCHING,1.567,-0.077,1.607,0.00,0.00,-4.75,3.199,5.756,3.433,4.686,4.344,0,0,SEARCHING,0.000,0.800,0.092,-0.001
23:10:00.554,SEARCHING,1.695,-0.088,1.621,0.00,0.00,-4.65,3.177,5.619,3.589,4.601,4.659,0,0,SEARCHING,0.000,0.800,0.029,0.021
23:10:00.754,SEARCHING,1.823,-0.098,1.625,0.00,0.00,-4.40,3.132,5.498,3.725,4.641,4.582,0,0,SEARCHING,0.000,0.800,0.007,0.036
23:10:00.955,SEARCHING,1.982,-0.109,1.625,0.00,0.00,-3.94,3.043,5.287,3.893,4.589,3.311,0,0,SEARCHING,0.000,0.800,0.077,0.050
23:10:01.156,SEARCHING,2.110,-0.118,1.648,0.00,0.00,-3.38,2.969,5.140,4.055,4.634,4.243,0,0,SEARCHING,0.000,0.800,0.122,0.072
23:10:01.357,SEARCHING,2.238,-0.125,1.667,0.00,0.00,-2.63,2.868,4.968,4.531,4.583,4.433,0,0,SEARCHING,0.000,0.800,0.037,0.102
23:10:01.558,SEARCHING,2.366,-0.129,1.672,0.00,0.00,-1.44,2.807,4.833,5.300,4.551,4.450,0,0,SEARCHING,0.000,0.800,0.009,0.169
23:10:01.758,SEARCHING,2.526,-0.131,1.672,0.00,0.00,0.78,2.674,4.546,5.712,4.461,4.355,0,0,SEARCHING,0.000,0.800,0.002,0.233
23:10:01.959,SEARCHING,2.686,-0.125,1.672,0.00,0.00,3.61,2.472,4.152,6.098,4.145,4.136,0,0,SEARCHING,0.000,0.800,0.001,0.276
23:10:02.159,SEARCHING,2.845,-0.111,1.672,0.00,0.00,7.02,2.289,3.744,6.356,3.749,3.744,0,0,SEARCHING,0.000,0.800,0.000,0.327
23:10:02.359,SEARCHING,3.003,-0.087,1.672,0.00,0.00,10.76,2.093,3.290,5.448,3.272,3.259,0,0,SEARCHING,0.000,0.800,0.000,0.301
23:10:02.560,SEARCHING,3.159,-0.053,1.672,0.00,0.00,13.93,1.918,2.844,4.701,2.856,2.838,0,0,SEARCHING,0.000,0.800,0.000,0.229
23:10:02.761,SEARCHING,3.314,-0.011,1.672,0.00,0.00,16.27,1.770,2.550,4.101,2.547,2.551,0,0,SEARCHING,0.000,0.800,0.000,0.162
23:10:02.961,SEARCHING,3.467,0.036,1.672,0.00,0.00,17.91,1.644,2.346,3.665,2.335,2.335,0,0,SEARCHING,0.000,0.800,0.000,0.110
23:10:03.162,SEARCHING,3.619,0.086,1.672,0.00,0.00,19.00,1.539,2.149,3.373,2.153,2.157,0,0,SEARCHING,0.000,0.800,0.000,0.070
23:10:03.362,SEARCHING,3.768,0.139,1.672,0.00,0.00,19.65,1.435,1.994,3.109,1.997,2.015,0,0,SEARCHING,0.000,0.759,0.000,0.035
23:10:03.563,SEARCHING,3.906,0.188,1.672,0.00,0.00,19.93,1.351,1.881,2.943,1.882,1.888,0,0,SEARCHING,0.000,0.680,0.000,0.007
23:10:03.763,SEARCHING,4.028,0.233,1.672,0.00,0.00,19.92,1.271,1.760,2.806,1.766,1.769,0,0,SEARCHING,0.000,0.604,0.000,-0.016
23:10:03.964,SEARCHING,4.136,0.272,1.672,0.00,0.00,19.63,1.202,1.666,2.657,1.661,1.669,0,0,SEARCHING,0.000,0.532,0.000,-0.040
23:10:04.164,SEARCHING,4.233,0.306,1.672,0.00,0.00,19.09,1.135,1.578,2.532,1.571,1.574,0,0,SEARCHING,0.000,0.477,0.000,-0.061
23:10:04.365,SEARCHING,4.321,0.335,1.672,0.00,0.00,18.31,1.087,1.521,2.451,1.511,1.515,0,0,SEARCHING,0.000,0.438,0.000,-0.079
23:10:04.564,SEARCHING,4.401,0.362,1.672,0.00,0.00,17.33,1.048,1.478,2.390,1.477,1.473,0,0,SEARCHING,0.000,0.406,0.000,-0.096
23:10:04.765,SEARCHING,4.477,0.385,1.672,0.00,0.00,16.16,1.014,1.443,2.347,1.438,1.445,0,0,SEARCHING,0.000,0.382,0.000,-0.111
23:10:04.966,SEARCHING,4.550,0.405,1.672,0.00,0.00,14.84,0.987,1.420,2.322,1.421,1.430,0,0,SEARCHING,0.000,0.365,0.000,-0.123
23:10:05.167,SEARCHING,4.620,0.422,1.672,0.00,0.00,13.39,0.971,1.421,2.306,1.432,1.422,0,0,SEARCHING,0.000,0.357,0.000,-0.133
23:10:05.368,SEARCHING,4.689,0.438,1.672,0.00,0.00,11.83,0.952,1.431,2.330,1.440,1.432,0,0,SEARCHING,0.000,0.356,0.000,-0.140
23:10:05.568,SEARCHING,4.759,0.452,1.672,0.00,0.00,10.20,0.935,1.464,2.380,1.468,1.458,0,0,SEARCHING,0.000,0.361,0.000,-0.147
23:10:05.769,SEARCHING,4.831,0.464,1.672,0.00,0.00,8.49,0.928,1.483,2.437,1.480,1.471,0,0,SEARCHING,0.000,0.371,0.000,-0.151
23:10:05.968,SEARCHING,4.905,0.474,1.672,0.00,0.00,6.75,0.919,1.500,2.526,1.512,1.502,0,0,SEARCHING,0.000,0.378,0.000,-0.153
23:10:06.169,SEARCHING,4.981,0.482,1.672,0.00,0.00,5.00,0.913,1.537,2.599,1.538,1.539,0,0,SEARCHING,0.000,0.390,0.000,-0.153
23:10:06.370,SEARCHING,5.060,0.487,1.672,0.00,0.00,3.24,0.911,1.550,2.730,1.565,1.552,0,0,SEARCHING,0.000,0.400,0.000,-0.151
23:10:06.570,SEARCHING,5.141,0.491,1.672,0.00,0.00,1.55,0.943,1.583,2.882,1.587,1.580,0,0,SEARCHING,0.000,0.415,0.000,-0.139
23:10:06.772,SEARCHING,5.224,0.492,1.672,0.00,0.00,0.04,0.958,1.537,3.038,1.539,1.537,0,0,SEARCHING,0.000,0.413,0.000,-0.119
23:10:06.974,SEARCHING,5.306,0.491,1.672,0.00,0.00,-1.27,0.959,1.482,3.194,1.474,1.482,0,0,SEARCHING,0.000,0.396,0.000,-0.106
23:10:07.174,SEARCHING,5.383,0.489,1.672,0.00,0.00,-2.43,0.961,1.465,3.373,1.460,1.465,0,0,SEARCHING,0.000,0.380,0.000,-0.093
23:10:07.375,SEARCHING,5.459,0.485,1.672,0.00,0.00,-3.44,0.967,1.445,3.503,1.442,1.443,0,0,SEARCHING,0.000,0.370,0.000,-0.079
23:10:07.575,SEARCHING,5.532,0.480,1.672,0.00,0.00,-4.30,0.966,1.447,3.611,1.446,1.432,0,0,SEARCHING,0.000,0.366,0.000,-0.068
23:10:07.776,SEARCHING,5.605,0.474,1.672,0.00,0.00,-5.05,0.968,1.424,3.678,1.432,1.436,0,0,SEARCHING,0.000,0.361,0.000,-0.060
23:10:07.977,SEARCHING,5.676,0.468,1.672,0.00,0.00,-5.71,0.972,1.395,3.718,1.403,1.403,0,0,SEARCHING,0.000,0.351,0.000,-0.054
23:10:08.177,SEARCHING,5.745,0.460,1.672,0.00,0.00,-6.31,0.956,1.373,3.712,1.378,1.387,0,0,SEARCHING,0.000,0.341,0.000,-0.054
23:10:08.377,SEARCHING,5.812,0.453,1.672,0.00,0.00,-6.97,0.892,1.347,3.708,1.354,1.375,0,0,SEARCHING,0.000,0.326,0.000,-0.070
23:10:08.578,SEARCHING,5.876,0.444,1.672,0.00,0.00,-7.88,0.830,1.359,3.800,1.368,1.373,0,0,SEARCHING,0.000,0.317,0.000,-0.095
23:10:08.779,SEARCHING,5.938,0.435,1.672,0.00,0.00,-9.06,0.814,1.360,3.959,1.354,1.357,0,0,SEARCHING,0.000,0.314,0.000,-0.111
23:10:08.980,SEARCHING,6.000,0.425,1.672,0.00,0.00,-10.27,0.808,1.406,4.460,1.424,1.397,0,0,SEARCHING,0.000,0.321,0.000,-0.089
23:10:09.180,SEARCHING,6.064,0.413,1.672,0.00,0.00,-11.15,0.810,1.429,4.831,1.445,1.441,0,0,SEARCHING,0.000,0.333,0.000,-0.053
23:10:09.381,SEARCHING,6.130,0.399,1.672,0.00,0.00,-11.66,0.804,1.425,4.819,1.462,1.435,0,0,SEARCHING,0.000,0.337,0.000,-0.038
23:10:09.582,SEARCHING,6.196,0.385,1.672,0.00,0.00,-12.12,0.782,1.430,4.809,1.467,1.453,0,0,SEARCHING,0.000,0.338,0.000,-0.045
23:10:09.782,SEARCHING,6.263,0.371,1.672,0.00,0.00,-12.68,0.772,1.449,4.774,1.449,1.456,0,0,SEARCHING,0.000,0.342,0.000,-0.056
23:10:09.984,SEARCHING,6.329,0.356,1.672,0.00,0.00,-13.36,0.765,1.422,4.768,1.414,1.411,0,0,SEARCHING,0.000,0.339,0.000,-0.064
23:10:10.183,SEARCHING,6.395,0.340,1.672,0.00,0.00,-14.11,0.764,1.436,4.803,1.398,1.405,0,0,SEARCHING,0.000,0.336,0.000,-0.067
23:10:10.384,SEARCHING,6.460,0.323,1.672,0.00,0.00,-14.87,0.761,1.441,4.826,1.439,1.437,0,0,SEARCHING,0.000,0.340,0.000,-0.066
23:10:10.584,SEARCHING,6.526,0.305,1.672,0.00,0.00,-15.64,0.755,1.464,4.861,1.475,1.477,0,0,SEARCHING,0.000,0.343,0.000,-0.067
23:10:10.784,SEARCHING,6.593,0.286,1.672,0.00,0.00,-16.38,0.756,1.523,5.028,1.509,1.527,0,0,SEARCHING,0.000,0.361,0.000,-0.058
23:10:10.985,SEARCHING,6.662,0.265,1.672,0.00,0.00,-17.04,0.745,1.481,4.864,1.506,1.477,0,0,SEARCHING,0.000,0.361,0.000,-0.063
23:10:11.185,SEARCHING,6.731,0.243,1.672,0.00,0.00,-17.84,0.751,1.570,4.457,1.582,1.545,0,0,SEARCHING,0.000,0.374,0.000,-0.088
23:10:11.387,SEARCHING,6.804,0.219,1.672,0.00,0.00,-18.96,0.756,1.614,4.134,1.618,1.626,0,0,SEARCHING,0.000,0.397,0.000,-0.115
23:10:11.587,SEARCHING,6.881,0.192,1.672,0.00,0.00,-20.38,0.772,1.682,3.900,1.663,1.698,0,0,SEARCHING,0.000,0.432,0.000,-0.135
23:10:11.787,SEARCHING,6.964,0.160,1.672,0.00,0.00,-21.96,0.805,1.938,3.711,2.041,2.022,0,0,SEARCHING,0.000,0.498,0.000,-0.139
23:10:11.988,SEARCHING,7.066,0.117,1.672,0.00,0.00,-23.55,0.829,2.227,3.588,2.218,2.224,0,0,SEARCHING,0.000,0.653,0.000,-0.137
23:10:12.188,SEARCHING,7.192,0.060,1.672,0.00,0.00,-25.07,0.871,2.126,3.531,2.144,2.203,0,0,SEARCHING,0.000,0.713,0.000,-0.123
23:10:12.389,SEARCHING,7.318,-0.000,1.672,0.00,0.00,-26.41,0.918,1.991,3.448,2.047,2.155,0,0,SEARCHING,0.000,0.670,0.000,-0.106
23:10:12.591,SEARCHING,7.429,-0.057,1.674,0.00,0.00,-27.45,0.972,3.204,3.363,3.130,2.439,0,0,SEARCHING,0.000,0.751,0.071,-0.090
23:10:12.791,SEARCHING,7.539,-0.115,1.694,0.00,0.00,-28.20,1.032,3.353,3.276,3.367,2.540,0,0,SEARCHING,0.000,0.788,0.160,-0.072
23:10:12.991,SEARCHING,7.651,-0.175,1.728,0.00,0.00,-28.82,1.059,3.350,3.121,3.350,2.758,0,0,SEARCHING,0.000,0.797,0.159,-0.065
23:10:13.191,SEARCHING,7.762,-0.237,1.754,0.00,0.00,-29.43,1.290,3.200,2.984,3.173,3.140,0,0,SEARCHING,0.000,0.799,0.052,-0.052
23:10:13.393,SEARCHING,7.874,-0.300,1.761,0.00,0.00,-29.74,1.314,3.048,2.891,3.056,3.028,0,0,SEARCHING,0.000,0.800,0.012,-0.024
23:10:13.594,SEARCHING,7.999,-0.372,1.762,0.00,0.00,-29.97,1.218,2.931,2.821,2.940,2.933,0,0,SEARCHING,0.000,0.800,0.003,-0.029
23:10:13.794,SEARCHING,8.137,-0.452,1.762,0.00,0.00,-30.41,1.068,2.801,2.677,2.799,2.802,0,0,SEARCHING,0.000,0.800,0.001,-0.061
23:10:13.994,SEARCHING,8.274,-0.534,1.762,0.00,0.00,-31.26,1.108,2.679,2.541,2.690,2.679,0,0,SEARCHING,0.000,0.800,0.000,-0.084
23:10:14.196,SEARCHING,8.411,-0.618,1.762,0.00,0.00,-32.21,1.250,2.588,2.431,2.571,2.627,0,0,SEARCHING,0.000,0.800,0.000,-0.073
23:10:16.048,SEARCHING,8.545,-0.704,1.762,0.00,0.00,-32.93,1.334,2.625,2.369,2.607,2.694,0,0,SEARCHING,0.000,0.800,0.000,-0.049
23:10:16.059,SEARCHING,8.679,-0.792,1.762,0.00,0.00,-33.48,1.347,2.665,2.345,2.652,2.723,0,0,SEARCHING,0.000,0.800,0.000,-0.041
23:10:16.176,SEARCHING,8.812,-0.881,1.762,0.00,0.00,-33.95,1.709,2.898,2.238,2.945,2.960,0,0,SEARCHING,0.000,0.800,0.000,-0.029
23:10:16.365,SEARCHING,8.945,-0.970,1.762,0.00,0.00,-34.18,1.779,2.942,2.167,2.949,3.047,0,0,SEARCHING,0.000,0.800,0.000,-0.010
23:10:16.566,SEARCHING,9.077,-1.060,1.762,0.00,0.00,-34.27,1.648,2.830,2.163,2.832,3.143,0,0,SEARCHING,0.000,0.800,-0.021,-0.008
23:10:16.767,SEARCHING,9.183,-1.133,1.754,0.00,0.00,-34.37,1.513,2.734,2.159,2.704,3.226,0,0,SEARCHING,0.000,0.800,-0.082,-0.015
23:10:16.968,SEARCHING,9.289,-1.205,1.735,0.00,0.00,-34.55,1.369,3.230,2.160,2.531,3.324,0,0,SEARCHING,0.000,0.800,-0.140,-0.027
23:10:17.168,SEARCHING,9.394,-1.278,1.704,0.00,0.00,-34.86,1.247,3.445,2.127,2.410,3.450,0,0,SEARCHING,0.000,0.800,-0.198,-0.045
23:10:17.369,SEARCHING,9.499,-1.351,1.661,0.00,0.00,-35.37,1.169,3.599,2.104,2.320,3.562,0,0,SEARCHING,0.000,0.800,-0.257,-0.066
23:10:17.569,SEARCHING,9.603,-1.426,1.606,0.00,0.00,-36.03,1.150,3.749,2.027,2.197,3.689,0,0,SEARCHING,0.000,0.800,-0.316,-0.078
23:10:17.770,SEARCHING,9.706,-1.502,1.539,0.00,0.00,-36.75,1.196,3.818,1.975,2.067,3.753,0,0,SEARCHING,0.000,0.800,-0.374,-0.075
23:10:17.971,SEARCHING,9.808,-1.579,1.462,0.00,0.00,-37.40,1.266,3.902,1.957,1.950,3.654,0,0,SEARCHING,0.000,0.800,-0.409,-0.064
23:10:18.172,SEARCHING,9.909,-1.657,1.380,0.00,0.00,-37.95,1.283,3.987,1.913,1.918,3.381,0,0,SEARCHING,0.000,0.800,-0.401,-0.057
23:10:18.372,SEARCHING,10.010,-1.736,1.302,0.00,0.00,-38.43,1.364,4.091,1.836,3.424,3.154,0,0,SEARCHING,0.000,0.800,-0.239,-0.045
23:10:18.572,SEARCHING,10.110,-1.816,1.275,0.00,0.00,-38.80,1.408,4.200,1.801,4.255,3.063,0,0,SEARCHING,0.000,0.800,0.091,-0.035
23:10:18.773,SEARCHING,10.209,-1.896,1.303,0.00,0.00,-39.09,1.438,4.230,1.760,4.422,3.194,0,0,SEARCHING,0.000,0.800,0.209,-0.029
23:10:18.973,SEARCHING,10.309,-1.977,1.347,0.00,0.00,-39.33,1.522,4.982,1.703,4.677,3.316,0,0,SEARCHING,0.000,0.800,0.243,-0.021
23:10:19.174,SEARCHING,10.408,-2.059,1.397,0.00,0.00,-39.49,1.507,5.640,1.700,4.826,3.414,0,0,SEARCHING,0.000,0.800,0.263,-0.015
23:10:19.375,SEARCHING,10.506,-2.140,1.450,0.00,0.00,-39.61,1.613,5.820,1.680,4.951,3.606,0,0,SEARCHING,0.000,0.800,0.262,-0.010
23:10:19.576,SEARCHING,10.605,-2.222,1.501,0.00,0.00,-39.68,1.656,5.722,1.644,4.972,3.763,0,0,SEARCHING,0.000,0.800,0.244,-0.004
23:10:19.776,SEARCHING,10.703,-2.303,1.548,0.00,0.00,-39.69,1.655,5.765,1.616,4.850,3.966,0,0,SEARCHING,0.000,0.800,0.203,0.000
23:10:19.976,SEARCHING,10.802,-2.385,1.586,0.00,0.00,-39.67,1.680,5.837,1.601,4.733,4.072,0,0,SEARCHING,0.000,0.800,0.155,0.004
23:10:20.177,SEARCHING,10.900,-2.467,1.615,0.00,0.00,-39.63,1.728,5.821,1.596,4.705,4.145,0,0,SEARCHING,0.000,0.800,0.122,0.006
23:10:20.377,SEARCHING,10.999,-2.549,1.638,0.00,0.00,-39.56,1.748,5.747,1.556,4.664,4.223,0,0,SEARCHING,0.000,0.800,0.094,0.010
23:10:20.578,SEARCHING,11.098,-2.630,1.656,0.00,0.00,-39.45,1.740,5.644,1.525,4.621,4.276,0,0,SEARCHING,0.000,0.800,0.079,0.013
23:10:20.779,SEARCHING,11.197,-2.711,1.670,0.00,0.00,-39.31,1.701,5.553,1.738,4.580,4.314,0,0,SEARCHING,0.000,0.800,0.044,0.011
23:10:20.979,SEARCHING,11.296,-2.792,1.676,0.00,0.00,-39.28,1.690,5.479,2.280,4.577,4.342,0,0,SEARCHING,0.000,0.800,0.011,-0.002
23:10:21.181,SEARCHING,11.407,-2.883,1.677,0.00,0.00,-39.32,1.672,5.394,2.340,4.576,4.351,0,0,SEARCHING,0.000,0.800,0.003,-0.004
23:10:21.380,SEARCHING,11.531,-2.985,1.677,0.00,0.00,-39.37,1.666,5.398,2.360,4.576,4.386,0,0,SEARCHING,0.000,0.800,0.001,-0.005
23:10:21.581,SEARCHING,11.655,-3.086,1.677,0.00,0.00,-39.44,1.651,5.330,2.312,4.567,4.390,0,0,SEARCHING,0.000,0.800,0.000,-0.006
23:10:21.782,SEARCHING,11.778,-3.188,1.677,0.00,0.00,-39.52,1.635,5.240,2.285,4.575,4.399,0,0,SEARCHING,0.000,0.800,0.000,-0.008
23:10:21.982,SEARCHING,11.901,-3.290,1.677,0.00,0.00,-39.61,1.634,5.153,2.241,4.576,4.394,0,0,SEARCHING,0.000,0.800,0.000,-0.009
23:10:22.182,SEARCHING,12.025,-3.392,1.677,0.00,0.00,-39.73,1.605,5.087,2.223,4.604,4.400,0,0,SEARCHING,0.000,0.800,0.000,-0.011
23:10:22.383,SEARCHING,12.148,-3.495,1.677,0.00,0.00,-39.86,1.586,4.740,2.171,4.588,4.400,0,0,SEARCHING,0.000,0.800,0.000,-0.013
23:10:22.584,SEARCHING,12.270,-3.597,1.677,0.00,0.00,-40.04,1.536,4.421,2.124,4.577,4.392,0,0,SEARCHING,0.000,0.800,0.000,-0.019
23:10:22.786,SEARCHING,12.393,-3.700,1.677,0.00,0.00,-40.21,2.206,4.315,2.062,4.576,4.399,0,0,SEARCHING,0.000,0.800,0.000,-0.007
23:10:22.985,SEARCHING,12.515,-3.804,1.677,0.00,0.00,-40.27,2.258,4.222,2.050,4.576,4.400,0,0,SEARCHING,0.000,0.800,0.000,-0.003
23:10:23.186,SEARCHING,12.637,-3.907,1.677,0.00,0.00,-40.30,2.260,4.219,1.982,4.412,4.409,0,0,SEARCHING,0.000,0.800,0.000,-0.003
23:10:23.387,SEARCHING,12.759,-4.011,1.677,0.00,0.00,-40.33,2.234,3.958,1.965,4.288,4.401,0,0,SEARCHING,0.000,0.800,0.000,-0.002
23:10:23.588,SEARCHING,12.881,-4.114,1.677,0.00,0.00,-40.35,2.224,3.653,1.929,4.165,4.401,0,0,SEARCHING,0.000,0.800,0.000,-0.001
23:10:23.789,SEARCHING,12.990,-4.208,1.676,0.00,0.00,-40.37,2.206,3.402,1.919,4.016,4.400,0,0,SEARCHING,0.000,0.800,-0.043,-0.001
23:10:23.989,SEARCHING,13.088,-4.290,1.665,0.00,0.00,-40.37,2.194,3.096,1.872,3.818,4.400,0,0,SEARCHING,0.000,0.800,-0.083,-0.000
23:10:24.190,SEARCHING,13.185,-4.373,1.646,0.00,0.00,-40.37,2.162,2.980,1.831,3.718,4.337,0,0,SEARCHING,0.000,0.800,-0.109,0.001
23:10:24.390,SEARCHING,13.283,-4.456,1.623,0.00,0.00,-40.35,2.155,2.987,1.748,3.567,4.320,0,0,SEARCHING,0.000,0.800,-0.132,0.004
23:10:24.588,SEARCHING,13.381,-4.539,1.596,0.00,0.00,-40.32,2.137,3.296,2.309,3.468,4.247,0,0,SEARCHING,0.000,0.800,-0.146,0.002
23:10:24.788,SEARCHING,13.478,-4.622,1.566,0.00,0.00,-40.29,2.113,3.558,2.388,3.337,4.171,0,0,SEARCHING,0.000,0.800,-0.156,0.005
23:10:24.988,SEARCHING,13.576,-4.705,1.535,0.00,0.00,-40.24,2.066,5.458,2.390,3.270,4.100,0,0,SEARCHING,0.000,0.800,-0.164,0.006
23:10:25.188,SEARCHING,13.674,-4.787,1.502,0.00,0.00,-40.19,2.074,5.879,2.366,3.120,3.978,0,0,SEARCHING,0.000,0.800,-0.172,0.006
23:10:25.388,SEARCHING,13.771,-4.870,1.467,0.00,0.00,-40.14,2.062,5.869,2.352,2.969,3.893,0,0,SEARCHING,0.000,0.800,-0.182,0.005
23:10:25.589,SEARCHING,13.869,-4.952,1.430,0.00,0.00,-40.10,2.040,5.867,2.342,2.837,3.776,0,0,SEARCHING,0.000,0.800,-0.194,0.005
23:10:25.789,SEARCHING,13.967,-5.035,1.390,0.00,0.00,-40.05,1.996,5.718,2.327,2.751,3.671,0,0,SEARCHING,0.000,0.800,-0.200,0.004
23:10:25.991,SEARCHING,14.065,-5.117,1.350,0.00,0.00,-40.02,1.966,5.611,2.288,2.643,3.567,0,0,SEARCHING,0.000,0.800,-0.202,0.004
23:10:26.191,SEARCHING,14.163,-5.199,1.310,0.00,0.00,-39.99,1.948,5.558,2.276,2.537,3.477,0,0,SEARCHING,0.000,0.800,-0.210,0.003
23:10:26.391,SEARCHING,14.261,-5.282,1.267,0.00,0.00,-39.96,1.916,5.461,2.282,2.403,3.370,0,0,SEARCHING,0.000,0.800,-0.222,0.002
23:10:26.593,SEARCHING,14.359,-5.364,1.222,0.00,0.00,-39.96,2.652,5.310,2.229,2.335,3.267,0,0,SEARCHING,0.000,0.800,-0.225,-0.006
23:10:26.794,SEARCHING,14.458,-5.446,1.178,0.00,0.00,-40.06,2.729,5.258,2.209,2.402,3.147,0,0,SEARCHING,0.000,0.800,-0.209,-0.015
23:10:26.993,SEARCHING,14.555,-5.529,1.138,0.00,0.00,-40.22,2.845,5.173,2.156,2.504,3.038,0,0,SEARCHING,0.000,0.800,-0.162,-0.022
23:10:27.194,SEARCHING,14.653,-5.611,1.108,0.00,0.00,-40.46,3.054,5.101,2.128,2.565,2.954,0,0,SEARCHING,0.000,0.800,-0.120,-0.031
23:10:27.394,SEARCHING,14.750,-5.695,1.086,0.00,0.00,-40.79,3.186,5.088,2.112,2.619,2.888,0,0,SEARCHING,0.000,0.800,-0.086,-0.042
23:10:27.594,SEARCHING,14.847,-5.779,1.072,0.00,0.00,-41.21,3.283,5.069,2.059,2.682,2.818,0,0,SEARCHING,0.000,0.800,-0.027,-0.051
23:10:27.794,SEARCHING,14.943,-5.863,1.069,0.00,0.00,-41.70,3.291,5.050,1.985,2.714,2.847,0,0,SEARCHING,0.000,0.800,-0.007,-0.055
23:10:27.995,SEARCHING,15.062,-5.970,1.069,0.00,0.00,-42.35,3.272,5.069,1.943,2.707,2.891,0,0,SEARCHING,0.000,0.800,-0.002,-0.056
23:10:28.196,SEARCHING,15.179,-6.079,1.069,0.00,0.00,-42.97,3.152,5.048,1.881,2.696,2.896,0,0,SEARCHING,0.000,0.800,-0.000,-0.051
23:10:28.396,SEARCHING,15.296,-6.188,1.069,0.00,0.00,-43.52,3.044,5.014,1.826,2.686,2.869,0,0,SEARCHING,0.000,0.800,-0.000,-0.042
23:10:28.597,SEARCHING,15.412,-6.299,1.069,0.00,0.00,-43.97,2.960,4.981,1.753,2.690,2.870,0,0,SEARCHING,0.000,0.800,-0.000,-0.034
23:10:28.797,SEARCHING,15.526,-6.410,1.069,0.00,0.00,-44.33,2.942,4.895,1.685,2.649,2.846,0,0,SEARCHING,0.000,0.800,-0.000,-0.027
23:10:28.998,SEARCHING,15.629,-6.511,1.067,0.00,0.00,-44.60,2.902,4.787,1.640,2.671,2.848,0,0,SEARCHING,0.000,0.800,-0.018,-0.022
23:10:29.199,SEARCHING,15.732,-6.612,1.065,0.00,0.00,-44.80,2.867,4.684,1.582,2.657,2.839,0,0,SEARCHING,0.000,0.800,-0.004,-0.017
23:10:29.399,SEARCHING,15.834,-6.714,1.063,0.00,0.00,-44.99,2.812,4.567,2.396,2.617,2.858,0,0,SEARCHING,0.000,0.800,-0.038,-0.021
23:10:29.599,SEARCHING,15.924,-6.805,1.061,0.00,0.00,-45.17,2.804,4.452,2.424,4.107,2.857,0,0,SEARCHING,0.000,0.800,0.118,-0.019
23:10:29.800,SEARCHING,16.014,-6.896,1.094,0.00,0.00,-45.34,2.777,4.337,2.428,4.283,2.924,0,0,SEARCHING,0.000,0.800,0.244,-0.017
23:10:30.000,SEARCHING,16.104,-6.987,1.145,0.00,0.00,-45.39,2.740,4.209,3.761,4.212,3.027,0,0,SEARCHING,0.000,0.800,0.254,0.025
23:10:30.200,SEARCHING,16.194,-7.078,1.194,0.00,0.00,-44.92,2.697,4.073,3.901,4.063,3.144,0,0,SEARCHING,0.000,0.800,0.220,0.071
23:10:30.401,SEARCHING,16.285,-7.167,1.235,0.00,0.00,-44.20,2.616,3.930,3.800,3.915,3.275,0,0,SEARCHING,0.000,0.800,0.169,0.081
23:10:30.602,SEARCHING,16.378,-7.256,1.266,0.00,0.00,-43.46,2.520,3.789,3.662,3.784,3.369,0,0,SEARCHING,0.000,0.800,0.117,0.079
23:10:30.802,SEARCHING,16.471,-7.344,1.287,0.00,0.00,-42.76,2.434,3.664,3.516,3.640,3.410,0,0,SEARCHING,0.000,0.800,0.059,0.072
23:10:31.002,SEARCHING,16.565,-7.430,1.295,0.00,0.00,-42.13,2.361,3.544,3.393,3.547,3.415,0,0,SEARCHING,0.000,0.800,0.014,0.065
23:10:31.203,SEARCHING,16.673,-7.526,1.297,0.00,0.00,-41.50,2.285,3.467,3.275,3.463,3.415,0,0,SEARCHING,0.000,0.800,0.003,0.058
23:10:31.403,SEARCHING,16.793,-7.632,1.297,0.00,0.00,-40.87,2.197,3.323,3.104,3.333,3.320,0,0,SEARCHING,0.000,0.800,0.001,0.049
23:10:31.604,SEARCHING,16.914,-7.736,1.297,0.00,0.00,-40.35,2.122,3.191,2.919,3.199,3.170,0,0,SEARCHING,0.000,0.800,0.000,0.038
23:10:31.805,SEARCHING,17.037,-7.839,1.297,0.00,0.00,-39.95,2.045,2.979,2.741,2.980,2.963,0,0,SEARCHING,0.000,0.800,0.000,0.028
23:10:32.005,SEARCHING,17.160,-7.941,1.297,0.00,0.00,-39.67,1.967,2.848,2.599,2.843,2.835,0,0,SEARCHING,0.000,0.800,0.000,0.020
23:10:32.206,SEARCHING,17.283,-8.043,1.297,0.00,0.00,-39.47,1.872,2.710,2.444,2.705,2.685,0,0,SEARCHING,0.000,0.800,0.000,0.012
23:10:32.406,SEARCHING,17.407,-8.145,1.297,0.00,0.00,-39.36,1.825,2.548,2.343,2.558,2.550,0,0,SEARCHING,0.000,0.800,0.000,0.005
23:10:32.607,SEARCHING,17.530,-8.246,1.297,0.00,0.00,-39.33,1.753,2.402,2.274,2.404,2.396,0,0,SEARCHING,0.000,0.800,0.000,0.000
23:10:32.807,SEARCHING,17.654,-8.348,1.297,0.00,0.00,-39.34,1.698,2.256,2.178,2.255,2.254,0,0,SEARCHING,0.000,0.800,0.000,-0.004
23:10:33.007,SEARCHING,17.778,-8.449,1.297,0.00,0.00,-39.42,1.617,2.068,1.979,2.068,2.067,0,0,SEARCHING,0.000,0.795,0.000,-0.010
23:10:33.208,SEARCHING,17.898,-8.548,1.297,0.00,0.00,-39.40,1.549,1.912,3.736,1.916,1.910,0,0,SEARCHING,0.000,0.736,0.000,0.035
23:10:33.409,SEARCHING,18.007,-8.637,1.297,0.00,0.00,-38.82,1.487,1.791,3.888,1.793,1.792,0,0,SEARCHING,0.000,0.651,0.000,0.068
23:10:33.609,SEARCHING,18.105,-8.715,1.297,0.00,0.00,-37.99,1.412,1.658,3.953,1.655,1.655,0,0,SEARCHING,0.000,0.568,0.000,0.076
23:10:33.810,SEARCHING,18.190,-8.781,1.297,0.00,0.00,-37.12,1.340,1.549,4.053,1.550,1.545,0,0,SEARCHING,0.000,0.498,0.000,0.076
23:10:34.010,SEARCHING,18.266,-8.837,1.297,0.00,0.00,-36.27,1.272,1.423,4.093,1.428,1.423,0,0,SEARCHING,0.000,0.429,0.000,0.071
23:10:34.211,SEARCHING,18.332,-8.885,1.297,0.00,0.00,-35.48,1.225,1.350,4.080,1.351,1.339,0,0,SEARCHING,0.000,0.379,0.000,0.064
23:10:34.411,SEARCHING,18.392,-8.927,1.297,0.00,0.00,-34.76,1.178,1.273,4.267,1.277,1.261,0,0,SEARCHING,0.000,0.337,0.000,0.062
23:10:34.611,SEARCHING,18.445,-8.964,1.297,0.00,0.00,-34.05,1.124,1.193,4.334,1.190,1.196,0,0,SEARCHING,0.000,0.301,0.000,0.060
23:10:34.811,SEARCHING,18.493,-8.996,1.297,0.00,0.00,-33.39,1.083,1.131,4.411,1.125,1.140,0,0,SEARCHING,0.000,0.270,0.000,0.054
23:10:35.012,SEARCHING,18.537,-9.024,1.297,0.00,0.00,-32.78,1.044,1.081,4.455,1.075,1.089,0,0,SEARCHING,0.000,0.255,0.000,0.048
23:10:35.212,SEARCHING,18.580,-9.052,1.297,0.00,0.00,-32.25,1.011,1.028,4.651,1.026,1.033,0,0,SEARCHING,0.000,0.251,0.000,0.047
23:10:35.413,SEARCHING,18.622,-9.078,1.297,0.00,0.00,-31.83,0.979,0.978,2.929,0.978,0.981,0,0,SEARCHING,0.000,0.250,0.000,-0.018
23:10:35.613,SEARCHING,18.665,-9.105,1.297,0.00,0.00,-32.50,0.953,0.927,2.666,0.931,0.932,0,0,SEARCHING,0.000,0.250,0.000,-0.106
23:10:35.814,SEARCHING,18.707,-9.132,1.297,0.00,0.00,-33.63,0.919,0.878,4.267,0.882,0.882,0,0,SEARCHING,0.000,0.250,0.000,-0.063
23:10:36.015,SEARCHING,18.748,-9.160,1.297,0.00,0.00,-34.21,0.875,0.838,4.279,0.840,0.840,0,0,SEARCHING,0.000,0.250,0.000,-0.044
23:10:36.262,INSPECTING,18.789,-9.188,1.297,0.00,0.00,-34.78,0.815,0.779,4.229,0.781,0.781,0,0,SEARCHING,0.000,0.175,0.000,-0.064
23:10:36.416,INSPECTING,18.833,-9.220,1.297,0.00,0.00,-37.09,0.758,0.730,4.051,0.732,0.730,0,0,INSPECT_RIGHT,0.000,0.346,0.000,-0.395
23:10:36.617,INSPECTING,18.890,-9.266,1.297,0.00,0.00,-42.07,0.675,0.664,3.702,0.662,0.661,0,0,INSPECT_RIGHT,0.000,0.387,0.000,-0.475
23:10:36.817,INSPECTING,18.946,-9.321,1.297,0.00,0.00,-47.61,0.579,0.584,3.307,0.583,0.579,0,0,INSPECT_RIGHT,0.000,0.397,0.000,-0.494
23:10:37.017,SEARCHING,18.997,-9.382,1.297,0.00,0.00,-53.30,0.497,2.596,3.017,3.411,1.975,0,0,INSPECT_RIGHT,0.000,0.399,0.000,-0.499
23:10:37.219,SEARCHING,19.050,-9.460,1.312,0.00,0.00,-58.02,0.499,3.852,2.724,3.905,3.354,0,0,SEARCHING,0.000,0.704,0.154,-0.530
23:10:37.419,SEARCHING,19.110,-9.564,1.339,0.00,0.00,-61.66,1.542,3.634,2.529,3.647,3.453,0,0,SEARCHING,0.000,0.777,0.072,-0.182
23:10:37.620,SEARCHING,19.169,-9.675,1.350,0.00,0.00,-62.62,1.738,3.351,2.382,3.349,3.311,0,0,SEARCHING,0.000,0.794,0.017,-0.050
23:10:37.820,SEARCHING,19.235,-9.803,1.351,0.00,0.00,-62.92,1.541,3.178,2.298,3.188,3.179,0,0,SEARCHING,0.000,0.799,0.004,-0.020
23:10:38.020,SEARCHING,19.307,-9.945,1.351,0.00,0.00,-63.13,3.874,3.051,2.197,3.046,3.019,0,0,SEARCHING,0.000,0.800,0.001,-0.043
23:10:38.221,SEARCHING,19.379,-10.088,1.351,0.00,0.00,-64.14,5.347,2.921,2.107,2.915,2.885,0,0,SEARCHING,0.000,0.800,0.000,-0.170
23:10:38.421,SEARCHING,19.446,-10.234,1.351,0.00,0.00,-66.54,5.406,2.683,1.958,2.694,2.683,0,0,SEARCHING,0.000,0.800,0.000,-0.249
23:10:38.622,SEARCHING,19.507,-10.382,1.351,0.00,0.00,-69.26,4.143,2.471,1.853,2.487,2.478,0,0,SEARCHING,0.000,0.800,0.000,-0.191
23:10:38.822,SEARCHING,19.561,-10.532,1.351,0.00,0.00,-71.05,3.282,2.253,1.705,2.253,2.253,0,0,SEARCHING,0.000,0.800,0.000,-0.099
23:10:39.022,SEARCHING,19.612,-10.684,1.351,0.00,0.00,-71.93,2.997,2.102,1.603,2.107,2.088,0,0,SEARCHING,0.000,0.800,0.000,-0.047
23:10:39.223,SEARCHING,19.660,-10.833,1.351,0.00,0.00,-72.31,2.730,1.927,1.482,1.931,1.927,0,0,SEARCHING,0.000,0.736,0.000,-0.014
23:10:39.426,SEARCHING,19.702,-10.967,1.351,0.00,0.00,-72.37,2.555,1.817,1.403,1.820,1.819,0,0,SEARCHING,0.000,0.651,0.000,0.009
23:10:39.625,SEARCHING,19.740,-11.086,1.351,0.00,0.00,-72.18,2.368,1.686,1.302,1.680,1.679,0,0,SEARCHING,0.000,0.571,0.000,0.031
23:10:39.825,SEARCHING,19.774,-11.190,1.351,0.00,0.00,-71.75,2.241,1.597,1.229,1.585,1.582,0,0,SEARCHING,0.000,0.507,0.000,0.049
23:10:40.026,SEARCHING,19.805,-11.282,1.351,0.00,0.00,-71.11,2.159,1.529,1.168,1.511,1.515,0,0,SEARCHING,0.000,0.455,0.000,0.066
23:10:40.226,SEARCHING,19.834,-11.365,1.351,0.00,0.00,-70.29,2.079,1.461,1.112,1.457,1.453,0,0,SEARCHING,0.000,0.413,0.000,0.082
23:10:40.426,SEARCHING,19.862,-11.440,1.351,0.00,0.00,-69.28,2.050,1.415,1.075,1.414,1.409,0,0,SEARCHING,0.000,0.381,0.000,0.096
23:10:40.629,SEARCHING,19.888,-11.509,1.351,0.00,0.00,-68.12,2.030,1.360,1.025,1.362,1.360,0,0,SEARCHING,0.000,0.352,0.000,0.111
23:10:40.831,SEARCHING,19.915,-11.573,1.351,0.00,0.00,-66.80,1.997,1.330,0.997,1.337,1.337,0,0,SEARCHING,0.000,0.331,0.000,0.123
23:10:41.030,SEARCHING,19.941,-11.632,1.351,0.00,0.00,-65.34,2.006,1.309,0.971,1.315,1.317,0,0,SEARCHING,0.000,0.317,0.000,0.134
23:10:41.231,SEARCHING,19.968,-11.689,1.351,0.00,0.00,-63.76,2.058,1.298,0.949,1.302,1.303,0,0,SEARCHING,0.000,0.307,0.000,0.144
23:10:41.432,SEARCHING,19.995,-11.743,1.351,0.00,0.00,-62.07,2.080,1.284,0.929,1.281,1.279,0,0,SEARCHING,0.000,0.300,0.000,0.153
23:10:41.633,SEARCHING,20.024,-11.795,1.351,0.00,0.00,-60.27,2.106,1.289,0.913,1.281,1.276,0,0,SEARCHING,0.000,0.295,0.000,0.162
23:10:41.833,SEARCHING,20.054,-11.846,1.351,0.00,0.00,-58.38,3.106,1.290,0.901,1.291,1.287,0,0,SEARCHING,0.000,0.295,0.000,0.156
23:10:42.034,SEARCHING,20.086,-11.896,1.351,0.00,0.00,-56.64,4.512,1.283,0.889,1.296,1.299,0,0,SEARCHING,0.000,0.293,0.000,0.113
23:10:42.234,SEARCHING,20.118,-11.944,1.351,0.00,0.00,-55.80,4.827,1.278,0.879,1.298,1.310,0,0,SEARCHING,0.000,0.290,0.000,0.025
23:10:42.435,SEARCHING,20.150,-11.992,1.351,0.00,0.00,-55.65,4.865,1.256,0.852,1.264,1.275,0,0,SEARCHING,0.000,0.283,0.000,0.005
23:10:42.636,SEARCHING,20.182,-12.038,1.351,0.00,0.00,-55.59,4.853,1.225,0.825,1.232,1.238,0,0,SEARCHING,0.000,0.271,0.000,0.011
23:10:42.837,SEARCHING,20.212,-12.082,1.351,0.00,0.00,-55.40,4.849,1.190,0.799,1.192,1.198,0,0,SEARCHING,0.000,0.258,0.000,0.027
23:10:43.037,SEARCHING,20.241,-12.124,1.351,0.00,0.00,-55.01,4.781,1.161,0.778,1.160,1.171,0,0,SEARCHING,0.000,0.252,0.000,0.046
23:10:43.238,SEARCHING,20.270,-12.165,1.351,0.00,0.00,-54.41,4.704,1.137,0.756,1.135,1.140,0,0,SEARCHING,0.000,0.250,0.000,0.065
23:10:43.437,SEARCHING,20.300,-12.205,1.351,0.00,0.00,-53.57,4.603,1.125,0.740,1.119,1.119,0,0,SEARCHING,0.000,0.250,0.000,0.088
23:10:43.639,SEARCHING,20.330,-12.245,1.351,0.00,0.00,-52.47,4.513,1.125,0.731,1.104,1.105,0,0,SEARCHING,0.000,0.250,0.000,0.109
23:10:43.839,SEARCHING,20.360,-12.285,1.351,0.00,0.00,-51.15,4.317,1.120,0.723,1.115,1.113,0,0,SEARCHING,0.000,0.250,0.000,0.129
23:10:44.039,SEARCHING,20.392,-12.323,1.351,0.00,0.00,-49.57,4.131,1.123,0.715,1.126,1.132,0,0,SEARCHING,0.000,0.250,0.000,0.153
23:10:44.241,SEARCHING,20.425,-12.361,1.351,0.00,0.00,-47.73,3.891,1.142,0.713,1.148,1.166,0,0,SEARCHING,0.000,0.250,0.000,0.176
23:10:44.441,SEARCHING,20.459,-12.397,1.351,0.00,0.00,-45.65,3.728,1.211,0.725,1.216,1.206,0,0,SEARCHING,0.000,0.250,0.000,0.189
23:10:44.642,SEARCHING,20.495,-12.432,1.351,0.00,0.00,-43.45,3.584,1.267,0.733,1.255,1.246,0,0,SEARCHING,0.000,0.257,0.000,0.197
23:10:44.843,SEARCHING,20.534,-12.468,1.351,0.00,0.00,-41.18,3.427,1.323,0.761,1.299,1.329,0,0,SEARCHING,0.000,0.278,0.000,0.196
23:10:45.044,SEARCHING,20.573,-12.501,1.367,0.00,0.00,-39.18,3.243,2.531,0.774,4.002,2.004,0,0,SEARCHING,0.000,0.443,0.320,0.193
23:10:45.244,SEARCHING,20.650,-12.562,1.437,0.00,0.00,-37.40,3.062,4.749,0.794,4.848,3.300,0,0,SEARCHING,0.000,0.714,0.352,0.195
23:10:45.444,SEARCHING,20.747,-12.634,1.501,0.00,0.00,-35.62,2.943,4.782,0.804,4.788,3.857,0,0,SEARCHING,0.000,0.779,0.241,0.194
23:10:45.645,SEARCHING,20.851,-12.706,1.544,0.00,0.00,-33.83,2.803,4.478,0.829,4.454,4.055,0,0,SEARCHING,0.000,0.795,0.137,0.193
23:10:45.845,SEARCHING,20.958,-12.776,1.565,0.00,0.00,-32.09,2.676,4.173,0.838,4.161,4.080,0,0,SEARCHING,0.000,0.799,0.041,0.188
23:10:46.045,SEARCHING,21.067,-12.843,1.571,0.00,0.00,-30.73,2.521,3.876,1.605,3.870,3.877,0,0,SEARCHING,0.000,0.800,0.010,0.077
23:10:46.247,SEARCHING,21.205,-12.924,1.571,0.00,0.00,-30.17,2.450,3.692,2.973,3.697,3.703,0,0,SEARCHING,0.000,0.800,0.002,0.026
23:10:46.447,SEARCHING,21.344,-13.004,1.571,0.00,0.00,-29.49,2.349,3.524,5.665,3.522,3.516,0,0,SEARCHING,0.000,0.800,0.001,0.158
23:10:46.647,SEARCHING,21.484,-13.080,1.571,0.00,0.00,-27.13,2.247,3.348,5.883,3.346,3.313,0,0,SEARCHING,0.000,0.800,0.000,0.263
23:10:46.848,SEARCHING,21.628,-13.149,1.571,0.00,0.00,-23.99,2.055,2.976,5.437,2.973,2.961,0,0,SEARCHING,0.000,0.800,0.000,0.274
23:10:47.048,SEARCHING,21.776,-13.211,1.571,0.00,0.00,-21.06,1.922,2.728,4.582,2.733,2.734,0,0,SEARCHING,0.000,0.800,0.000,0.214
23:10:47.249,SEARCHING,21.926,-13.266,1.571,0.00,0.00,-18.92,1.778,2.492,3.866,2.492,2.492,0,0,SEARCHING,0.000,0.800,0.000,0.140
23:10:47.450,SEARCHING,22.078,-13.316,1.571,0.00,0.00,-17.55,1.630,2.284,3.413,2.274,2.293,0,0,SEARCHING,0.000,0.800,0.000,0.086
23:10:47.650,SEARCHING,22.231,-13.363,1.571,0.00,0.00,-16.75,1.523,2.118,3.096,2.116,2.117,0,0,SEARCHING,0.000,0.800,0.000,0.045
23:10:47.851,SEARCHING,22.382,-13.408,1.571,0.00,0.00,-16.36,1.428,1.954,2.824,1.953,1.967,0,0,SEARCHING,0.000,0.743,0.000,0.014
23:10:48.051,SEARCHING,22.519,-13.448,1.571,0.00,0.00,-16.31,1.353,1.846,2.673,1.837,1.841,0,0,SEARCHING,0.000,0.659,0.000,-0.010
23:10:48.251,SEARCHING,22.640,-13.483,1.571,0.00,0.00,-16.51,1.275,1.713,2.495,1.710,1.708,0,0,SEARCHING,0.000,0.580,0.000,-0.032
23:10:50.189,SEARCHING,22.747,-13.515,1.571,0.00,0.00,-16.94,1.252,1.682,2.456,1.676,1.673,0,0,SEARCHING,0.000,0.531,0.000,-0.045
23:10:50.216,SEARCHING,22.847,-13.547,1.571,0.00,0.00,-17.47,1.252,1.682,2.456,1.676,1.673,0,0,SEARCHING,0.000,0.515,0.000,-0.050
23:10:50.372,SEARCHING,22.943,-13.577,1.571,0.00,0.00,-18.08,1.131,1.483,2.210,1.485,1.483,0,0,SEARCHING,0.000,0.457,0.000,-0.068
23:10:50.569,SEARCHING,23.025,-13.604,1.571,0.00,0.00,-18.96,1.084,1.412,2.120,1.417,1.412,0,0,SEARCHING,0.000,0.394,0.000,-0.089
23:10:50.768,SEARCHING,23.096,-13.630,1.571,0.00,0.00,-20.05,1.054,1.380,2.084,1.381,1.380,0,0,SEARCHING,0.000,0.361,0.000,-0.103
23:10:50.969,SEARCHING,23.162,-13.654,1.571,0.00,0.00,-21.27,1.030,1.333,2.080,1.332,1.336,0,0,SEARCHING,0.000,0.338,0.000,-0.113
23:10:51.169,SEARCHING,23.224,-13.679,1.571,0.00,0.00,-22.61,0.973,1.310,2.089,1.310,1.314,0,0,SEARCHING,0.000,0.320,0.000,-0.127
23:10:51.370,SEARCHING,23.282,-13.704,1.571,0.00,0.00,-24.15,0.933,1.300,2.142,1.290,1.294,0,0,SEARCHING,0.000,0.307,0.000,-0.146
23:10:51.571,SEARCHING,23.337,-13.730,1.571,0.00,0.00,-25.88,0.913,1.295,2.166,1.288,1.283,0,0,SEARCHING,0.000,0.300,0.000,-0.159
23:10:51.772,SEARCHING,23.390,-13.756,1.571,0.00,0.00,-27.75,0.898,1.288,2.235,1.288,1.284,0,0,SEARCHING,0.000,0.296,0.000,-0.168
23:10:51.973,SEARCHING,23.442,-13.785,1.571,0.00,0.00,-29.69,0.889,1.289,2.381,1.308,1.291,0,0,SEARCHING,0.000,0.293,0.000,-0.172
23:10:52.174,SEARCHING,23.492,-13.815,1.571,0.00,0.00,-31.67,0.880,1.318,2.494,1.315,1.316,0,0,SEARCHING,0.000,0.298,0.000,-0.173
23:10:52.374,SEARCHING,23.543,-13.847,1.571,0.00,0.00,-33.65,0.878,1.347,2.925,1.344,1.336,0,0,SEARCHING,0.000,0.306,0.000,-0.167
23:10:52.574,SEARCHING,23.594,-13.882,1.571,0.00,0.00,-35.44,0.877,1.363,3.719,1.364,1.363,0,0,SEARCHING,0.000,0.315,0.000,-0.128
23:10:52.775,SEARCHING,23.646,-13.919,1.571,0.00,0.00,-36.74,0.872,1.378,3.830,1.382,1.378,0,0,SEARCHING,0.000,0.322,0.000,-0.098
23:10:52.975,SEARCHING,23.697,-13.959,1.571,0.00,0.00,-37.83,0.862,1.365,3.795,1.381,1.370,0,0,SEARCHING,0.000,0.323,0.000,-0.094
23:10:53.176,SEARCHING,23.748,-13.998,1.571,0.00,0.00,-38.92,0.857,1.373,3.781,1.385,1.375,0,0,SEARCHING,0.000,0.321,0.000,-0.097
23:10:53.377,SEARCHING,23.797,-14.039,1.571,0.00,0.00,-40.06,0.848,1.393,3.751,1.392,1.395,0,0,SEARCHING,0.000,0.326,0.000,-0.104
23:10:53.577,SEARCHING,23.847,-14.082,1.571,0.00,0.00,-41.27,0.840,1.433,3.727,1.437,1.442,0,0,SEARCHING,0.000,0.337,0.000,-0.110
23:10:53.779,SEARCHING,23.898,-14.128,1.571,0.00,0.00,-42.56,0.841,1.438,3.668,1.447,1.442,0,0,SEARCHING,0.000,0.345,0.000,-0.115
23:10:53.979,SEARCHING,23.949,-14.175,1.571,0.00,0.00,-43.90,0.838,1.462,3.591,1.473,1.464,0,0,SEARCHING,0.000,0.350,0.000,-0.121
23:10:54.182,SEARCHING,23.999,-14.225,1.571,0.00,0.00,-45.31,0.847,1.505,3.559,1.500,1.510,0,0,SEARCHING,0.000,0.367,0.000,-0.124
23:10:54.382,SEARCHING,24.051,-14.279,1.571,0.00,0.00,-46.73,0.852,1.602,3.567,1.589,1.607,0,0,SEARCHING,0.000,0.392,0.000,-0.123
23:10:54.583,SEARCHING,24.106,-14.338,1.571,0.00,0.00,-48.13,0.858,1.632,3.538,1.636,1.643,0,0,SEARCHING,0.000,0.421,0.000,-0.120
23:10:54.782,SEARCHING,24.163,-14.403,1.571,0.00,0.00,-49.50,0.866,1.667,3.490,1.680,1.684,0,0,SEARCHING,0.000,0.444,0.000,-0.119
23:10:54.983,SEARCHING,24.221,-14.472,1.571,0.00,0.00,-50.86,0.880,2.395,3.440,2.012,2.200,0,0,SEARCHING,0.000,0.562,-0.017,-0.118
23:10:55.183,SEARCHING,24.288,-14.557,1.567,0.00,0.00,-51.95,0.892,2.540,3.370,2.503,2.507,0,0,SEARCHING,0.000,0.743,-0.010,-0.118
23:10:55.384,SEARCHING,24.372,-14.666,1.566,0.00,0.00,-53.14,0.908,2.839,3.280,2.741,2.762,0,0,SEARCHING,0.000,0.786,-0.002,-0.114
23:10:55.583,SEARCHING,24.466,-14.794,1.566,0.00,0.00,-54.47,0.917,3.223,3.038,3.213,3.170,0,0,SEARCHING,0.000,0.797,-0.001,-0.120
23:10:55.785,SEARCHING,24.557,-14.925,1.566,0.00,0.00,-55.87,0.946,3.099,2.965,3.074,3.104,0,0,SEARCHING,0.000,0.799,-0.000,-0.122
23:10:55.985,SEARCHING,24.646,-15.058,1.566,0.00,0.00,-57.23,0.975,2.924,2.855,2.919,2.908,0,0,SEARCHING,0.000,0.800,-0.000,-0.115
23:10:56.185,SEARCHING,24.731,-15.194,1.566,0.00,0.00,-58.47,1.245,2.754,2.687,2.762,2.750,0,0,SEARCHING,0.000,0.800,-0.000,-0.081
23:10:56.386,SEARCHING,24.814,-15.330,1.566,0.00,0.00,-59.22,1.400,2.589,2.517,2.590,2.571,0,0,SEARCHING,0.000,0.800,-0.000,-0.044
23:10:56.587,SEARCHING,24.895,-15.468,1.566,0.00,0.00,-59.63,1.480,2.465,2.434,2.463,2.443,0,0,SEARCHING,0.000,0.800,-0.000,-0.025
23:10:56.787,SEARCHING,24.976,-15.606,1.566,0.00,0.00,-59.90,1.520,2.311,2.290,2.313,2.315,0,0,SEARCHING,0.000,0.800,-0.000,-0.020
23:10:56.988,SEARCHING,25.056,-15.745,1.566,0.00,0.00,-60.12,1.970,2.122,2.097,2.124,2.130,0,0,SEARCHING,0.000,0.800,-0.000,-0.014
23:10:57.188,SEARCHING,25.135,-15.884,1.566,0.00,0.00,-60.22,2.128,1.970,1.935,1.972,1.850,0,0,SEARCHING,0.000,0.791,-0.000,-0.003
23:10:57.389,SEARCHING,25.204,-16.004,1.568,0.00,0.00,-60.23,2.180,1.823,1.707,1.825,1.682,0,0,SEARCHING,0.000,0.713,0.046,0.003
23:10:57.590,SEARCHING,25.257,-16.098,1.576,0.00,0.00,-60.19,2.252,1.746,1.670,1.758,1.723,0,0,SEARCHING,0.000,0.640,0.017,0.006
23:10:57.790,SEARCHING,25.313,-16.194,1.578,0.00,0.00,-60.11,2.230,1.679,1.584,1.698,1.680,0,0,SEARCHING,0.000,0.586,0.004,0.010
23:10:57.991,SEARCHING,25.369,-16.292,1.578,0.00,0.00,-59.96,2.288,1.569,1.438,1.579,1.586,0,0,SEARCHING,0.000,0.522,0.001,0.019
23:10:58.191,SEARCHING,25.419,-16.378,1.578,0.00,0.00,-59.70,2.279,1.507,1.357,1.504,1.517,0,0,SEARCHING,0.000,0.466,0.000,0.031
23:10:58.392,SEARCHING,25.465,-16.456,1.578,0.00,0.00,-59.29,2.304,1.472,1.242,1.451,1.436,0,0,SEARCHING,0.000,0.429,0.000,0.046
23:10:58.589,SEARCHING,25.508,-16.527,1.578,0.00,0.00,-58.68,2.284,1.413,1.152,1.415,1.399,0,0,SEARCHING,0.000,0.395,0.000,0.065
23:10:58.790,SEARCHING,25.548,-16.592,1.578,0.00,0.00,-57.85,2.232,1.358,1.067,1.380,1.346,0,0,SEARCHING,0.000,0.361,0.000,0.088
23:10:58.989,SEARCHING,25.586,-16.651,1.578,0.00,0.00,-56.73,2.162,4.717,0.990,1.321,1.302,0,0,SEARCHING,0.000,0.478,0.000,0.114
23:10:59.190,SEARCHING,25.646,-16.741,1.571,0.00,0.00,-55.45,2.053,6.063,0.893,2.131,3.115,0,0,SEARCHING,0.000,0.723,-0.154,0.146
23:10:59.390,SEARCHING,25.716,-16.840,1.540,0.00,0.00,-53.94,1.919,5.873,0.849,4.489,4.545,0,0,SEARCHING,0.000,0.781,-0.088,0.181
23:10:59.592,SEARCHING,25.792,-16.942,1.531,0.00,0.00,-52.16,1.822,5.252,0.797,4.858,4.230,0,0,SEARCHING,0.000,0.796,0.052,0.211
23:10:59.791,SEARCHING,25.872,-17.041,1.545,0.00,0.00,-50.13,1.701,4.581,0.762,4.486,4.067,0,0,SEARCHING,0.000,0.799,0.092,0.234
23:10:59.992,SEARCHING,25.955,-17.138,1.561,0.00,0.00,-48.52,1.597,3.946,3.110,3.923,3.844,0,0,SEARCHING,0.000,0.800,0.030,0.088
23:11:00.192,SEARCHING,26.040,-17.234,1.565,0.00,0.00,-47.92,1.527,3.697,3.627,3.662,3.627,0,0,SEARCHING,0.000,0.800,0.007,0.061
23:11:00.393,SEARCHING,26.148,-17.352,1.565,0.00,0.00,-47.20,1.475,3.480,3.805,3.413,3.142,0,0,SEARCHING,0.000,0.800,0.019,0.067
23:11:00.594,SEARCHING,26.236,-17.445,1.569,0.00,0.00,-46.55,1.419,3.317,3.976,3.248,3.219,0,0,SEARCHING,0.000,0.800,0.011,0.074
23:11:00.794,SEARCHING,26.335,-17.549,1.570,0.00,0.00,-45.74,1.352,3.110,4.202,3.080,3.072,0,0,SEARCHING,0.000,0.800,0.003,0.084
23:11:00.995,SEARCHING,26.448,-17.663,1.570,0.00,0.00,-44.74,1.297,2.811,4.470,2.765,2.814,0,0,SEARCHING,0.000,0.800,0.001,0.096
23:11:01.195,SEARCHING,26.562,-17.774,1.570,0.00,0.00,-43.58,1.228,2.595,4.632,2.603,2.574,0,0,SEARCHING,0.000,0.800,0.000,0.106
23:11:01.396,SEARCHING,26.679,-17.884,1.570,0.00,0.00,-42.37,1.145,2.254,4.637,2.240,2.308,0,0,SEARCHING,0.000,0.800,0.000,0.100
23:11:01.596,SEARCHING,26.797,-17.989,1.570,0.00,0.00,-41.29,1.072,2.030,4.544,2.022,2.082,0,0,SEARCHING,0.000,0.744,0.000,0.079
23:11:01.797,SEARCHING,26.904,-18.082,1.570,0.00,0.00,-40.51,0.996,1.855,4.446,1.856,1.902,0,0,SEARCHING,0.000,0.637,0.000,0.047
23:11:01.997,SEARCHING,26.996,-18.160,1.570,0.00,0.00,-40.09,0.949,1.742,4.351,1.720,1.801,0,0,SEARCHING,0.000,0.553,0.000,0.017
23:11:02.198,SEARCHING,27.077,-18.228,1.570,0.00,0.00,-40.01,0.910,1.649,4.251,1.622,1.684,0,0,SEARCHING,0.000,0.488,0.000,-0.013
23:11:02.399,SEARCHING,27.149,-18.288,1.570,0.00,0.00,-40.27,0.876,1.595,4.149,1.519,1.628,0,0,SEARCHING,0.000,0.446,0.000,-0.040
23:11:02.599,SEARCHING,27.208,-18.339,1.568,0.00,0.00,-40.77,0.859,1.633,4.093,1.604,1.669,0,0,SEARCHING,0.000,0.424,-0.024,-0.061
23:11:02.800,SEARCHING,27.260,-18.384,1.564,0.00,0.00,-41.39,0.852,1.673,4.027,1.668,1.693,0,0,SEARCHING,0.000,0.444,-0.006,-0.074
23:11:03.000,SEARCHING,27.328,-18.444,1.564,0.00,0.00,-42.29,0.836,1.757,3.930,1.741,1.756,0,0,SEARCHING,0.000,0.469,-0.001,-0.089
23:11:03.201,SEARCHING,27.398,-18.510,1.564,0.00,0.00,-43.37,0.826,1.757,3.884,1.747,1.768,0,0,SEARCHING,0.000,0.490,-0.000,-0.102
23:11:03.402,SEARCHING,27.469,-18.578,1.564,0.00,0.00,-44.58,0.826,1.780,3.804,1.802,1.795,0,0,SEARCHING,0.000,0.495,-0.000,-0.111
23:11:03.603,SEARCHING,27.539,-18.649,1.564,0.00,0.00,-45.87,0.832,1.837,3.765,1.844,1.835,0,0,SEARCHING,0.000,0.517,-0.000,-0.115
23:11:03.803,SEARCHING,27.613,-18.726,1.564,0.00,0.00,-47.19,0.867,1.993,3.669,2.016,2.005,0,0,SEARCHING,0.000,0.577,-0.000,-0.112
23:11:04.003,SEARCHING,27.694,-18.816,1.564,0.00,0.00,-48.39,0.953,2.132,3.565,2.144,2.163,0,0,SEARCHING,0.000,0.658,-0.000,-0.088
23:11:04.204,SEARCHING,27.785,-18.920,1.564,0.00,0.00,-49.31,0.991,2.213,3.491,2.196,2.247,0,0,SEARCHING,0.000,0.736,-0.000,-0.070
23:11:04.404,SEARCHING,27.882,-19.034,1.564,0.00,0.00,-50.09,0.977,2.252,3.379,2.295,2.314,0,0,SEARCHING,0.000,0.776,-0.000,-0.070
23:11:04.605,SEARCHING,27.982,-19.155,1.564,0.00,0.00,-50.93,0.980,2.372,3.264,2.387,2.394,0,0,SEARCHING,0.000,0.794,-0.000,-0.078
23:11:04.806,SEARCHING,28.082,-19.280,1.564,0.00,0.00,-51.86,0.993,2.384,3.133,2.354,2.374,0,0,SEARCHING,0.000,0.799,-0.000,-0.085
23:11:05.006,SEARCHING,28.180,-19.406,1.564,0.00,0.00,-52.82,1.032,2.344,2.990,2.326,2.326,0,0,SEARCHING,0.000,0.800,-0.000,-0.083
23:11:05.207,SEARCHING,28.275,-19.534,1.564,0.00,0.00,-53.77,1.059,2.361,2.875,2.358,2.359,0,0,SEARCHING,0.000,0.800,-0.000,-0.082
23:11:05.406,SEARCHING,28.369,-19.664,1.564,0.00,0.00,-54.69,1.110,2.415,2.763,2.438,2.410,0,0,SEARCHING,0.000,0.800,-0.000,-0.075
23:11:05.608,SEARCHING,28.460,-19.795,1.564,0.00,0.00,-55.53,1.147,2.453,2.621,2.470,2.498,0,0,SEARCHING,0.000,0.800,-0.000,-0.071
23:11:05.808,SEARCHING,28.550,-19.928,1.564,0.00,0.00,-56.32,1.220,2.467,2.469,2.479,2.492,0,0,SEARCHING,0.000,0.800,-0.000,-0.064
23:11:06.009,SEARCHING,28.638,-20.061,1.564,0.00,0.00,-57.03,1.241,2.384,2.340,2.391,2.405,0,0,SEARCHING,0.000,0.800,-0.000,-0.059
23:11:06.209,SEARCHING,28.724,-20.196,1.564,0.00,0.00,-57.71,1.185,2.262,2.195,2.272,2.273,0,0,SEARCHING,0.000,0.800,-0.000,-0.065
23:11:06.410,SEARCHING,28.809,-20.331,1.564,0.00,0.00,-58.50,1.162,2.102,2.055,2.106,2.115,0,0,SEARCHING,0.000,0.774,-0.000,-0.075
23:11:06.610,SEARCHING,28.886,-20.460,1.564,0.00,0.00,-59.38,1.174,1.969,1.922,1.968,1.972,0,0,SEARCHING,0.000,0.705,-0.000,-0.077
23:11:06.810,SEARCHING,28.955,-20.577,1.564,0.00,0.00,-60.24,1.213,1.825,1.793,1.825,1.829,0,0,SEARCHING,0.000,0.629,-0.000,-0.070
23:11:07.010,SEARCHING,29.014,-20.682,1.564,0.00,0.00,-61.01,1.214,1.705,1.683,1.712,1.708,0,0,SEARCHING,0.000,0.561,-0.000,-0.063
23:11:07.211,SEARCHING,29.066,-20.777,1.564,0.00,0.00,-61.69,1.237,1.594,1.581,1.599,1.597,0,0,SEARCHING,0.000,0.501,-0.000,-0.054
23:11:07.412,SEARCHING,29.111,-20.862,1.564,0.00,0.00,-62.26,1.262,1.495,1.491,1.502,1.499,0,0,SEARCHING,0.000,0.452,-0.000,-0.042
23:11:07.613,SEARCHING,29.151,-20.939,1.564,0.00,0.00,-62.70,1.293,1.412,1.409,1.416,1.411,0,0,SEARCHING,0.000,0.410,-0.000,-0.029
23:11:07.813,SEARCHING,29.188,-21.010,1.564,0.00,0.00,-62.96,1.289,1.329,1.329,1.330,1.329,0,0,SEARCHING,0.000,0.374,-0.000,-0.015
23:11:08.014,SEARCHING,29.221,-21.074,1.564,0.00,0.00,-63.09,1.258,1.270,1.269,1.271,1.270,0,0,SEARCHING,0.000,0.341,-0.000,-0.006
23:11:08.214,SEARCHING,29.250,-21.133,1.564,0.00,0.00,-63.14,1.188,1.189,1.188,1.188,1.190,0,0,SEARCHING,0.000,0.305,-0.000,-0.002
23:11:08.414,SEARCHING,29.277,-21.185,1.564,0.00,0.00,-63.15,1.125,1.125,1.125,1.125,1.127,0,0,SEARCHING,0.000,0.274,-0.000,-0.000
23:11:08.615,SEARCHING,29.301,-21.233,1.564,0.00,0.00,-63.15,1.071,1.073,1.073,1.072,1.072,0,0,SEARCHING,0.000,0.256,-0.000,-0.000
23:11:08.815,SEARCHING,29.324,-21.278,1.564,0.00,0.00,-63.16,1.021,1.022,1.021,1.020,1.021,0,0,SEARCHING,0.000,0.251,-0.000,-0.000
23:11:09.016,SEARCHING,29.346,-21.323,1.564,0.00,0.00,-63.16,0.969,0.971,0.970,0.970,0.971,0,0,SEARCHING,0.000,0.250,-0.000,-0.000
23:11:09.216,SEARCHING,29.369,-21.367,1.564,0.00,0.00,-63.16,0.921,0.921,0.922,0.921,0.921,0,0,SEARCHING,0.000,0.250,-0.000,-0.000
23:11:09.416,SEARCHING,29.391,-21.412,1.564,0.00,0.00,-63.17,0.872,0.873,0.872,0.872,0.872,0,0,SEARCHING,0.000,0.250,-0.000,-0.000
23:11:09.618,SEARCHING,29.414,-21.457,1.564,0.00,0.00,-63.17,0.831,0.832,0.832,0.831,0.831,0,0,SEARCHING,0.000,0.250,-0.000,-0.000
23:11:09.819,INSPECTING,29.436,-21.500,1.564,0.00,0.00,-63.35,0.780,0.781,0.782,0.781,0.781,0,0,INSPECT_RIGHT,0.000,0.166,-0.000,-0.255
23:11:10.020,INSPECTING,29.450,-21.529,1.564,0.00,0.00,-67.31,0.721,0.731,0.741,0.731,0.731,0,0,INSPECT_RIGHT,0.000,0.154,-0.000,-0.441
23:11:10.219,INSPECTING,29.460,-21.558,1.564,0.00,0.00,-72.62,0.667,0.693,0.722,0.693,0.693,0,0,INSPECT_RIGHT,0.000,0.148,-0.000,-0.486
23:11:10.420,INSPECTING,29.468,-21.586,1.564,0.00,0.00,-78.25,0.620,0.664,0.714,0.663,0.663,0,0,INSPECT_RIGHT,0.000,0.144,-0.000,-0.497
23:11:10.622,INSPECTING,29.472,-21.614,1.564,0.00,0.00,-83.95,0.582,0.642,0.716,0.642,0.643,0,0,INSPECT_RIGHT,0.000,0.143,-0.000,-0.499
23:11:10.821,INSPECTING,29.474,-21.643,1.564,0.00,0.00,-89.68,0.552,0.628,0.729,0.629,0.628,0,0,INSPECT_RIGHT,0.000,0.144,-0.000,-0.500
23:11:11.022,INSPECTING,29.473,-21.672,1.564,0.00,0.00,-95.40,0.530,0.623,0.754,0.623,0.624,0,0,INSPECT_RIGHT,0.000,0.148,-0.000,-0.500
23:11:11.223,INSPECTING,29.469,-21.702,1.564,0.00,0.00,-101.13,0.518,0.626,0.787,0.625,0.626,0,0,INSPECT_RIGHT,0.000,0.153,-0.000,-0.500
23:11:11.422,INSPECTING,29.461,-21.732,1.564,0.00,0.00,-106.86,0.507,0.636,0.853,0.637,0.637,0,0,INSPECT_RIGHT,0.000,0.163,-0.000,-0.500
23:11:11.623,INSPECTING,29.450,-21.764,1.564,0.00,0.00,-112.59,0.505,0.659,0.945,0.659,0.657,0,0,INSPECT_RIGHT,0.000,0.177,-0.000,-0.500
23:11:11.823,INSPECTING,29.434,-21.797,1.564,0.00,0.00,-118.32,0.510,0.692,1.086,0.694,0.694,0,0,INSPECT_RIGHT,0.000,0.199,-0.000,-0.500
23:11:12.025,INSPECTING,29.413,-21.833,1.564,0.00,0.00,-124.05,0.520,0.734,1.220,0.733,0.734,0,0,INSPECT_RIGHT,0.000,0.227,-0.000,-0.500
23:11:12.224,INSPECTING,29.385,-21.870,1.564,0.00,0.00,-129.78,0.544,0.817,1.232,0.817,0.820,0,0,INSPECT_RIGHT,0.000,0.242,-0.000,-0.500
23:11:12.425,INSPECTING,29.352,-21.906,1.564,0.00,0.00,-135.51,0.570,0.916,1.217,0.915,0.917,0,0,INSPECT_RIGHT,0.000,0.244,-0.000,-0.500
23:11:12.626,INSPECTING,29.316,-21.939,1.564,0.00,0.00,-141.24,0.635,1.120,1.211,1.124,1.124,0,0,INSPECT_RIGHT,0.000,0.243,-0.000,-0.500
23:11:12.825,INSPECTING,29.277,-21.967,1.564,0.00,0.00,-146.97,0.715,1.183,1.203,1.183,1.182,0,0,INSPECT_RIGHT,0.000,0.242,-0.000,-0.500
23:11:13.027,INSPECTING,29.235,-21.992,1.564,0.00,0.00,-152.70,0.843,1.140,1.187,1.138,1.139,0,0,INSPECT_RIGHT,0.000,0.239,-0.000,-0.500
23:11:13.227,INSPECTING,29.192,-22.012,1.564,0.00,0.00,-158.43,0.978,1.095,1.180,1.094,1.096,0,0,INSPECT_RIGHT,0.000,0.237,-0.000,-0.500
23:11:13.428,INSPECTING,29.147,-22.027,1.564,0.00,0.00,-164.16,0.955,1.061,1.186,1.062,1.062,0,0,INSPECT_RIGHT,0.000,0.237,-0.000,-0.500
23:11:13.628,INSPECTING,29.101,-22.038,1.564,0.00,0.00,-169.89,0.912,1.037,1.204,1.037,1.038,0,0,INSPECT_RIGHT,0.000,0.239,-0.000,-0.500
23:11:13.830,INSPECTING,29.053,-22.044,1.564,0.00,0.00,-175.62,0.882,1.031,1.239,1.031,1.029,0,0,INSPECT_RIGHT,0.000,0.244,-0.000,-0.500
23:11:14.031,INSPECTING,29.004,-22.046,1.564,-0.00,0.00,178.65,0.854,1.030,1.298,1.032,1.030,0,0,INSPECT_RIGHT,0.000,0.253,-0.000,-0.500
23:11:14.231,INSPECTING,28.953,-22.042,1.564,-0.00,0.00,172.92,0.836,1.051,1.363,1.050,1.052,0,0,INSPECT_RIGHT,0.000,0.265,-0.000,-0.500
23:11:14.432,INSPECTING,28.900,-22.033,1.564,-0.00,0.00,167.19,0.832,1.082,1.500,1.085,1.081,0,0,INSPECT_RIGHT,0.000,0.283,-0.000,-0.500
23:11:14.633,INSPECTING,28.843,-22.018,1.564,-0.00,0.00,161.46,0.837,1.137,1.742,1.138,1.137,0,0,INSPECT_RIGHT,0.000,0.318,-0.000,-0.500
23:11:14.835,INSPECTING,28.780,-21.993,1.564,-0.00,0.00,155.73,0.852,1.167,2.063,1.167,1.167,0,0,INSPECT_RIGHT,0.000,0.369,-0.000,-0.500
23:11:15.036,INSPECTING,28.713,-21.959,1.564,-0.00,0.00,150.01,0.886,1.283,2.946,1.289,1.286,0,0,INSPECT_RIGHT,0.000,0.392,-0.000,-0.500
23:11:15.237,SEARCHING,28.646,-21.916,1.564,-0.00,0.00,144.28,0.912,1.472,3.729,1.489,1.463,0,0,INSPECT_RIGHT,0.000,0.398,-0.000,-0.500
23:11:15.437,SEARCHING,28.583,-21.868,1.564,-0.00,0.00,140.59,0.951,1.759,3.977,1.744,1.748,0,0,SEARCHING,0.000,0.435,-0.000,-0.161
23:11:15.637,SEARCHING,28.511,-21.807,1.564,-0.00,0.00,139.29,0.974,1.851,4.030,1.847,1.850,0,0,SEARCHING,0.000,0.523,-0.000,-0.059
23:11:15.838,SEARCHING,28.429,-21.736,1.564,-0.00,0.00,138.77,0.976,1.895,3.983,1.890,1.883,0,0,SEARCHING,0.000,0.567,-0.000,-0.034
23:11:16.039,SEARCHING,28.343,-21.660,1.564,-0.00,0.00,138.39,0.961,1.917,3.860,1.895,1.882,0,0,SEARCHING,0.000,0.587,-0.000,-0.036
23:11:16.239,SEARCHING,28.255,-21.581,1.564,-0.00,0.00,137.93,0.937,1.880,3.722,1.897,1.910,0,0,SEARCHING,0.000,0.588,-0.000,-0.051
23:11:16.440,SEARCHING,28.169,-21.503,1.564,-0.00,0.00,137.27,0.926,1.877,3.640,1.903,1.886,0,0,SEARCHING,0.000,0.573,-0.000,-0.068
23:11:16.641,SEARCHING,28.085,-21.425,1.564,-0.00,0.00,136.43,0.920,1.912,3.456,1.907,1.905,0,0,SEARCHING,0.000,0.582,-0.000,-0.084
23:11:16.841,SEARCHING,28.001,-21.343,1.564,-0.00,0.00,135.41,0.927,1.980,3.381,1.946,1.986,0,0,SEARCHING,0.000,0.605,-0.000,-0.094
23:11:17.042,SEARCHING,27.914,-21.256,1.564,-0.00,0.00,134.32,0.929,2.062,3.362,2.069,2.070,0,0,SEARCHING,0.000,0.636,-0.000,-0.097
23:11:17.242,SEARCHING,27.823,-21.161,1.564,-0.00,0.00,133.20,0.943,2.244,3.276,2.250,2.241,0,0,SEARCHING,0.000,0.710,-0.000,-0.098
23:11:17.445,SEARCHING,27.722,-21.052,1.564,-0.00,0.00,132.08,0.970,2.350,3.089,2.330,2.335,0,0,SEARCHING,0.000,0.777,-0.000,-0.099
23:11:17.646,SEARCHING,27.618,-20.935,1.564,-0.00,0.00,130.94,0.985,2.274,2.992,2.266,2.277,0,0,SEARCHING,0.000,0.795,-0.000,-0.099
23:11:17.847,SEARCHING,27.516,-20.814,1.564,-0.00,0.00,129.80,1.027,2.149,2.836,2.141,2.151,0,0,SEARCHING,0.000,0.772,-0.000,-0.098
23:11:18.047,SEARCHING,27.420,-20.697,1.564,-0.00,0.00,128.71,1.064,2.075,2.693,2.065,2.124,0,0,SEARCHING,0.000,0.731,-0.000,-0.092
23:11:18.247,SEARCHING,27.330,-20.584,1.564,-0.00,0.00,127.67,1.109,2.258,2.600,2.307,2.219,0,0,SEARCHING,0.000,0.742,-0.000,-0.086
23:11:18.448,SEARCHING,27.238,-20.462,1.564,-0.00,0.00,126.73,1.191,2.411,2.323,2.414,2.414,0,0,SEARCHING,0.000,0.786,-0.000,-0.076
23:11:18.648,SEARCHING,27.144,-20.334,1.564,-0.00,0.00,125.90,1.273,2.304,2.127,2.319,2.300,0,0,SEARCHING,0.000,0.797,-0.000,-0.064
23:11:18.848,SEARCHING,27.051,-20.205,1.564,-0.00,0.00,125.22,1.276,2.153,2.127,2.157,2.101,0,0,SEARCHING,0.000,0.794,-0.000,-0.056
23:11:19.049,SEARCHING,26.962,-20.077,1.564,-0.00,0.00,124.56,1.179,2.031,2.025,2.034,1.982,0,0,SEARCHING,0.000,0.739,-0.000,-0.065
23:11:19.251,SEARCHING,26.882,-19.960,1.564,-0.00,0.00,123.73,1.061,1.877,1.888,1.877,1.839,0,0,SEARCHING,0.000,0.652,-0.000,-0.089
23:11:19.450,SEARCHING,26.814,-19.856,1.564,-0.00,0.00,122.64,1.089,1.746,1.771,1.749,1.736,0,0,SEARCHING,0.000,0.566,-0.000,-0.098
23:11:19.651,SEARCHING,26.757,-19.764,1.564,-0.00,0.00,121.59,1.265,1.611,1.653,1.615,1.602,0,0,SEARCHING,0.000,0.507,-0.000,-0.071
23:11:19.852,SEARCHING,26.706,-19.680,1.564,-0.00,0.00,120.90,1.385,1.513,1.560,1.513,1.502,0,0,SEARCHING,0.000,0.468,-0.000,-0.042
23:11:20.052,SEARCHING,26.659,-19.602,1.564,-0.00,0.00,120.54,1.522,1.433,1.485,1.433,1.422,0,0,SEARCHING,0.000,0.436,-0.000,-0.013
23:11:20.253,SEARCHING,26.616,-19.529,1.564,-0.00,0.00,120.49,1.585,1.329,1.377,1.332,1.327,0,0,SEARCHING,0.000,0.392,-0.000,0.009
23:11:20.454,SEARCHING,26.578,-19.464,1.564,-0.00,0.00,120.67,1.632,1.263,1.301,1.268,1.265,0,0,SEARCHING,0.000,0.351,-0.000,0.026
23:11:20.654,SEARCHING,26.543,-19.407,1.564,-0.00,0.00,121.04,1.658,1.192,1.220,1.197,1.193,0,0,SEARCHING,0.000,0.312,-0.000,0.044
23:11:20.856,SEARCHING,26.512,-19.355,1.564,-0.00,0.00,121.62,1.682,1.112,1.126,1.115,1.112,0,0,SEARCHING,0.000,0.276,-0.000,0.064
23:11:21.055,SEARCHING,26.484,-19.310,1.564,-0.00,0.00,122.44,1.671,1.055,1.061,1.059,1.054,0,0,SEARCHING,0.000,0.256,-0.000,0.084
23:11:21.262,SEARCHING,26.457,-19.268,1.564,-0.00,0.00,123.49,1.575,1.008,1.009,1.010,1.008,0,0,SEARCHING,0.000,0.251,-0.000,0.102
23:11:21.461,SEARCHING,26.429,-19.226,1.564,-0.00,0.00,124.71,1.498,0.961,0.949,0.976,0.962,0,0,SEARCHING,0.000,0.250,-0.000,0.116
23:11:21.663,SEARCHING,26.400,-19.185,1.564,-0.00,0.00,126.10,1.432,0.983,0.903,0.984,0.991,0,0,SEARCHING,0.000,0.250,-0.000,0.132
23:11:21.863,SEARCHING,26.370,-19.145,1.564,-0.00,0.00,127.68,1.318,0.965,0.845,0.973,0.979,0,0,SEARCHING,0.000,0.250,-0.000,0.147
23:11:22.064,SEARCHING,26.339,-19.106,1.564,-0.00,0.00,129.42,1.214,1.015,0.774,0.990,1.011,0,0,SEARCHING,0.000,0.250,-0.000,0.165
23:11:22.264,SEARCHING,26.306,-19.068,1.564,-0.00,0.00,131.42,1.167,0.986,0.727,1.014,1.018,0,0,SEARCHING,0.000,0.250,-0.000,0.190
23:11:24.480,SEARCHING,26.261,-19.018,1.553,-0.00,0.00,133.48,1.092,2.603,0.680,1.615,2.064,0,0,SEARCHING,0.000,0.611,-0.178,0.215
23:11:24.496,SEARCHING,26.203,-18.959,1.516,-0.00,0.00,135.00,1.092,2.603,0.680,1.615,2.064,0,0,SEARCHING,0.000,0.755,-0.165,0.225
23:11:24.600,SEARCHING,26.125,-18.883,1.485,-0.00,0.00,136.82,0.987,2.492,0.636,2.176,2.257,0,0,SEARCHING,0.000,0.789,-0.114,0.230
23:11:24.788,SEARCHING,26.033,-18.799,1.469,-0.00,0.00,138.94,0.865,1.971,0.602,1.922,2.002,0,0,SEARCHING,0.000,0.709,-0.027,0.228
23:11:24.987,SEARCHING,25.956,-18.734,1.465,-0.00,0.00,139.98,0.795,1.689,3.832,1.666,1.725,0,0,SEARCHING,0.000,0.549,-0.007,-0.039
23:11:25.188,SEARCHING,25.878,-18.668,1.465,-0.00,0.00,139.35,0.779,1.644,5.244,1.641,1.673,0,0,SEARCHING,0.000,0.464,-0.002,-0.042
23:11:25.388,SEARCHING,25.810,-18.608,1.465,-0.00,0.00,139.10,0.771,1.656,5.705,1.634,1.666,0,0,SEARCHING,0.000,0.443,-0.000,0.010
23:11:25.589,SEARCHING,25.743,-18.551,1.465,-0.00,0.00,139.29,0.762,1.640,5.523,1.569,1.655,0,0,SEARCHING,0.000,0.436,-0.000,0.016
23:11:25.790,SEARCHING,25.677,-18.495,1.465,-0.00,0.00,139.39,0.738,1.619,5.328,1.506,1.630,0,0,SEARCHING,0.000,0.423,-0.016,-0.009
23:11:25.990,SEARCHING,25.627,-18.451,1.459,-0.00,0.00,139.17,0.727,1.642,5.295,1.500,1.641,0,0,SEARCHING,0.000,0.420,-0.050,-0.035
23:11:26.191,SEARCHING,25.575,-18.406,1.450,-0.00,0.00,138.78,0.716,1.683,5.255,1.658,1.641,0,0,SEARCHING,0.000,0.433,-0.018,-0.051
23:11:26.393,SEARCHING,25.516,-18.354,1.449,-0.00,0.00,138.24,0.717,1.705,5.431,1.694,1.676,0,0,SEARCHING,0.000,0.448,-0.004,-0.047
23:11:26.592,SEARCHING,25.449,-18.294,1.449,-0.00,0.00,137.74,0.712,1.676,5.522,1.677,1.686,0,0,SEARCHING,0.000,0.447,-0.001,-0.039
23:11:26.793,SEARCHING,25.384,-18.234,1.449,-0.00,0.00,137.35,0.713,1.644,5.793,1.665,1.675,0,0,SEARCHING,0.000,0.434,-0.000,-0.022
23:11:26.993,SEARCHING,25.321,-18.176,1.449,-0.00,0.00,137.17,0.705,1.625,5.747,1.648,1.647,0,0,SEARCHING,0.000,0.421,-0.000,-0.013
23:11:27.194,SEARCHING,25.259,-18.119,1.449,-0.00,0.00,136.97,0.697,1.636,5.706,1.616,1.609,0,0,SEARCHING,0.000,0.419,-0.000,-0.023
23:11:27.395,SEARCHING,25.198,-18.061,1.449,-0.00,0.00,136.69,0.694,1.630,5.648,1.587,1.562,0,0,SEARCHING,0.000,0.418,-0.000,-0.030
23:11:27.596,SEARCHING,25.138,-18.004,1.449,-0.00,0.00,136.31,0.694,1.603,5.501,1.563,1.550,0,0,SEARCHING,0.000,0.412,-0.000,-0.041
23:11:27.797,SEARCHING,25.079,-17.947,1.449,-0.00,0.00,135.77,0.696,1.571,5.454,1.587,1.613,0,0,SEARCHING,0.000,0.400,-0.000,-0.053
23:11:27.997,SEARCHING,25.022,-17.892,1.449,-0.00,0.00,135.15,0.712,1.560,5.346,1.624,1.614,0,0,SEARCHING,0.000,0.390,-0.000,-0.056
23:11:28.200,SEARCHING,24.968,-17.837,1.449,-0.00,0.00,134.50,0.695,1.613,5.234,1.626,1.623,0,0,SEARCHING,0.000,0.394,-0.000,-0.065
23:11:28.400,SEARCHING,24.911,-17.779,1.449,-0.00,0.00,133.86,0.771,1.663,5.107,1.624,1.630,0,0,SEARCHING,0.000,0.423,-0.000,-0.042
23:11:28.601,SEARCHING,24.852,-17.716,1.449,-0.00,0.00,133.43,0.774,1.672,5.089,1.649,1.658,0,0,SEARCHING,0.000,0.441,-0.000,-0.033
23:11:28.802,SEARCHING,24.791,-17.652,1.449,-0.00,0.00,133.03,0.766,1.639,4.984,1.622,1.665,0,0,SEARCHING,0.000,0.436,-0.000,-0.040
23:11:29.003,SEARCHING,24.733,-17.589,1.449,-0.00,0.00,132.54,0.765,1.608,4.906,1.657,1.664,0,0,SEARCHING,0.000,0.421,-0.000,-0.049
23:11:29.203,SEARCHING,24.676,-17.526,1.449,-0.00,0.00,131.94,0.763,1.653,4.821,1.675,1.675,0,0,SEARCHING,0.000,0.427,-0.000,-0.058
23:11:29.404,SEARCHING,24.622,-17.466,1.449,-0.00,0.00,131.25,0.768,1.649,4.746,1.698,1.758,0,0,SEARCHING,0.000,0.393,-0.000,-0.065
23:11:29.604,SEARCHING,24.567,-17.402,1.449,-0.00,0.00,130.48,0.770,1.824,4.646,1.804,1.822,0,0,SEARCHING,0.000,0.469,-0.000,-0.072
23:11:29.806,SEARCHING,24.504,-17.327,1.449,-0.00,0.00,129.62,0.771,1.860,4.497,1.835,1.849,0,0,SEARCHING,0.000,0.518,-0.000,-0.082
23:11:30.006,SEARCHING,24.437,-17.246,1.449,-0.00,0.00,128.65,0.794,1.798,4.354,1.801,1.820,0,0,SEARCHING,0.000,0.525,-0.000,-0.087
23:11:30.206,SEARCHING,24.373,-17.165,1.449,-0.00,0.00,127.65,0.814,1.711,4.273,1.721,1.727,0,0,SEARCHING,0.000,0.496,-0.000,-0.086
23:11:30.403,SEARCHING,24.315,-17.088,1.449,-0.00,0.00,126.68,0.840,1.628,4.143,1.636,1.646,0,0,SEARCHING,0.000,0.457,-0.000,-0.081
23:11:30.603,SEARCHING,24.263,-17.016,1.449,-0.00,0.00,125.77,0.870,1.538,3.965,1.546,1.553,0,0,SEARCHING,0.000,0.419,-0.000,-0.078
23:11:30.802,SEARCHING,24.216,-16.950,1.449,-0.00,0.00,124.89,0.908,1.441,3.839,1.464,1.474,0,0,SEARCHING,0.000,0.382,-0.000,-0.074
23:11:31.003,SEARCHING,24.174,-16.889,1.449,-0.00,0.00,124.07,0.956,1.404,3.734,1.417,1.398,0,0,SEARCHING,0.000,0.357,-0.000,-0.065
23:11:31.204,SEARCHING,24.129,-16.823,1.457,-0.00,0.00,123.45,0.982,2.398,3.666,2.375,1.955,0,0,SEARCHING,0.000,0.626,0.131,-0.056
23:11:31.405,SEARCHING,24.067,-16.728,1.479,-0.00,0.00,122.96,0.999,2.448,3.593,2.464,2.384,0,0,SEARCHING,0.000,0.758,0.044,-0.052
23:11:31.606,SEARCHING,24.000,-16.623,1.485,-0.00,0.00,122.50,1.013,2.373,3.520,2.381,2.364,0,0,SEARCHING,0.000,0.790,0.011,-0.050
23:11:31.807,SEARCHING,23.924,-16.502,1.486,-0.00,0.00,121.95,0.957,2.294,3.500,2.299,2.305,0,0,SEARCHING,0.000,0.798,0.003,-0.061
23:11:32.007,SEARCHING,23.841,-16.368,1.486,-0.00,0.00,121.12,0.800,2.122,3.415,2.112,2.147,0,0,SEARCHING,0.000,0.753,0.001,-0.110
23:11:32.208,SEARCHING,23.767,-16.243,1.486,-0.00,0.00,119.54,0.679,3.603,3.298,2.947,2.573,0,0,SEARCHING,0.000,0.726,0.027,-0.197
23:11:32.408,SEARCHING,23.709,-16.136,1.493,-0.00,0.00,117.40,0.730,4.784,3.101,4.244,3.760,0,0,SEARCHING,0.000,0.782,0.044,-0.246
23:11:32.607,SEARCHING,23.652,-16.023,1.506,-0.00,0.00,115.23,1.013,4.637,2.915,4.562,3.987,0,0,SEARCHING,0.000,0.796,0.101,-0.192
23:11:32.807,SEARCHING,23.599,-15.907,1.525,-0.00,0.00,114.05,1.382,4.369,2.777,4.369,4.060,0,0,SEARCHING,0.000,0.799,0.082,-0.070
23:11:33.007,SEARCHING,23.548,-15.790,1.539,-0.00,0.00,113.66,1.361,4.172,2.690,4.098,4.061,0,0,SEARCHING,0.000,0.800,0.026,-0.030
23:11:33.208,SEARCHING,23.496,-15.672,1.542,-0.00,0.00,113.40,1.267,4.042,2.586,4.019,3.999,0,0,SEARCHING,0.000,0.800,0.006,-0.032
23:11:33.408,SEARCHING,23.433,-15.525,1.542,-0.00,0.00,113.07,1.920,3.894,2.503,3.914,3.877,0,0,SEARCHING,0.000,0.800,0.001,-0.012
23:11:33.609,SEARCHING,23.371,-15.378,1.542,-0.00,0.00,113.03,2.130,3.709,2.463,3.739,3.719,0,0,SEARCHING,0.000,0.800,0.000,0.004
23:11:33.810,SEARCHING,23.308,-15.231,1.542,-0.00,0.00,113.09,2.039,3.615,2.402,3.610,3.638,0,0,SEARCHING,0.000,0.800,0.000,0.007
23:11:34.010,SEARCHING,23.245,-15.084,1.542,-0.00,0.00,113.16,1.907,3.547,2.337,3.521,3.555,0,0,SEARCHING,0.000,0.800,0.000,0.005
23:11:34.210,SEARCHING,23.182,-14.937,1.542,-0.00,0.00,113.02,4.345,3.443,2.302,3.450,3.414,0,0,SEARCHING,0.000,0.800,0.000,-0.068
23:11:34.411,SEARCHING,23.121,-14.789,1.542,-0.00,0.00,111.78,4.579,3.278,2.202,3.252,3.249,0,0,SEARCHING,0.000,0.800,0.000,-0.150
