timestamp,state,x,z,roll_deg,pitch_deg,yaw_deg,left,center,right,top,bottom,cmd_vx,cmd_vz,cmd_roll,cmd_yaw
2026-05-11 20:29:55.033564,SEARCHING,0.000,0.000,0.00,0.00,0.00,10.000,10.000,10.000,10.000,10.000,0.700,0.000,0.000,0.000
2026-05-11 20:29:56.201412,SEARCHING,0.000,1.000,0.00,0.00,0.00,10.000,10.000,10.000,10.000,10.000,0.700,0.000,0.000,0.000
2026-05-11 20:29:56.402493,SEARCHING,0.119,1.000,0.00,0.00,0.00,10.000,10.000,10.000,10.000,10.000,0.700,0.000,0.000,0.000
2026-05-11 20:29:56.629827,SEARCHING,0.259,1.000,0.00,0.00,0.00,10.000,10.000,10.000,10.000,10.000,0.700,0.000,0.000,0.000
2026-05-11 20:29:56.846932,SEARCHING,0.399,1.000,0.00,0.00,-0.95,2.434,4.767,7.151,4.670,4.237,0.700,0.013,-0.122,-0.244
2026-05-11 20:29:57.033884,SEARCHING,0.539,1.000,0.00,0.00,-3.59,2.542,4.974,5.581,4.868,4.868,0.700,0.000,-0.096,-0.193
2026-05-11 20:29:57.239352,SEARCHING,0.678,1.000,0.00,0.00,-5.60,2.724,5.085,4.086,4.868,0.829,0.700,0.600,-0.055,-0.110
2026-05-11 20:29:57.466795,SEARCHING,0.818,1.000,0.00,0.00,-6.86,2.790,5.200,3.814,4.868,4.974,0.700,-0.003,-0.043,-0.087
2026-05-11 20:29:57.667476,SEARCHING,0.956,1.000,0.00,0.00,-7.87,2.860,5.200,3.691,4.868,5.085,0.700,-0.005,-0.035,-0.071
2026-05-11 20:29:57.882255,SEARCHING,1.095,1.000,0.00,0.00,-8.72,2.934,5.321,3.575,4.868,4.974,0.700,-0.003,-0.028,-0.055
2026-05-11 20:29:58.101970,SEARCHING,1.233,1.000,0.00,0.00,-9.36,2.972,5.321,3.575,4.868,5.085,0.700,-0.005,-0.026,-0.051
2026-05-11 20:29:58.325395,SEARCHING,1.371,1.000,0.00,0.00,-9.95,2.972,5.321,3.575,4.868,5.085,0.700,-0.005,-0.026,-0.051
2026-05-11 20:29:58.557730,SEARCHING,1.509,1.000,0.00,0.00,-10.47,3.092,5.581,3.415,4.868,5.200,0.700,-0.008,-0.014,-0.028
2026-05-11 20:29:58.771626,SEARCHING,1.647,1.000,0.00,0.00,-10.77,3.134,5.581,3.365,4.868,5.085,0.700,-0.005,-0.010,-0.020
2026-05-11 20:29:58.969555,SEARCHING,1.784,1.000,0.00,0.00,-11.00,3.134,5.720,3.316,4.868,5.085,0.700,-0.005,-0.008,-0.016
2026-05-11 20:29:59.171413,SEARCHING,1.922,1.000,0.00,0.00,-11.19,3.223,5.581,3.575,4.868,5.321,0.700,-0.010,-0.014,-0.028
2026-05-11 20:29:59.380635,SEARCHING,2.059,1.000,0.00,0.00,-11.58,3.178,5.720,3.751,4.868,4.400,0.700,0.013,-0.022,-0.043
2026-05-11 20:30:00.293009,SEARCHING,2.196,1.000,0.00,0.00,-12.10,3.178,5.867,3.751,4.868,5.200,0.700,-0.008,-0.022,-0.043
2026-05-11 20:30:01.322418,SEARCHING,2.367,1.000,0.00,0.00,-12.80,3.092,6.184,3.814,4.868,5.085,0.700,-0.005,-0.028,-0.055
2026-05-11 20:30:01.353322,SEARCHING,2.469,1.000,0.00,0.00,-13.27,3.134,6.538,3.751,4.868,5.321,0.700,-0.010,-0.024,-0.047
2026-05-11 20:30:01.520564,SEARCHING,2.605,1.000,0.00,0.00,-13.83,2.972,6.538,3.751,4.868,5.448,0.700,-0.013,-0.031,-0.063
2026-05-11 20:30:01.719727,SEARCHING,2.741,1.000,0.00,0.00,-14.51,2.972,6.730,3.751,4.868,5.581,0.700,-0.016,-0.031,-0.063
2026-05-11 20:30:01.925182,SEARCHING,2.876,1.000,0.00,0.00,-15.18,2.972,5.867,3.632,4.868,7.151,0.700,-0.039,-0.028,-0.055
2026-05-11 20:30:02.138480,SEARCHING,3.011,1.000,0.00,0.00,-15.79,2.972,5.720,3.575,4.868,6.538,0.700,-0.031,-0.026,-0.051
2026-05-11 20:30:02.341428,SEARCHING,3.146,1.000,0.00,0.00,-16.34,3.051,5.720,3.415,4.868,6.356,0.700,-0.029,-0.016,-0.031
2026-05-11 20:30:02.548759,SEARCHING,3.280,1.000,0.00,0.00,-16.74,3.051,8.172,3.415,4.974,6.356,0.700,-0.026,-0.016,-0.031
2026-05-11 20:30:02.745688,SEARCHING,3.414,1.000,0.00,0.00,-17.10,3.051,8.475,3.467,4.868,6.022,0.700,-0.024,-0.018,-0.035
2026-05-11 20:30:02.975781,SEARCHING,3.548,1.000,0.00,0.00,-17.49,3.011,7.151,3.365,4.868,3.575,0.700,0.045,-0.016,-0.031
2026-05-11 20:30:03.169060,SEARCHING,3.681,1.000,0.00,0.00,-17.87,3.092,6.022,3.316,4.868,5.867,0.700,-0.021,-0.010,-0.020
2026-05-11 20:30:03.374674,SEARCHING,3.814,1.000,0.00,0.00,-18.11,3.134,7.890,3.316,4.868,6.184,0.700,-0.026,-0.008,-0.016
2026-05-11 20:30:03.582076,SEARCHING,3.947,1.000,0.00,0.00,-18.30,3.269,5.867,3.316,4.868,6.022,0.700,-0.024,-0.002,-0.004
2026-05-11 20:30:03.785786,SEARCHING,4.080,1.000,0.00,0.00,-18.36,3.223,6.022,3.316,4.767,5.867,0.700,-0.024,-0.004,-0.008
2026-05-11 20:30:03.999833,SEARCHING,4.213,1.000,0.00,0.00,-18.43,3.223,7.381,3.223,4.767,5.321,0.700,-0.013,0.000,0.000
2026-05-11 20:30:04.209251,SEARCHING,4.346,1.000,0.00,0.00,-18.46,3.223,5.867,3.269,4.868,5.867,0.700,-0.021,-0.002,-0.004
2026-05-11 20:30:04.419521,SEARCHING,4.479,1.000,0.00,0.00,-18.51,3.223,7.151,3.223,4.868,6.022,0.700,-0.024,0.000,0.000
2026-05-11 20:30:04.615293,SEARCHING,4.611,1.000,0.00,0.00,-18.54,3.223,5.867,3.269,4.868,6.022,0.700,-0.024,-0.002,-0.004
2026-05-11 20:30:04.815709,SEARCHING,4.744,1.000,0.00,0.00,-18.60,3.223,6.184,3.223,4.974,6.184,0.700,-0.024,0.000,0.000
2026-05-11 20:30:05.026727,SEARCHING,4.877,1.000,0.00,0.00,-18.61,3.269,5.867,3.178,4.767,5.720,0.700,-0.021,0.004,0.008
2026-05-11 20:30:05.229337,SEARCHING,5.009,1.000,0.00,0.00,-18.52,3.415,5.720,3.134,4.767,5.200,0.700,-0.010,0.012,0.024
2026-05-11 20:30:05.438683,SEARCHING,5.142,1.000,0.00,0.00,-18.28,3.467,6.184,3.051,4.868,5.720,0.700,-0.018,0.018,0.035
2026-05-11 20:30:05.654005,SEARCHING,5.275,1.000,0.00,0.00,-17.92,3.467,5.720,3.092,4.767,6.184,0.700,-0.029,0.016,0.031
2026-05-11 20:30:05.858861,SEARCHING,5.409,1.000,0.00,0.00,-17.54,3.467,5.720,3.092,4.868,6.184,0.700,-0.026,0.016,0.031
2026-05-11 20:30:06.064307,SEARCHING,5.542,1.000,0.00,0.00,-17.17,3.415,5.720,3.092,4.868,6.022,0.700,-0.024,0.014,0.028
2026-05-11 20:30:06.289677,SEARCHING,5.676,1.000,0.00,0.00,-16.83,3.415,5.867,3.134,4.767,7.151,0.700,-0.042,0.012,0.024
2026-05-11 20:30:06.477723,SEARCHING,5.810,1.000,0.00,0.00,-16.55,3.691,5.867,3.134,4.868,7.381,0.700,-0.042,0.022,0.043
2026-05-11 20:30:06.684654,SEARCHING,5.945,1.000,0.00,0.00,-16.10,3.365,5.581,3.092,4.868,7.151,0.700,-0.039,0.012,0.024
2026-05-11 20:30:06.886104,SEARCHING,6.079,1.000,0.00,0.00,-15.88,3.415,5.321,3.178,4.974,6.356,0.700,-0.026,0.010,0.020
2026-05-11 20:30:07.098604,SEARCHING,6.214,1.000,0.00,0.00,-15.68,3.365,5.321,3.134,4.974,5.321,0.700,-0.008,0.010,0.020
2026-05-11 20:30:07.304470,SEARCHING,6.349,1.000,0.00,0.00,-15.50,3.178,5.200,3.178,4.868,5.200,0.700,-0.008,0.000,0.000
2026-05-11 20:30:07.521983,SEARCHING,6.484,1.000,0.00,0.00,-15.57,3.134,5.085,3.365,4.767,4.767,0.700,0.000,-0.010,-0.020
2026-05-11 20:30:07.714411,SEARCHING,6.618,1.000,0.00,0.00,-15.91,3.011,4.974,3.632,4.767,5.720,0.700,-0.021,-0.026,-0.051
2026-05-11 20:30:08.022553,SEARCHING,6.820,1.000,0.00,0.00,-16.75,3.011,4.868,3.691,4.576,6.184,0.700,-0.034,-0.028,-0.055
2026-05-11 20:30:08.233431,SEARCHING,6.954,1.000,0.00,0.00,-17.30,3.051,4.670,3.691,4.487,4.974,0.700,-0.013,-0.026,-0.051
2026-05-11 20:30:08.442935,SEARCHING,7.087,1.000,0.00,0.00,-17.81,3.092,4.576,3.415,4.400,6.730,0.700,-0.047,-0.014,-0.028
2026-05-11 20:30:08.644133,SEARCHING,7.220,1.000,0.00,0.00,-18.12,3.134,4.400,3.415,4.237,7.151,0.700,-0.058,-0.012,-0.024
2026-05-11 20:30:08.855720,SEARCHING,7.353,1.000,0.00,0.00,-18.38,3.134,4.237,3.365,4.160,7.151,0.700,-0.060,-0.010,-0.020
2026-05-11 20:30:09.058193,SEARCHING,7.486,1.000,0.00,0.00,-18.62,3.092,3.945,3.415,3.878,6.022,0.700,-0.055,-0.014,-0.028
2026-05-11 20:30:09.278322,SEARCHING,7.619,1.000,0.00,0.00,-18.82,3.092,3.878,3.178,3.814,4.576,0.700,-0.026,-0.004,-0.008
2026-05-11 20:30:09.479208,SEARCHING,7.751,1.000,0.00,0.00,-18.93,3.134,3.632,3.178,3.575,4.767,0.700,-0.042,-0.002,-0.004
2026-05-11 20:30:09.688363,SEARCHING,7.884,1.000,0.00,0.00,-18.98,3.269,3.520,3.178,3.467,5.200,0.700,-0.058,0.004,0.008
2026-05-11 20:30:09.894513,SEARCHING,8.016,1.000,0.00,0.00,-18.83,3.415,3.467,3.092,3.365,6.538,0.700,-0.087,0.014,0.028
2026-05-11 20:30:10.104290,SEARCHING,8.149,1.000,0.00,0.00,-18.43,3.632,6.934,3.051,3.269,4.974,0.700,-0.063,0.024,0.047
2026-05-11 20:30:10.302159,SEARCHING,8.282,1.000,0.00,0.00,-17.90,3.520,6.934,3.051,3.092,4.767,0.700,-0.068,0.020,0.039
2026-05-11 20:30:10.501873,SEARCHING,8.415,1.000,0.00,0.00,-17.44,3.467,6.730,3.092,2.896,5.720,0.700,-0.102,0.016,0.031
2026-05-11 20:30:10.708345,SEARCHING,8.549,1.000,0.00,0.00,-17.04,3.520,6.538,3.092,2.790,4.767,0.700,-0.089,0.018,0.035
2026-05-11 20:30:10.918796,SEARCHING,8.683,1.000,0.00,0.00,-16.63,3.415,6.356,3.092,2.692,5.720,0.700,-0.118,0.014,0.028
2026-05-11 20:30:11.132406,SEARCHING,8.817,1.000,0.00,0.00,-16.30,3.316,6.356,3.092,2.571,4.974,0.700,-0.113,0.010,0.020
2026-05-11 20:30:11.344979,SEARCHING,8.951,1.000,0.00,0.00,-16.06,3.269,6.184,3.178,2.359,5.321,0.700,-0.142,0.004,0.008
2026-05-11 20:30:11.548756,SEARCHING,9.086,1.000,0.00,0.00,-15.90,3.316,6.022,3.178,2.266,4.317,0.700,-0.126,0.006,0.012
2026-05-11 20:30:11.756607,SEARCHING,9.221,1.000,0.00,0.00,-15.82,3.223,5.867,3.269,2.200,4.576,0.700,-0.142,-0.002,-0.004
2026-05-11 20:30:11.960425,SEARCHING,9.355,1.000,0.00,0.00,-15.91,3.178,6.022,3.520,2.007,4.487,0.700,-0.165,-0.014,-0.028
2026-05-11 20:30:12.182137,SEARCHING,9.490,1.000,0.00,0.00,-16.28,3.011,6.022,3.751,1.891,5.200,0.700,-0.202,-0.029,-0.059
2026-05-11 20:30:12.388923,SEARCHING,9.624,1.000,0.00,0.00,-16.96,2.972,5.867,3.691,1.733,4.317,0.700,-0.207,-0.029,-0.059
2026-05-11 20:30:12.588714,SEARCHING,9.758,1.000,0.00,0.00,-17.62,3.011,5.581,3.575,1.611,4.576,0.700,-0.241,-0.024,-0.047
2026-05-11 20:30:12.794130,SEARCHING,9.891,1.000,0.00,0.00,-18.20,3.011,5.581,3.575,1.467,5.321,0.700,-0.296,-0.024,-0.047
2026-05-11 20:30:12.996794,SEARCHING,10.024,1.000,0.00,0.00,-18.72,3.051,5.581,3.575,1.323,4.767,0.700,-0.328,-0.022,-0.043
2026-05-11 20:30:13.213562,SEARCHING,10.156,1.000,0.00,0.00,-19.21,3.051,5.581,3.520,1.204,5.321,0.700,-0.385,-0.020,-0.039
2026-05-11 20:30:13.425114,SEARCHING,10.288,1.000,0.00,0.00,-19.63,3.134,5.581,3.575,1.167,5.200,0.700,-0.399,-0.018,-0.035
2026-05-11 20:30:13.633497,SEARCHING,10.420,1.000,0.00,0.00,-20.03,3.134,5.448,3.575,1.144,5.200,0.700,-0.409,-0.018,-0.035
2026-05-11 20:30:13.838912,SEARCHING,10.551,1.000,0.00,0.00,-20.44,3.092,5.581,3.520,1.133,4.767,0.700,-0.404,-0.018,-0.035
2026-05-11 20:30:14.053364,SEARCHING,10.682,1.000,0.00,0.00,-20.88,3.134,5.581,3.520,4.868,4.576,0.700,0.008,-0.016,-0.031
2026-05-11 20:30:14.252002,SEARCHING,10.813,1.000,0.00,0.00,-21.26,3.092,5.448,3.520,4.868,4.767,0.700,0.003,-0.018,-0.035
2026-05-11 20:30:14.456480,SEARCHING,10.943,1.000,0.00,0.00,-21.65,3.051,5.448,3.520,4.868,4.767,0.700,0.003,-0.020,-0.039
2026-05-11 20:30:14.678985,SEARCHING,11.073,1.000,0.00,0.00,-22.06,3.051,5.448,3.415,4.868,4.974,0.700,-0.003,-0.016,-0.031
2026-05-11 20:30:14.906001,SEARCHING,11.203,1.000,0.00,0.00,-22.41,3.092,5.581,3.520,4.868,4.974,0.700,-0.003,-0.018,-0.035
2026-05-11 20:30:15.095278,SEARCHING,11.332,1.000,0.00,0.00,-22.77,3.134,5.581,3.467,4.868,4.400,0.700,0.013,-0.014,-0.028
2026-05-11 20:30:15.302389,SEARCHING,11.461,1.000,0.00,0.00,-23.13,3.134,5.448,3.632,4.974,3.878,0.700,0.034,-0.020,-0.039
2026-05-11 20:30:15.513906,SEARCHING,11.590,1.000,0.00,0.00,-23.58,3.134,5.581,3.632,4.868,4.317,0.700,0.016,-0.020,-0.039
2026-05-11 20:30:15.723956,SEARCHING,11.718,1.000,0.00,0.00,-24.03,3.178,5.720,3.632,4.974,4.400,0.700,0.016,-0.018,-0.035
2026-05-11 20:30:15.933776,SEARCHING,11.846,1.000,0.00,0.00,-24.46,3.178,6.022,3.814,4.868,4.487,0.700,0.010,-0.024,-0.047
2026-05-11 20:30:16.132754,SEARCHING,11.973,1.000,0.00,0.00,-24.98,3.223,5.867,3.814,4.767,4.868,0.700,-0.003,-0.022,-0.043
2026-05-11 20:30:16.338660,SEARCHING,12.099,1.000,0.00,0.00,-25.49,3.365,6.184,3.878,4.868,4.487,0.700,0.010,-0.018,-0.035
2026-05-11 20:30:16.537836,SEARCHING,12.226,1.000,0.00,0.00,-25.98,3.178,6.184,3.814,4.868,5.448,0.700,-0.013,-0.024,-0.047
2026-05-11 20:30:16.738380,SEARCHING,12.351,1.000,0.00,0.00,-26.52,3.011,6.184,3.751,4.868,5.720,0.700,-0.018,-0.029,-0.059
2026-05-11 20:30:16.944914,SEARCHING,12.476,1.000,0.00,0.00,-27.16,3.051,5.867,3.691,4.767,5.581,0.700,-0.018,-0.026,-0.051
2026-05-11 20:30:17.146503,SEARCHING,12.600,1.000,0.00,0.00,-27.77,3.011,6.184,3.691,4.868,4.767,0.700,0.003,-0.028,-0.055
2026-05-11 20:30:17.358978,SEARCHING,12.724,1.000,0.00,0.00,-28.37,3.051,5.867,3.575,4.767,5.321,0.700,-0.013,-0.022,-0.043
2026-05-11 20:30:17.576639,SEARCHING,12.847,1.000,0.00,0.00,-28.86,3.011,6.356,3.520,4.868,4.400,0.700,0.013,-0.022,-0.043
2026-05-11 20:30:17.780130,SEARCHING,12.969,1.000,0.00,0.00,-29.31,3.051,6.730,3.415,4.868,4.487,0.700,0.010,-0.016,-0.031
2026-05-11 20:30:17.978920,SEARCHING,13.091,1.000,0.00,0.00,-29.66,3.051,5.720,3.365,4.868,4.767,0.700,0.003,-0.014,-0.028
2026-05-11 20:30:18.195431,SEARCHING,13.213,1.000,0.00,0.00,-29.98,3.051,6.356,3.365,4.868,5.200,0.700,-0.008,-0.014,-0.028
2026-05-11 20:30:18.403495,SEARCHING,13.334,1.000,0.00,0.00,-30.28,3.051,6.022,3.365,4.868,4.317,0.700,0.016,-0.014,-0.028
2026-05-11 20:30:18.641295,SEARCHING,13.454,1.000,0.00,0.00,-30.59,3.092,6.934,3.316,4.767,4.317,0.700,0.013,-0.010,-0.020
2026-05-11 20:30:18.823712,SEARCHING,13.575,1.000,0.00,0.00,-30.80,3.134,5.867,3.269,4.868,5.448,0.700,-0.013,-0.006,-0.012
2026-05-11 20:30:19.024788,SEARCHING,13.695,1.000,0.00,0.00,-30.92,3.134,6.356,3.223,4.868,6.538,0.700,-0.031,-0.004,-0.008
2026-05-11 20:30:19.238143,SEARCHING,13.815,1.000,0.00,0.00,-31.01,3.269,6.538,3.223,4.868,4.868,0.700,0.000,0.002,0.004
2026-05-11 20:30:19.447517,SEARCHING,13.935,1.000,0.00,0.00,-30.97,3.269,5.867,3.223,4.868,4.317,0.700,0.016,0.002,0.004
2026-05-11 20:30:19.647721,SEARCHING,14.055,1.000,0.00,0.00,-30.88,3.269,6.356,3.223,4.868,4.317,0.700,0.016,0.002,0.004
2026-05-11 20:30:19.847472,SEARCHING,14.175,1.000,0.00,0.00,-30.84,3.223,6.022,3.269,4.868,4.317,0.700,0.016,-0.002,-0.004
2026-05-11 20:30:20.064530,SEARCHING,14.295,1.000,0.00,0.00,-30.88,3.223,5.720,3.223,4.974,4.317,0.700,0.018,0.000,0.000
2026-05-11 20:30:20.282654,SEARCHING,14.416,1.000,0.00,0.00,-30.89,3.365,5.867,3.365,4.868,3.415,0.700,0.052,0.000,0.000
2026-05-11 20:30:20.469728,SEARCHING,14.536,1.000,0.00,0.00,-30.89,3.316,6.356,3.467,4.868,4.487,0.700,0.010,-0.006,-0.012
2026-05-11 20:30:20.676468,SEARCHING,14.656,1.000,0.00,0.00,-31.02,3.092,6.184,3.751,4.868,5.200,0.700,-0.008,-0.026,-0.051
2026-05-11 20:30:20.883286,SEARCHING,14.776,1.000,0.00,0.00,-31.54,3.092,6.184,3.691,4.868,5.321,0.700,-0.010,-0.024,-0.047
2026-05-11 20:30:21.090917,SEARCHING,14.895,1.000,0.00,0.00,-32.12,3.051,6.022,3.632,4.767,5.321,0.700,-0.013,-0.024,-0.047
2026-05-11 20:30:21.310394,SEARCHING,15.013,1.000,0.00,0.00,-32.68,3.011,6.022,3.632,4.868,5.867,0.700,-0.021,-0.026,-0.051
2026-05-11 20:30:21.495846,SEARCHING,15.130,1.000,0.00,0.00,-33.22,3.051,6.184,3.520,4.868,5.321,0.700,-0.010,-0.020,-0.039
2026-05-11 20:30:21.708809,SEARCHING,15.247,1.000,0.00,0.00,-33.66,3.092,5.720,3.520,4.868,4.767,0.700,0.003,-0.018,-0.035
2026-05-11 20:30:21.918903,SEARCHING,15.363,1.000,0.00,0.00,-34.04,3.092,5.720,3.415,4.868,5.448,0.700,-0.013,-0.014,-0.028
2026-05-11 20:30:22.122620,SEARCHING,15.479,1.000,0.00,0.00,-34.36,3.092,5.720,3.365,4.868,4.767,0.700,0.003,-0.012,-0.024
2026-05-11 20:30:22.320607,SEARCHING,15.595,1.000,0.00,0.00,-34.61,3.092,5.720,3.365,4.868,4.767,0.700,0.003,-0.012,-0.024
2026-05-11 20:30:22.528776,SEARCHING,15.710,1.000,0.00,0.00,-34.84,3.092,4.487,3.316,4.868,4.487,0.700,0.010,-0.010,-0.020
2026-05-11 20:30:22.737375,SEARCHING,15.825,1.000,0.00,0.00,-35.03,3.134,5.448,3.269,4.868,4.868,0.700,0.000,-0.006,-0.012
2026-05-11 20:30:22.956887,SEARCHING,15.939,1.000,0.00,0.00,-35.17,3.134,4.670,3.269,4.868,4.400,0.700,0.013,-0.006,-0.012
2026-05-11 20:30:23.157102,SEARCHING,16.053,1.000,0.00,0.00,-35.26,3.223,4.086,3.269,4.868,4.400,0.700,0.013,-0.002,-0.004
2026-05-11 20:30:23.349662,SEARCHING,16.168,1.000,0.00,0.00,-35.29,3.269,4.767,3.223,4.868,4.160,0.700,0.021,0.002,0.004
2026-05-11 20:30:23.567230,SEARCHING,16.282,1.000,0.00,0.00,-35.28,3.223,4.670,3.223,4.868,4.317,0.700,0.016,0.000,0.000
2026-05-11 20:30:23.768651,SEARCHING,16.396,1.000,0.00,0.00,-35.26,3.269,4.086,3.223,4.868,4.160,0.700,0.021,0.002,0.004
2026-05-11 20:30:23.990478,SEARCHING,16.511,1.000,0.00,0.00,-35.22,3.269,4.086,3.223,4.868,4.237,0.700,0.018,0.002,0.004
2026-05-11 20:30:24.184583,SEARCHING,16.625,1.000,0.00,0.00,-35.17,3.269,4.086,3.223,4.868,4.086,0.700,0.024,0.002,0.004
2026-05-11 20:30:24.400700,SEARCHING,16.740,1.000,0.00,0.00,-35.14,3.269,4.086,3.269,4.868,4.086,0.700,0.024,0.000,0.000
2026-05-11 20:30:24.606871,SEARCHING,16.854,1.000,0.00,0.00,-35.16,3.223,4.086,3.269,4.868,4.086,0.700,0.024,-0.002,-0.004
2026-05-11 20:30:24.821755,SEARCHING,16.968,1.000,0.00,0.00,-35.20,3.223,3.632,3.269,4.868,3.751,0.700,0.037,-0.002,-0.004
2026-05-11 20:30:25.007321,SEARCHING,17.083,1.000,0.00,0.00,-35.25,3.223,4.014,3.269,4.974,3.632,0.700,0.045,-0.002,-0.004
2026-05-11 20:30:25.211692,SEARCHING,17.197,1.000,0.00,0.00,-35.28,3.223,3.814,3.316,4.868,3.178,0.700,0.066,-0.004,-0.008
2026-05-11 20:30:25.418133,SEARCHING,17.311,1.000,0.00,0.00,-35.34,3.269,3.751,3.269,4.868,3.223,0.700,0.063,0.000,0.000
2026-05-11 20:30:25.626406,SEARCHING,17.426,1.000,0.00,0.00,-35.38,3.223,3.575,3.269,4.868,3.178,0.700,0.066,-0.002,-0.004
2026-05-11 20:30:25.826360,SEARCHING,17.540,1.000,0.00,0.00,-35.42,3.269,3.365,3.269,4.868,3.178,0.700,0.066,0.000,0.000
2026-05-11 20:30:26.020903,SEARCHING,17.654,1.000,0.00,0.00,-35.42,3.223,3.269,3.223,4.868,3.178,0.700,0.066,0.000,0.000
2026-05-11 20:30:26.245185,SEARCHING,17.768,1.000,0.00,0.00,-35.42,3.223,3.269,3.178,4.767,3.051,0.700,0.071,0.002,0.004
2026-05-11 20:30:26.445608,SEARCHING,17.882,1.000,0.00,0.00,-35.33,3.223,3.178,3.051,4.868,3.011,0.700,0.076,0.008,0.016
2026-05-11 20:30:26.654667,SEARCHING,17.996,1.000,0.00,0.00,-35.14,3.178,3.092,2.860,4.868,2.972,0.700,0.079,0.016,0.031
2026-05-11 20:30:26.855880,SEARCHING,18.111,1.000,0.00,0.00,-34.78,3.134,2.757,2.757,4.868,2.692,0.700,0.100,0.020,0.039
2026-05-11 20:30:27.065030,SEARCHING,18.226,1.000,0.00,0.00,-34.28,3.011,2.757,2.359,4.868,2.630,0.700,0.105,0.041,0.083
2026-05-11 20:30:27.260390,SEARCHING,18.342,1.000,0.00,0.00,-33.34,3.051,2.757,2.200,4.868,2.661,0.700,0.102,0.057,0.114
2026-05-11 20:30:27.479108,SEARCHING,18.460,1.000,0.00,0.00,-32.08,2.972,7.890,2.119,4.868,2.487,0.700,0.118,0.061,0.122
2026-05-11 20:30:27.680040,SEARCHING,18.580,1.000,0.00,0.00,-30.63,2.790,7.381,1.891,4.767,4.670,0.700,0.003,0.077,0.153
2026-05-11 20:30:27.885685,SEARCHING,18.701,1.000,0.00,0.00,-28.97,2.630,6.934,1.891,4.868,4.317,0.700,0.016,0.067,0.134
2026-05-11 20:30:28.095555,SEARCHING,18.824,1.000,0.00,0.00,-27.43,2.630,6.934,1.891,4.868,4.317,0.700,0.016,0.067,0.134
2026-05-11 20:30:28.286227,SEARCHING,18.949,1.000,0.00,0.00,-25.80,2.359,5.581,1.634,4.868,4.974,0.700,-0.003,0.085,0.169
2026-05-11 20:30:28.490911,SEARCHING,19.076,1.000,0.00,0.00,-24.03,2.200,4.868,1.682,4.767,4.767,0.700,0.000,0.063,0.126
2026-05-11 20:30:28.691168,SEARCHING,19.205,1.000,0.00,0.00,-22.52,2.119,4.576,5.581,4.576,4.317,0.700,0.008,-0.132,-0.264
2026-05-11 20:30:28.904440,SEARCHING,19.334,1.000,0.00,0.00,-24.47,2.025,4.400,6.022,4.400,4.086,0.700,0.010,-0.147,-0.295
2026-05-11 20:30:29.121229,SEARCHING,19.460,1.000,0.00,0.00,-27.63,2.600,4.767,4.576,4.767,4.670,0.700,0.003,-0.075,-0.149
2026-05-11 20:30:29.315257,SEARCHING,19.583,1.000,0.00,0.00,-29.38,2.825,5.720,4.317,4.868,4.487,0.700,0.010,-0.055,-0.110
2026-05-11 20:30:29.526805,SEARCHING,19.704,1.000,0.00,0.00,-30.53,3.092,6.184,3.878,4.868,4.868,0.700,0.000,-0.029,-0.059
2026-05-11 20:30:29.731941,SEARCHING,19.824,1.000,0.00,0.00,-31.29,2.934,6.356,3.878,4.868,4.400,0.700,0.013,-0.037,-0.075
2026-05-11 20:30:29.934948,SEARCHING,19.943,1.000,0.00,0.00,-32.14,2.896,6.356,3.814,4.868,6.538,0.700,-0.031,-0.037,-0.075
2026-05-11 20:30:30.166248,SEARCHING,20.061,1.000,0.00,0.00,-32.96,2.934,6.934,3.691,4.868,4.868,0.700,0.000,-0.031,-0.063
2026-05-11 20:30:30.352584,SEARCHING,20.178,1.000,0.00,0.00,-33.66,2.972,7.627,3.632,4.767,4.974,0.700,-0.005,-0.028,-0.055
2026-05-11 20:30:30.549357,SEARCHING,20.294,1.000,0.00,0.00,-34.23,3.011,7.151,3.520,4.868,5.448,0.700,-0.013,-0.022,-0.043
2026-05-11 20:30:30.778320,SEARCHING,20.410,1.000,0.00,0.00,-34.71,3.051,7.890,3.467,4.868,4.086,0.700,0.024,-0.018,-0.035
2026-05-11 20:30:30.973410,SEARCHING,20.525,1.000,0.00,0.00,-35.10,3.092,7.890,3.415,4.868,5.200,0.700,-0.008,-0.014,-0.028
2026-05-11 20:30:31.828501,SEARCHING,20.639,1.000,0.00,0.00,-35.39,3.134,7.381,3.316,4.868,4.576,0.700,0.008,-0.008,-0.016
2026-05-11 20:30:31.847532,SEARCHING,20.753,1.000,0.00,0.00,-35.66,3.134,7.381,3.316,4.868,4.576,0.700,0.008,-0.008,-0.016
2026-05-11 20:30:32.909019,SEARCHING,20.867,1.000,0.00,0.00,-35.84,3.178,7.151,3.223,4.868,6.184,0.700,-0.026,-0.002,-0.004
2026-05-11 20:30:33.103144,SEARCHING,20.980,1.000,0.00,0.00,-35.89,3.269,7.151,3.269,4.868,4.767,0.700,0.003,0.000,0.000
2026-05-11 20:30:33.307850,SEARCHING,21.093,1.000,0.00,0.00,-35.89,3.269,6.934,3.269,4.868,6.022,0.700,-0.024,0.000,0.000
2026-05-11 20:30:33.513890,SEARCHING,21.207,1.000,0.00,0.00,-35.84,3.269,7.627,3.223,4.767,6.356,0.700,-0.031,0.002,0.004
2026-05-11 20:30:33.720819,SEARCHING,21.320,1.000,0.00,0.00,-35.78,3.316,7.627,3.178,4.868,6.538,0.700,-0.031,0.006,0.012
2026-05-11 20:30:33.924699,SEARCHING,21.434,1.000,0.00,0.00,-35.69,3.269,7.381,3.223,4.868,6.356,0.700,-0.029,0.002,0.004
2026-05-11 20:30:34.136287,SEARCHING,21.548,1.000,0.00,0.00,-35.64,3.316,7.381,3.134,4.974,6.356,0.700,-0.026,0.008,0.016
2026-05-11 20:30:34.340452,SEARCHING,21.662,1.000,0.00,0.00,-35.50,3.269,7.381,3.178,4.868,6.356,0.700,-0.029,0.004,0.008
2026-05-11 20:30:34.555353,SEARCHING,21.776,1.000,0.00,0.00,-35.43,3.223,7.381,3.223,4.974,6.538,0.700,-0.029,0.000,0.000
2026-05-11 20:30:34.764796,SEARCHING,21.890,1.000,0.00,0.00,-35.44,3.223,7.381,3.223,4.868,6.538,0.700,-0.031,0.000,0.000
2026-05-11 20:30:34.962367,SEARCHING,22.004,1.000,0.00,0.00,-35.48,3.178,7.381,3.316,4.868,6.184,0.700,-0.026,-0.006,-0.012
2026-05-11 20:30:35.188093,SEARCHING,22.118,1.000,0.00,0.00,-35.62,3.178,7.151,3.365,4.868,6.022,0.700,-0.024,-0.008,-0.016
2026-05-11 20:30:35.387714,SEARCHING,22.231,1.000,0.00,0.00,-35.82,3.134,7.151,3.365,4.868,6.022,0.700,-0.024,-0.010,-0.020
2026-05-11 20:30:35.596892,SEARCHING,22.345,1.000,0.00,0.00,-36.07,3.134,6.934,3.365,4.767,5.867,0.700,-0.024,-0.010,-0.020
2026-05-11 20:30:35.784395,SEARCHING,22.458,1.000,0.00,0.00,-36.33,3.134,6.730,3.316,4.868,5.720,0.700,-0.018,-0.008,-0.016
2026-05-11 20:30:35.998248,SEARCHING,22.570,1.000,0.00,0.00,-36.54,3.134,6.730,3.365,4.868,6.022,0.700,-0.024,-0.010,-0.020
2026-05-11 20:30:36.217734,SEARCHING,22.683,1.000,0.00,0.00,-36.75,3.178,6.356,3.365,4.868,5.720,0.700,-0.018,-0.008,-0.016
2026-05-11 20:30:36.408011,SEARCHING,22.795,1.000,0.00,0.00,-36.92,3.178,6.356,3.316,4.868,4.868,0.700,0.000,-0.006,-0.012
2026-05-11 20:30:36.614301,SEARCHING,22.907,1.000,0.00,0.00,-37.05,3.178,6.356,3.269,4.868,5.448,0.700,-0.013,-0.004,-0.008
2026-05-11 20:30:36.828558,SEARCHING,23.018,1.000,0.00,0.00,-37.16,3.134,6.184,3.269,4.868,4.767,0.700,0.003,-0.006,-0.012
2026-05-11 20:30:37.037606,SEARCHING,23.130,1.000,0.00,0.00,-37.30,3.178,6.022,3.269,4.974,4.487,0.700,0.013,-0.004,-0.008
2026-05-11 20:30:37.246612,SEARCHING,23.241,1.000,0.00,0.00,-37.33,3.269,5.720,3.178,4.868,4.576,0.700,0.008,0.004,0.008
2026-05-11 20:30:37.447397,SEARCHING,23.353,1.000,0.00,0.00,-37.21,3.365,5.720,3.092,4.868,4.400,0.700,0.013,0.012,0.024
2026-05-11 20:30:37.652448,SEARCHING,23.464,1.000,0.00,0.00,-36.94,3.415,5.720,3.051,4.868,4.487,0.700,0.010,0.016,0.031
2026-05-11 20:30:37.880923,SEARCHING,23.576,1.000,0.00,0.00,-36.57,3.467,5.867,3.092,4.868,4.400,0.700,0.013,0.016,0.031
2026-05-11 20:30:38.081729,SEARCHING,23.689,1.000,0.00,0.00,-36.23,3.415,5.720,3.092,4.868,4.400,0.700,0.013,0.014,0.028
2026-05-11 20:30:38.274903,SEARCHING,23.802,1.000,0.00,0.00,-35.92,3.415,5.867,3.092,4.868,4.400,0.700,0.013,0.014,0.028
2026-05-11 20:30:38.483183,SEARCHING,23.916,1.000,0.00,0.00,-35.62,3.415,5.720,3.134,4.868,4.160,0.700,0.021,0.012,0.024
2026-05-11 20:30:38.688933,SEARCHING,24.030,1.000,0.00,0.00,-35.39,3.365,5.581,3.178,4.868,4.400,0.700,0.013,0.008,0.016
2026-05-11 20:30:38.894581,SEARCHING,24.115,1.000,0.00,0.00,-35.25,3.365,5.448,3.134,4.868,4.237,0.700,0.018,0.010,0.020
2026-05-11 20:30:39.100215,SEARCHING,24.258,1.000,0.00,0.00,-34.96,3.415,5.321,3.178,4.868,4.317,0.700,0.016,0.010,0.020
2026-05-11 20:30:39.304779,SEARCHING,24.373,1.000,0.00,0.00,-34.71,3.945,5.085,3.223,4.868,4.160,0.700,0.021,0.026,0.051
2026-05-11 20:30:39.517645,SEARCHING,24.489,1.000,0.00,0.00,-34.15,3.945,4.974,3.223,4.767,4.237,0.700,0.016,0.026,0.051
2026-05-11 20:30:39.733207,SEARCHING,24.605,1.000,0.00,0.00,-33.55,3.945,4.868,3.178,4.670,4.317,0.700,0.010,0.028,0.055
2026-05-11 20:30:39.933253,SEARCHING,24.722,1.000,0.00,0.00,-32.95,3.878,4.670,3.092,4.670,4.237,0.700,0.013,0.029,0.059
2026-05-11 20:30:40.140557,SEARCHING,24.840,1.000,0.00,0.00,-32.26,3.751,4.670,3.011,4.576,5.085,0.700,-0.013,0.029,0.059
2026-05-11 20:30:40.344264,SEARCHING,24.959,1.000,0.00,0.00,-31.58,3.691,4.487,3.051,4.487,5.448,0.700,-0.024,0.026,0.051
2026-05-11 20:30:40.546278,SEARCHING,25.078,1.000,0.00,0.00,-30.96,3.632,4.317,3.011,4.317,5.200,0.700,-0.024,0.026,0.051
2026-05-11 20:30:40.755526,SEARCHING,25.199,1.000,0.00,0.00,-30.41,3.575,4.237,3.051,4.237,5.085,0.700,-0.024,0.022,0.043
2026-05-11 20:30:40.973326,SEARCHING,25.320,1.000,0.00,0.00,-29.94,3.467,4.086,3.051,4.086,5.200,0.700,-0.031,0.018,0.035
2026-05-11 20:30:41.168412,SEARCHING,25.441,1.000,0.00,0.00,-29.51,3.415,3.878,3.051,3.945,5.448,0.700,-0.042,0.016,0.031
2026-05-11 20:30:41.378276,SEARCHING,25.563,1.000,0.00,0.00,-29.14,3.365,3.632,3.051,3.814,4.576,0.700,-0.026,0.014,0.028
2026-05-11 20:30:41.573179,SEARCHING,25.686,1.000,0.00,0.00,-28.82,3.316,3.520,3.011,3.632,5.720,0.700,-0.060,0.014,0.028
2026-05-11 20:30:41.776768,SEARCHING,25.809,1.000,0.00,0.00,-28.53,3.269,3.316,3.092,3.415,4.576,0.700,-0.045,0.008,0.016
2026-05-11 20:30:41.979256,SEARCHING,25.932,1.000,0.00,0.00,-28.33,3.316,3.316,3.092,3.415,4.576,0.700,-0.045,0.010,0.020
2026-05-11 20:30:42.191893,SEARCHING,26.055,1.000,0.00,0.00,-28.12,3.223,3.134,3.178,3.269,4.868,0.700,-0.060,0.002,0.004
2026-05-11 20:30:42.416852,SEARCHING,26.179,1.000,0.00,0.00,-28.08,3.223,3.011,3.269,3.134,4.767,0.700,-0.066,-0.002,-0.004
2026-05-11 20:30:42.704788,SEARCHING,26.364,1.000,0.00,0.00,-28.14,3.223,2.757,3.269,2.896,4.400,0.700,-0.071,-0.002,-0.004
2026-05-11 20:30:42.919939,SEARCHING,26.487,1.000,0.00,0.00,-28.17,3.269,2.724,3.223,2.757,4.400,0.700,-0.081,0.002,0.004
2026-05-11 20:30:43.119708,SEARCHING,26.611,1.000,0.00,0.00,-28.13,3.223,2.630,3.223,2.630,4.086,0.700,-0.081,0.000,0.000
2026-05-11 20:30:43.328506,SEARCHING,26.734,1.000,0.00,0.00,-28.12,3.178,2.514,3.223,2.514,4.237,0.700,-0.097,-0.002,-0.004
2026-05-11 20:30:43.536903,SEARCHING,26.858,1.000,0.00,0.00,-28.12,3.223,2.384,3.178,2.384,4.160,0.700,-0.108,0.002,0.004
2026-05-11 20:30:43.751286,SEARCHING,26.981,1.000,0.00,0.00,-28.03,3.415,2.222,3.223,2.200,4.086,0.700,-0.126,0.008,0.016
2026-05-11 20:30:43.959560,SEARCHING,27.105,1.000,0.00,0.00,-27.75,3.751,2.080,3.178,2.061,4.237,0.700,-0.149,0.022,0.043
2026-05-11 20:30:44.179247,SEARCHING,27.229,1.000,0.00,0.00,-27.21,3.945,1.939,3.223,1.923,4.237,0.679,-0.170,0.026,0.051
2026-05-11 20:30:44.382462,SEARCHING,27.349,1.000,0.00,0.00,-26.60,3.945,1.802,3.051,1.788,4.868,0.631,-0.212,0.033,0.067
2026-05-11 20:30:44.605460,SEARCHING,27.461,1.000,0.00,0.00,-25.85,3.814,1.658,1.802,1.658,6.184,0.580,-0.265,0.132,0.264
2026-05-11 20:30:44.810852,SEARCHING,27.566,1.000,0.00,0.00,-23.10,3.467,1.505,1.557,1.505,6.934,0.527,-0.312,0.159,0.319
2026-05-11 20:30:45.016917,SEARCHING,27.664,1.000,0.00,0.00,-19.53,2.542,6.730,1.421,1.395,5.581,0.700,-0.323,0.140,0.279
2026-05-11 20:30:45.218772,SEARCHING,27.789,1.000,0.00,0.00,-16.22,2.311,5.720,3.751,1.412,5.321,0.700,-0.312,-0.075,-0.149
2026-05-11 20:30:45.425834,SEARCHING,27.923,1.000,0.00,0.00,-17.36,2.179,5.581,4.160,1.354,5.321,0.700,-0.330,-0.098,-0.197
2026-05-11 20:30:45.632076,SEARCHING,28.056,1.000,0.00,0.00,-19.50,2.487,5.581,3.751,1.198,4.974,0.700,-0.380,-0.061,-0.122
2026-05-11 20:30:45.826609,SEARCHING,28.187,1.000,0.00,0.00,-20.77,3.092,6.538,3.316,0.982,5.448,0.700,-0.501,-0.010,-0.020
2026-05-11 20:30:46.049609,SEARCHING,28.318,1.000,0.00,0.00,-21.05,3.092,6.538,3.365,0.890,5.720,0.700,-0.569,-0.012,-0.024
2026-05-11 20:30:46.248959,SEARCHING,28.448,1.000,0.00,0.00,-21.29,3.092,6.538,3.223,0.770,5.867,0.700,-0.677,-0.006,-0.012
2026-05-11 20:30:46.450424,SEARCHING,28.579,1.000,0.00,0.00,-21.50,3.011,6.356,3.316,0.685,6.022,0.700,-0.776,-0.014,-0.028
2026-05-11 20:30:46.671428,SEARCHING,28.709,1.000,0.00,0.00,-21.82,3.011,6.356,3.365,0.538,5.581,0.700,-1.007,-0.016,-0.031
2026-05-11 20:30:46.859653,SEARCHING,28.839,1.000,0.00,0.00,-22.18,3.051,6.356,3.415,4.868,5.867,0.700,-0.021,-0.016,-0.031
2026-05-11 20:30:47.060185,SEARCHING,28.968,1.000,0.00,0.00,-22.53,3.092,6.184,3.365,4.868,5.448,0.700,-0.013,-0.012,-0.024
2026-05-11 20:30:47.282126,SEARCHING,29.097,1.000,0.00,0.00,-22.81,3.134,6.022,3.365,4.868,5.581,0.700,-0.016,-0.010,-0.020
2026-05-11 20:30:47.481993,SEARCHING,29.226,1.000,0.00,0.00,-23.05,3.134,5.867,3.316,4.868,5.867,0.700,-0.021,-0.008,-0.016
2026-05-11 20:30:47.686324,SEARCHING,29.355,1.000,0.00,0.00,-23.26,3.178,5.720,3.316,4.868,5.085,0.700,-0.005,-0.006,-0.012
2026-05-11 20:30:47.898276,SEARCHING,29.484,1.000,0.00,0.00,-23.40,3.223,5.581,3.316,4.868,5.321,0.700,-0.010,-0.004,-0.008
2026-05-11 20:30:48.125063,SEARCHING,29.612,1.000,0.00,0.00,-23.50,3.223,5.321,3.316,4.868,4.974,0.700,-0.003,-0.004,-0.008
2026-05-11 20:30:48.327943,SEARCHING,29.740,1.000,0.00,0.00,-23.62,3.178,5.200,3.365,4.974,5.085,0.700,-0.003,-0.008,-0.016
2026-05-11 20:30:48.522051,SEARCHING,29.869,1.000,0.00,0.00,-23.81,3.178,5.085,3.467,4.868,4.767,0.700,0.003,-0.012,-0.024
2026-05-11 20:30:48.731189,SEARCHING,29.997,1.000,0.00,0.00,-24.10,3.092,4.974,3.467,4.868,4.767,0.700,0.003,-0.016,-0.031
2026-05-11 20:30:48.941971,SEARCHING,30.124,1.000,0.00,0.00,-24.51,3.051,4.868,3.520,4.868,4.576,0.700,0.008,-0.020,-0.039
2026-05-11 20:30:49.144236,SEARCHING,30.251,1.000,0.00,0.00,-24.97,3.051,4.767,3.520,4.670,4.670,0.700,0.000,-0.020,-0.039
2026-05-11 20:30:49.368658,SEARCHING,30.378,1.000,0.00,0.00,-25.39,3.134,4.670,3.575,4.670,4.576,0.700,0.003,-0.018,-0.035
2026-05-11 20:30:49.570923,SEARCHING,30.504,1.000,0.00,0.00,-25.75,3.092,4.487,3.467,4.487,4.237,0.700,0.008,-0.016,-0.031
2026-05-11 20:30:49.754821,SEARCHING,30.630,1.000,0.00,0.00,-26.12,3.134,4.400,3.415,4.400,4.160,0.700,0.008,-0.012,-0.024
2026-05-11 20:30:49.955778,SEARCHING,30.756,1.000,0.00,0.00,-26.41,3.134,4.237,3.365,4.237,4.160,0.700,0.003,-0.010,-0.020
2026-05-11 20:30:50.175041,SEARCHING,30.881,1.000,0.00,0.00,-26.63,3.134,4.086,3.365,4.086,3.945,0.700,0.005,-0.010,-0.020
2026-05-11 20:30:50.385133,SEARCHING,31.006,1.000,0.00,0.00,-26.86,3.178,4.014,3.365,3.945,3.814,0.700,0.005,-0.008,-0.016
2026-05-11 20:30:50.584030,SEARCHING,31.131,1.000,0.00,0.00,-27.03,3.269,3.814,3.223,3.814,3.575,0.700,0.010,0.002,0.004
2026-05-11 20:30:50.792950,SEARCHING,31.256,1.000,0.00,0.00,-26.98,3.365,3.632,3.092,3.691,3.467,0.700,0.010,0.012,0.024
2026-05-11 20:30:50.997835,SEARCHING,31.381,1.000,0.00,0.00,-26.75,3.316,3.575,3.051,3.575,3.520,0.700,0.003,0.012,0.024
2026-05-11 20:30:51.205175,SEARCHING,31.506,1.000,0.00,0.00,-26.44,3.316,3.415,3.051,3.415,3.415,0.700,0.000,0.012,0.024
2026-05-11 20:30:51.406729,SEARCHING,31.631,1.000,0.00,0.00,-26.15,3.223,3.269,3.051,3.316,3.092,0.700,0.013,0.008,0.016
2026-05-11 20:30:51.615074,SEARCHING,31.757,1.000,0.00,0.00,-25.96,3.092,3.178,3.011,3.223,3.178,0.700,0.003,0.004,0.008
2026-05-11 20:30:51.820756,SEARCHING,31.883,1.000,0.00,0.00,-25.89,2.972,3.011,2.972,3.011,2.972,0.700,0.003,0.000,0.000
2026-05-11 20:30:52.042342,SEARCHING,32.009,1.000,0.00,0.00,-25.95,2.825,2.860,2.934,2.860,2.896,0.700,-0.003,-0.006,-0.012
2026-05-11 20:30:52.237684,SEARCHING,32.135,1.000,0.00,0.00,-26.11,2.692,2.790,2.860,2.790,2.790,0.700,0.000,-0.010,-0.020
2026-05-11 20:30:52.441840,SEARCHING,32.260,1.000,0.00,0.00,-26.33,2.542,2.630,2.724,2.630,2.630,0.700,0.000,-0.012,-0.024
2026-05-11 20:30:52.671820,SEARCHING,32.386,1.000,0.00,0.00,-26.60,2.409,2.514,2.600,2.487,2.514,0.700,-0.003,-0.014,-0.028
2026-05-11 20:30:52.874445,SEARCHING,32.511,1.000,0.00,0.00,-26.89,2.311,2.384,2.460,2.384,2.384,0.700,0.000,-0.012,-0.024
2026-05-11 20:30:53.092751,SEARCHING,32.635,1.000,0.00,0.00,-27.18,2.138,2.222,2.311,2.222,2.243,0.700,-0.003,-0.016,-0.031
2026-05-11 20:30:53.290268,SEARCHING,32.760,1.000,0.00,0.00,-27.53,2.025,2.080,2.179,2.099,2.080,0.700,0.003,-0.016,-0.031
2026-05-11 20:30:53.492024,SEARCHING,32.884,1.000,0.00,0.00,-27.90,1.923,1.990,2.080,1.990,2.007,0.696,-0.003,-0.018,-0.035
2026-05-11 20:30:53.708139,SEARCHING,33.005,1.000,0.00,0.00,-28.31,1.774,1.831,1.923,1.831,1.831,0.641,0.000,-0.020,-0.039
2026-05-11 20:30:53.909618,SEARCHING,33.118,1.000,0.00,0.00,-28.78,1.623,1.695,1.760,1.708,1.695,0.593,0.003,-0.022,-0.043
2026-05-11 20:30:54.116529,SEARCHING,33.221,1.000,0.00,0.00,-29.29,1.496,1.567,1.634,1.567,1.567,0.549,0.000,-0.026,-0.051
2026-05-11 20:30:54.322267,SEARCHING,33.318,1.000,0.00,0.00,-29.88,1.404,1.476,1.546,1.476,1.476,0.517,0.000,-0.029,-0.059
2026-05-11 20:30:54.544234,SEARCHING,33.406,1.000,0.00,0.00,-30.59,1.315,1.395,1.457,1.395,1.395,0.488,0.000,-0.033,-0.067
2026-05-11 20:30:54.755511,SEARCHING,33.488,1.000,0.00,0.00,-31.39,1.204,1.278,1.354,1.278,1.278,0.447,0.000,-0.041,-0.083
2026-05-11 20:30:54.937803,SEARCHING,33.564,1.000,0.00,0.00,-32.35,1.116,1.192,1.271,1.192,1.192,0.417,0.000,-0.049,-0.098
2026-05-11 20:30:55.150183,SEARCHING,33.633,1.000,0.00,0.00,-33.50,1.054,1.122,1.204,1.122,1.122,0.393,0.000,-0.053,-0.106
2026-05-11 20:30:55.358100,SEARCHING,33.698,1.000,0.00,0.00,-34.76,0.961,1.035,1.122,1.035,1.035,0.362,0.000,-0.067,-0.134
2026-05-11 20:30:55.639617,INSPECTING,33.754,1.000,0.00,0.00,-36.19,0.901,0.978,1.069,0.978,0.978,0.350,0.550,-0.552,-0.850
2026-05-11 20:30:55.813176,INSPECTING,33.795,1.000,0.00,0.00,-43.50,0.854,0.938,1.031,0.938,0.938,0.350,0.550,-0.552,-0.850
2026-05-11 20:30:56.026459,INSPECTING,33.842,1.000,0.00,0.00,-53.24,0.773,0.901,1.079,0.901,0.901,0.350,0.550,-0.552,-0.850
2026-05-11 20:30:56.226113,INSPECTING,33.879,1.000,0.00,0.00,-62.98,0.738,0.904,1.173,0.904,0.904,0.350,0.550,-0.552,-0.850
2026-05-11 20:30:56.431099,INSPECTING,33.906,1.000,0.00,0.00,-72.72,0.738,0.974,1.211,0.978,0.974,0.350,0.550,-0.552,-0.850
2026-05-11 20:30:56.638717,INSPECTING,33.922,1.000,0.00,0.00,-82.46,0.770,1.100,1.116,1.100,1.105,0.350,-0.550,-0.552,-0.850
2026-05-11 20:30:56.867890,INSPECTING,33.925,1.000,0.00,0.00,-92.20,0.800,1.204,1.084,1.198,1.204,0.350,0.550,-0.552,-0.850
2026-05-11 20:30:57.064747,INSPECTING,33.917,1.000,0.00,0.00,-101.94,0.965,1.100,1.035,1.100,1.100,0.350,0.550,-0.552,-0.850
2026-05-11 20:30:57.328171,INSPECTING,33.898,1.000,0.00,0.00,-111.68,1.026,1.012,1.012,1.012,1.012,0.350,0.550,-0.552,-0.850
2026-05-11 20:30:57.607922,INSPECTING,33.867,1.000,0.00,0.00,-121.42,0.919,0.949,1.074,0.949,0.949,0.350,0.550,-0.552,-0.850
2026-05-11 20:30:57.725901,INSPECTING,33.848,1.000,0.00,0.00,-126.29,0.854,0.860,1.074,0.908,0.908,0.350,0.550,-0.552,-0.850
2026-05-11 20:30:58.029595,INSPECTING,33.790,1.000,0.00,0.00,-138.47,0.738,0.961,1.050,0.961,0.957,0.350,0.550,-0.552,-0.850
2026-05-11 20:30:58.378415,INSPECTING,33.719,1.000,0.00,0.00,-150.64,0.797,0.915,1.111,0.919,0.919,0.350,-0.550,0.552,0.850
2026-05-11 20:30:58.674137,INSPECTING,33.655,1.000,0.00,0.00,-159.41,0.736,0.901,1.167,0.904,0.904,0.350,-0.550,0.552,0.850
2026-05-11 20:30:58.970159,INSPECTING,33.577,1.000,0.00,0.00,-147.23,0.639,0.717,0.826,0.715,0.717,0.350,-0.550,0.552,0.850
2026-05-11 20:30:59.153754,INSPECTING,33.535,1.000,0.00,0.00,-139.93,0.613,0.675,0.750,0.675,0.675,0.350,-0.550,-0.552,-0.850
2026-05-11 20:30:59.299012,INSPECTING,33.509,1.000,0.00,0.00,-135.06,0.610,0.630,0.677,0.629,0.629,0.350,-0.550,-0.552,-0.850
2026-05-11 20:30:59.506967,INSPECTING,33.474,1.000,0.00,0.00,-127.75,0.585,0.594,0.618,0.594,0.594,0.350,-0.550,-0.552,-0.850
2026-05-11 20:30:59.804318,INSPECTING,33.411,1.000,0.00,0.00,-119.47,0.396,0.521,0.510,0.521,0.522,0.350,-0.550,-0.552,-0.850
2026-05-11 20:30:59.985911,TURNING,33.361,1.000,0.00,0.00,-131.65,0.455,0.459,0.469,0.460,0.459,0.000,0.000,0.000,-0.800
2026-05-11 20:31:00.155894,TURNING,33.247,1.000,0.00,0.00,-157.14,0.246,0.287,0.351,0.289,0.288,0.000,0.000,0.000,-0.800
2026-05-11 20:31:00.367261,TURNING,33.247,1.000,0.00,0.00,-166.31,0.248,0.314,0.425,0.313,0.314,0.000,0.000,0.000,-0.800
2026-05-11 20:31:00.571858,TURNING,33.247,1.000,0.00,0.00,-175.48,0.264,0.352,0.518,0.352,0.352,0.000,0.000,0.000,-0.800
2026-05-11 20:31:00.780780,TURNING,33.247,1.000,-0.00,0.00,175.35,0.315,0.455,0.847,0.452,0.453,0.000,0.000,0.000,-0.800
2026-05-11 20:31:01.009490,TURNING,33.247,1.000,-0.00,0.00,166.19,0.353,0.561,1.084,0.558,0.550,0.000,0.000,0.000,-0.800
2026-05-11 20:31:01.248397,TURNING,33.247,1.000,-0.00,0.00,157.02,0.453,0.838,4.487,0.857,0.854,0.000,0.000,0.000,-0.800
2026-05-11 20:31:01.397801,TURNING,33.247,1.000,-0.00,0.00,147.85,0.485,1.054,4.576,1.054,1.045,0.000,0.000,0.000,-0.800
2026-05-11 20:31:01.617943,TURNING,33.247,1.000,-0.00,0.00,138.68,0.731,2.288,4.317,2.288,2.266,0.000,0.000,0.000,-0.800
2026-05-11 20:31:01.850209,TURNING,33.247,1.000,-0.00,0.00,129.52,0.986,4.670,4.086,4.487,3.814,0.000,0.000,0.000,-0.800
2026-05-11 20:31:02.031981,TURNING,33.247,1.000,-0.00,0.00,120.35,4.487,4.767,3.316,4.670,4.237,0.000,0.000,0.000,-0.800
2026-05-11 20:31:02.233202,TURNING,33.247,1.000,-0.00,0.00,111.18,4.237,3.814,3.011,3.814,2.934,0.000,0.000,0.000,-0.800
2026-05-11 20:31:02.430208,TURNING,33.247,1.000,-0.00,0.00,102.02,4.576,3.520,2.724,3.520,2.243,0.000,0.000,0.000,-0.767
2026-05-11 20:31:02.643086,TURNING,33.247,1.000,-0.00,0.00,93.23,4.160,3.365,2.630,3.316,2.790,0.000,0.000,0.000,-0.613
2026-05-11 20:31:03.554575,TURNING,33.247,1.000,-0.00,0.00,87.66,3.575,2.972,2.542,2.972,2.692,0.000,0.000,0.000,-0.516
2026-05-11 20:31:04.639698,TURNING,33.247,1.000,-0.00,0.00,77.27,3.051,2.790,2.661,2.790,2.790,0.000,0.000,0.000,-0.335
2026-05-11 20:31:04.824996,TURNING,33.247,1.000,-0.00,0.00,71.40,2.825,2.790,1.939,2.790,2.790,0.000,0.000,0.000,-0.300
2026-05-11 20:31:04.968193,TURNING,33.247,1.000,-0.00,0.00,64.55,2.790,2.757,1.760,2.790,2.757,0.000,0.000,0.000,-0.300
2026-05-11 20:31:05.147653,RETURNING,33.247,1.000,-0.00,0.00,59.00,2.724,2.757,1.611,2.757,2.757,0.500,0.000,0.000,0.203
2026-05-11 20:31:05.379835,RETURNING,33.303,1.000,-0.00,0.00,58.83,2.692,2.724,1.623,2.724,2.724,0.500,0.000,0.000,0.196
2026-05-11 20:31:05.632725,RETURNING,33.354,1.000,-0.00,0.00,61.13,2.630,2.630,1.682,2.630,2.630,0.500,0.000,0.000,0.171
2026-05-11 20:31:05.803905,RETURNING,33.400,1.000,-0.00,0.00,63.14,2.542,2.542,1.788,2.542,2.514,0.500,0.002,0.000,0.133
2026-05-11 20:31:06.023038,RETURNING,33.444,1.000,-0.00,0.00,64.75,2.460,2.409,1.816,2.409,2.384,0.500,0.002,0.000,0.115
2026-05-11 20:31:06.223620,RETURNING,33.486,1.000,-0.00,0.00,66.10,2.359,2.311,1.907,2.311,2.311,0.500,0.000,0.000,0.080
2026-05-11 20:31:06.426017,RETURNING,33.526,1.000,-0.00,0.00,67.11,2.311,2.243,1.990,2.243,2.222,0.500,0.002,0.000,0.056
2026-05-11 20:31:06.647404,RETURNING,33.564,1.000,-0.00,0.00,67.81,2.243,2.119,2.025,2.138,2.138,0.500,0.000,0.000,0.038
2026-05-11 20:31:06.838730,RETURNING,33.602,1.000,-0.00,0.00,68.28,2.179,2.061,2.043,2.080,2.061,0.500,0.002,0.000,0.024
2026-05-11 20:31:07.057231,RETURNING,33.638,1.000,-0.00,0.00,68.58,2.043,1.956,1.939,1.956,1.956,0.500,0.000,0.000,0.021
2026-05-11 20:31:07.255723,RETURNING,33.675,1.000,-0.00,0.00,68.84,1.923,1.816,1.802,1.831,1.831,0.500,0.000,0.000,0.028
2026-05-11 20:31:07.462169,RETURNING,33.710,1.000,-0.00,0.00,69.16,1.923,1.816,1.802,1.831,1.831,0.500,0.000,0.000,0.028
2026-05-11 20:31:07.679933,RETURNING,33.746,1.000,-0.00,0.00,69.50,1.733,1.646,1.600,1.646,1.646,0.500,0.000,0.000,0.038
2026-05-11 20:31:07.902638,RETURNING,33.781,1.000,-0.00,0.00,69.92,1.670,1.589,1.546,1.589,1.589,0.500,0.000,0.000,0.038
2026-05-11 20:31:08.142664,RETURNING,33.815,1.000,-0.00,0.00,70.37,1.578,1.505,1.430,1.505,1.505,0.500,0.000,0.000,0.052
2026-05-11 20:31:08.295540,RETURNING,33.848,1.000,-0.00,0.00,70.90,1.448,1.378,1.308,1.378,1.387,0.459,-0.002,0.000,0.059
2026-05-11 20:31:08.509326,RETURNING,33.878,1.000,-0.00,0.00,71.57,1.387,1.300,1.211,1.293,1.293,0.431,0.000,0.000,0.084
2026-05-11 20:31:08.714717,RETURNING,33.905,1.000,-0.00,0.00,72.47,1.278,1.192,1.111,1.192,1.186,0.395,0.002,0.000,0.094
2026-05-11 20:31:08.914490,RETURNING,33.928,1.000,-0.00,0.00,73.54,1.198,1.111,1.031,1.111,1.111,0.370,0.000,0.000,0.108
2026-05-11 20:31:09.149280,RETURNING,33.949,1.000,-0.00,0.00,74.75,1.138,1.045,0.965,1.040,1.040,0.347,0.000,0.000,0.126
2026-05-11 20:31:09.372049,RETURNING,33.967,1.000,-0.00,0.00,76.14,1.079,0.978,0.901,0.978,0.982,0.326,-0.002,0.000,0.147
2026-05-11 20:31:09.585422,RETURNING,33.982,1.000,-0.00,0.00,77.78,1.026,0.926,0.844,0.926,0.926,0.309,0.000,0.000,0.168
2026-05-11 20:31:09.773891,RETURNING,33.994,1.000,-0.00,0.00,79.69,0.970,0.867,0.784,0.870,0.870,0.289,0.000,0.000,0.196
2026-05-11 20:31:09.994220,RETURNING,34.004,1.000,-0.00,0.00,81.93,0.934,0.826,0.741,0.826,0.826,0.275,0.000,0.000,0.224
2026-05-11 20:31:10.186040,RETURNING,34.010,1.000,-0.00,0.00,84.44,0.901,0.786,0.693,0.786,0.786,0.262,0.000,0.000,0.266
2026-05-11 20:31:10.424684,RETURNING,34.014,1.000,-0.00,0.00,87.50,0.870,0.738,0.643,0.741,0.741,0.246,0.000,0.000,0.325
2026-05-11 20:31:10.593537,RETURNING,34.015,1.000,-0.00,0.00,91.10,0.854,0.711,0.604,0.711,0.706,0.235,0.004,0.000,0.388
2026-05-11 20:31:10.813989,RETURNING,34.013,1.000,-0.00,0.00,95.50,0.860,0.693,0.581,0.693,0.691,0.230,0.002,0.000,0.448
2026-05-11 20:31:11.006294,RETURNING,34.006,1.000,-0.00,0.00,100.62,0.904,0.687,0.554,0.687,0.687,0.229,0.000,0.000,0.559
2026-05-11 20:31:11.229219,RETURNING,33.996,1.000,-0.00,0.00,106.78,0.970,0.700,0.545,0.698,0.700,0.233,-0.002,0.000,0.600
2026-05-11 20:31:11.421795,RETURNING,33.980,1.000,-0.00,0.00,113.59,1.264,0.733,0.550,0.733,0.736,0.244,-0.002,0.000,0.600
2026-05-11 20:31:11.627596,RETURNING,33.958,1.000,-0.00,0.00,120.47,1.395,0.786,0.561,0.786,0.789,0.262,-0.002,0.000,0.600
2026-05-11 20:31:11.829248,RETURNING,33.930,1.000,-0.00,0.00,127.34,1.760,0.890,0.596,0.894,0.897,0.297,-0.002,0.000,0.600
2026-05-11 20:31:12.055044,RETURNING,33.891,1.000,-0.00,0.00,134.22,2.600,1.198,0.656,1.198,1.204,0.399,-0.002,0.000,0.600
2026-05-11 20:31:12.237357,RETURNING,33.834,1.000,-0.00,0.00,141.09,2.600,1.198,0.656,1.198,1.204,0.399,-0.002,0.000,0.600
2026-05-11 20:31:12.448738,RETURNING,33.769,1.000,-0.00,0.00,147.97,3.878,1.747,0.957,1.720,1.695,0.500,0.004,0.000,0.600
2026-05-11 20:31:12.647012,RETURNING,33.688,1.000,-0.00,0.00,154.82,3.751,1.923,1.004,1.923,1.956,0.500,-0.004,0.000,0.584
2026-05-11 20:31:12.842131,RETURNING,33.595,1.000,-0.00,0.00,161.41,3.878,3.178,1.285,3.178,2.757,0.500,0.024,0.000,0.416
2026-05-11 20:31:13.091303,RETURNING,33.499,1.000,-0.00,0.00,166.10,4.014,3.945,1.774,4.014,3.365,0.500,0.024,0.000,0.252
2026-05-11 20:31:13.285168,RETURNING,33.402,1.000,-0.00,0.00,168.93,4.014,3.878,2.384,3.814,3.467,0.500,0.013,0.000,0.136
2026-05-11 20:31:13.488959,RETURNING,33.303,1.000,-0.00,0.00,170.61,3.751,3.751,2.600,3.751,6.184,0.500,-0.052,0.000,0.094
2026-05-11 20:31:13.660533,RETURNING,33.205,1.000,-0.00,0.00,171.80,3.632,3.691,2.600,3.691,4.974,0.500,-0.035,0.000,0.087
2026-05-11 20:31:13.878111,RETURNING,33.105,1.000,-0.00,0.00,172.81,3.575,3.575,2.630,3.575,4.767,0.500,-0.035,0.000,0.080
2026-05-11 20:31:14.085855,RETURNING,33.006,1.000,-0.00,0.00,173.79,3.316,3.520,3.092,3.467,4.317,0.500,-0.028,0.000,0.017
2026-05-11 20:31:14.304511,RETURNING,32.907,1.000,-0.00,0.00,174.39,3.269,3.467,4.014,3.467,4.767,0.500,-0.039,0.000,-0.045
2026-05-11 20:31:14.510630,RETURNING,32.807,1.000,-0.00,0.00,174.02,3.316,3.365,4.086,3.365,4.576,0.500,-0.039,0.000,-0.045
2026-05-11 20:31:14.714676,RETURNING,32.708,1.000,-0.00,0.00,173.49,3.365,3.269,3.814,3.178,4.767,0.500,-0.052,0.000,-0.028
2026-05-11 20:31:14.935675,RETURNING,32.608,1.000,-0.00,0.00,173.09,3.365,3.134,4.086,3.092,3.691,0.500,-0.026,0.000,-0.042
2026-05-11 20:31:15.116258,RETURNING,32.509,1.000,-0.00,0.00,172.63,3.316,3.011,4.086,2.972,4.767,0.500,-0.063,0.000,-0.045
2026-05-11 20:31:15.323950,RETURNING,32.410,1.000,-0.00,0.00,172.12,3.316,2.934,4.014,2.934,4.767,0.500,-0.066,0.000,-0.042
2026-05-11 20:31:15.559550,RETURNING,32.311,1.000,-0.00,0.00,171.64,3.316,2.825,3.945,2.790,4.974,0.500,-0.079,0.000,-0.038
2026-05-11 20:31:15.754579,RETURNING,32.212,1.000,-0.00,0.00,171.20,3.316,2.724,3.945,2.724,5.321,0.500,-0.090,0.000,-0.038
2026-05-11 20:31:15.943738,RETURNING,32.113,1.000,-0.00,0.00,170.77,3.316,2.630,3.945,2.630,5.085,0.500,-0.092,0.000,-0.038
2026-05-11 20:31:16.152270,RETURNING,32.015,1.000,-0.00,0.00,170.34,3.223,2.542,3.520,2.514,5.200,0.500,-0.103,0.000,-0.021
2026-05-11 20:31:16.358882,RETURNING,31.916,1.000,-0.00,0.00,170.02,3.223,2.460,3.814,2.487,5.448,0.500,-0.109,0.000,-0.038
2026-05-11 20:31:16.581138,RETURNING,31.818,1.000,-0.00,0.00,169.58,2.409,2.288,3.751,2.288,5.448,0.500,-0.127,0.000,-0.119
2026-05-11 20:31:16.769111,RETURNING,31.720,1.000,-0.00,0.00,168.51,2.311,2.222,3.691,2.222,5.581,0.500,-0.135,0.000,-0.129
2026-05-11 20:31:16.991875,RETURNING,31.622,1.000,-0.00,0.00,167.02,2.266,2.159,3.632,2.179,5.581,0.500,-0.140,0.000,-0.133
2026-05-11 20:31:17.191437,RETURNING,31.525,1.000,-0.00,0.00,165.47,2.061,1.990,3.365,2.061,5.720,0.500,-0.155,0.000,-0.150
2026-05-11 20:31:17.390364,RETURNING,31.428,1.000,-0.00,0.00,163.73,1.939,1.990,3.134,1.973,6.184,0.500,-0.173,0.000,-0.157
2026-05-11 20:31:17.621588,RETURNING,31.333,1.000,-0.00,0.00,161.92,1.747,1.891,2.757,1.891,6.356,0.500,-0.186,0.000,-0.168
2026-05-11 20:31:17.824796,RETURNING,31.238,1.000,-0.00,0.00,160.03,1.646,6.022,2.487,1.682,6.538,0.500,-0.221,0.000,-0.164
2026-05-11 20:31:18.046263,RETURNING,31.145,1.000,-0.00,0.00,158.16,1.525,6.538,2.222,1.733,4.670,0.500,-0.181,0.000,-0.164
2026-05-11 20:31:18.226870,RETURNING,31.052,1.000,-0.00,0.00,156.25,1.421,5.085,2.043,4.868,4.160,0.500,0.017,0.000,-0.171
2026-05-11 20:31:18.457125,RETURNING,30.961,1.000,-0.00,0.00,154.32,1.421,5.085,2.043,4.868,4.160,0.500,0.017,0.000,-0.171
2026-05-11 20:31:18.650299,RETURNING,30.872,1.000,-0.00,0.00,152.35,1.378,4.487,1.760,4.317,3.011,0.500,0.050,0.000,-0.126
2026-05-11 20:31:18.862459,RETURNING,30.784,1.000,-0.00,0.00,151.44,5.200,3.814,1.646,3.751,2.896,0.500,0.039,0.000,0.332
2026-05-11 20:31:19.062858,RETURNING,30.695,1.000,-0.00,0.00,155.15,5.085,3.945,1.695,3.878,2.790,0.500,0.050,0.000,0.315
2026-05-11 20:31:19.265825,RETURNING,30.603,1.000,-0.00,0.00,158.82,4.487,4.400,2.061,4.670,3.945,0.500,0.020,0.000,0.210
2026-05-11 20:31:19.475581,RETURNING,30.509,1.000,-0.00,0.00,161.43,3.945,6.934,2.460,4.868,4.400,0.500,0.011,0.000,0.122
2026-05-11 20:31:19.680572,RETURNING,30.414,1.000,-0.00,0.00,163.18,3.632,6.538,2.692,4.868,6.184,0.500,-0.022,0.000,0.077
2026-05-11 20:31:19.869572,RETURNING,30.318,1.000,-0.00,0.00,164.30,3.575,6.356,2.661,4.868,6.022,0.500,-0.020,0.000,0.077
2026-05-11 20:31:20.085068,RETURNING,30.221,1.000,-0.00,0.00,165.17,3.520,5.867,2.661,4.868,5.720,0.500,-0.015,0.000,0.073
2026-05-11 20:31:20.317252,RETURNING,30.124,1.000,-0.00,0.00,166.02,3.467,5.720,3.134,4.868,5.448,0.500,-0.011,0.000,0.024
2026-05-11 20:31:20.527982,RETURNING,30.027,1.000,-0.00,0.00,166.37,3.365,5.581,3.316,4.868,5.200,0.500,-0.007,0.000,0.003
2026-05-11 20:31:20.699757,RETURNING,29.930,1.000,-0.00,0.00,166.44,3.365,5.448,3.751,4.868,5.321,0.500,-0.009,0.000,-0.024
2026-05-11 20:31:20.898761,RETURNING,29.833,1.000,-0.00,0.00,166.23,3.269,5.448,3.945,4.868,5.085,0.500,-0.004,0.000,-0.042
2026-05-11 20:31:21.094888,RETURNING,29.736,1.000,-0.00,0.00,165.75,3.316,5.321,3.878,4.868,5.321,0.500,-0.009,0.000,-0.035
2026-05-11 20:31:21.321330,RETURNING,29.639,1.000,-0.00,0.00,165.34,3.223,5.448,3.945,4.868,5.085,0.500,-0.004,0.000,-0.045
2026-05-11 20:31:21.541342,RETURNING,29.542,1.000,-0.00,0.00,164.85,3.269,5.321,4.487,4.868,5.200,0.500,-0.007,0.000,-0.066
2026-05-11 20:31:21.761319,RETURNING,29.446,1.000,-0.00,0.00,164.18,3.269,5.448,4.160,4.868,5.085,0.500,-0.004,0.000,-0.052
2026-05-11 20:31:21.950433,RETURNING,29.350,1.000,-0.00,0.00,163.59,3.316,5.321,4.086,4.868,2.384,0.500,0.107,0.000,-0.045
2026-05-11 20:31:22.167226,RETURNING,29.254,1.000,-0.00,0.00,163.07,3.223,5.321,3.878,4.868,5.321,0.500,-0.009,0.000,-0.042
2026-05-11 20:31:22.342960,RETURNING,29.158,1.000,-0.00,0.00,162.61,3.269,5.200,4.160,4.767,5.200,0.500,-0.009,0.000,-0.052
2026-05-11 20:31:22.571296,RETURNING,29.063,1.000,-0.00,0.00,162.05,3.223,5.321,4.086,4.868,5.200,0.500,-0.007,0.000,-0.052
2026-05-11 20:31:22.760113,RETURNING,28.968,1.000,-0.00,0.00,161.48,3.269,5.448,3.878,4.868,5.321,0.500,-0.009,0.000,-0.038
2026-05-11 20:31:22.986523,RETURNING,28.873,1.000,-0.00,0.00,161.05,3.269,5.321,3.751,4.767,5.321,0.500,-0.011,0.000,-0.031
2026-05-11 20:31:23.188114,RETURNING,28.779,1.000,-0.00,0.00,160.66,3.223,5.448,3.751,4.868,1.404,0.468,0.253,0.000,-0.035
2026-05-11 20:31:23.383470,RETURNING,28.687,1.000,-0.00,0.00,160.23,3.365,5.448,3.814,4.974,5.200,0.500,-0.004,0.000,-0.028
2026-05-11 20:31:23.578972,RETURNING,28.593,1.000,-0.00,0.00,159.89,3.365,5.448,3.751,4.974,5.200,0.500,-0.004,0.000,-0.024
2026-05-11 20:31:23.789952,RETURNING,28.499,1.000,-0.00,0.00,159.59,3.365,5.448,3.632,4.868,5.321,0.500,-0.009,0.000,-0.017
2026-05-11 20:31:24.028095,RETURNING,28.406,1.000,-0.00,0.00,159.33,3.316,5.581,3.945,4.868,5.321,0.500,-0.009,0.000,-0.038
2026-05-11 20:31:24.201859,RETURNING,28.312,1.000,-0.00,0.00,158.95,3.316,5.581,4.014,4.868,5.085,0.500,-0.004,0.000,-0.042
2026-05-11 20:31:24.401089,RETURNING,28.219,1.000,-0.00,0.00,158.50,3.316,5.581,4.086,4.868,5.200,0.500,-0.007,0.000,-0.045
2026-05-11 20:31:24.623231,RETURNING,28.126,1.000,-0.00,0.00,157.99,3.269,5.720,3.945,4.767,0.706,0.235,0.400,0.000,-0.042
2026-05-11 20:31:24.820780,RETURNING,28.060,1.000,-0.00,0.00,157.51,3.316,5.720,3.945,4.868,0.708,0.236,0.400,0.000,-0.038
2026-05-11 20:31:25.007238,RETURNING,28.017,1.000,-0.00,0.00,157.08,3.269,5.867,3.751,4.868,5.085,0.500,-0.004,0.000,-0.031
2026-05-11 20:31:25.226647,RETURNING,27.938,1.000,-0.00,0.00,156.71,3.316,6.022,3.751,4.767,5.448,0.500,-0.013,0.000,-0.028
2026-05-11 20:31:25.431160,RETURNING,27.847,1.000,-0.00,0.00,156.39,3.316,5.867,3.751,4.767,5.448,0.500,-0.013,0.000,-0.028
2026-05-11 20:31:25.665759,RETURNING,27.755,1.000,-0.00,0.00,156.07,3.269,4.160,3.751,4.868,4.160,0.500,0.017,0.000,-0.031
2026-05-11 20:31:25.849783,RETURNING,27.664,1.000,-0.00,0.00,155.73,3.269,5.720,3.814,4.868,5.581,0.500,-0.013,0.000,-0.035
2026-05-11 20:31:26.056370,RETURNING,27.573,1.000,-0.00,0.00,155.35,3.223,5.581,3.691,4.974,5.720,0.500,-0.013,0.000,-0.031
2026-05-11 20:31:26.265657,RETURNING,27.482,1.000,-0.00,0.00,154.95,3.178,4.767,3.751,4.974,4.576,0.500,0.009,0.000,-0.038
2026-05-11 20:31:26.470655,RETURNING,27.391,1.000,-0.00,0.00,154.52,3.223,5.720,3.575,4.974,5.321,0.500,-0.007,0.000,-0.024
2026-05-11 20:31:26.663981,RETURNING,27.301,1.000,-0.00,0.00,154.21,3.223,5.720,3.632,4.868,5.448,0.500,-0.011,0.000,-0.028
2026-05-11 20:31:26.863500,RETURNING,27.211,1.000,-0.00,0.00,153.90,3.092,5.867,3.575,4.868,5.581,0.500,-0.013,0.000,-0.035
2026-05-11 20:31:27.099921,RETURNING,27.122,1.000,-0.00,0.00,153.50,3.092,4.670,3.520,4.868,4.670,0.500,0.004,0.000,-0.031
2026-05-11 20:31:27.305093,RETURNING,27.032,1.000,-0.00,0.00,153.14,3.178,6.356,3.467,4.767,5.321,0.500,-0.011,0.000,-0.021
2026-05-11 20:31:27.537164,RETURNING,26.943,1.000,-0.00,0.00,152.88,3.134,6.184,3.415,4.868,5.321,0.500,-0.009,0.000,-0.021
2026-05-11 20:31:27.748170,RETURNING,26.854,1.000,-0.00,0.00,152.65,3.178,6.356,3.415,4.868,5.321,0.500,-0.009,0.000,-0.017
2026-05-11 20:31:27.953417,RETURNING,26.766,1.000,-0.00,0.00,152.45,3.178,5.448,3.365,4.868,5.200,0.500,-0.007,0.000,-0.014
2026-05-11 20:31:28.178785,RETURNING,26.677,1.000,-0.00,0.00,152.26,3.134,6.730,3.365,4.868,5.321,0.500,-0.009,0.000,-0.017
2026-05-11 20:31:28.395229,RETURNING,26.589,1.000,-0.00,0.00,152.08,3.134,6.538,3.316,4.868,5.448,0.500,-0.011,0.000,-0.014
2026-05-11 20:31:28.574073,RETURNING,26.500,1.000,-0.00,0.00,151.89,3.178,6.538,3.316,4.868,6.184,0.500,-0.022,0.000,-0.010
2026-05-11 20:31:28.786553,RETURNING,26.412,1.000,-0.00,0.00,151.76,3.134,4.237,3.269,4.974,4.237,0.500,0.017,0.000,-0.010
2026-05-11 20:31:29.001976,RETURNING,26.324,1.000,-0.00,0.00,151.62,3.134,6.356,3.415,4.868,4.086,0.500,0.020,0.000,-0.021
2026-05-11 20:31:29.215691,RETURNING,26.236,1.000,-0.00,0.00,151.35,3.134,4.237,3.415,4.868,4.400,0.500,0.011,0.000,-0.021
2026-05-11 20:31:29.382126,RETURNING,26.148,1.000,-0.00,0.00,151.09,3.178,6.184,3.415,4.868,4.767,0.500,0.002,0.000,-0.017
2026-05-11 20:31:29.615548,RETURNING,26.061,1.000,-0.00,0.00,150.86,3.134,5.581,3.415,4.868,4.160,0.500,0.017,0.000,-0.021
2026-05-11 20:31:29.818241,RETURNING,25.974,1.000,-0.00,0.00,150.64,3.178,5.581,3.415,4.868,5.200,0.500,-0.007,0.000,-0.017
2026-05-11 20:31:30.037939,RETURNING,25.887,1.000,-0.00,0.00,150.42,3.178,5.720,3.415,4.868,4.974,0.500,-0.002,0.000,-0.017
2026-05-11 20:31:30.233638,RETURNING,25.800,1.000,-0.00,0.00,150.22,3.178,5.581,3.415,4.868,5.448,0.500,-0.011,0.000,-0.017
2026-05-11 20:31:30.423240,RETURNING,25.713,1.000,-0.00,0.00,150.02,3.223,5.581,3.415,4.868,3.092,0.500,0.059,0.000,-0.014
2026-05-11 20:31:30.657506,RETURNING,25.627,1.000,-0.00,0.00,149.85,3.223,5.321,3.415,4.868,4.670,0.500,0.004,0.000,-0.014
2026-05-11 20:31:30.842046,RETURNING,25.540,1.000,-0.00,0.00,149.68,3.178,5.321,3.415,4.868,4.400,0.500,0.011,0.000,-0.017
2026-05-11 20:31:31.073694,RETURNING,25.454,1.000,-0.00,0.00,149.47,3.178,5.200,3.415,4.868,4.317,0.500,0.013,0.000,-0.017
2026-05-11 20:31:31.275967,RETURNING,25.368,1.000,-0.00,0.00,149.24,3.134,5.200,3.467,4.767,4.317,0.500,0.011,0.000,-0.024
2026-05-11 20:31:31.456876,RETURNING,25.282,1.000,-0.00,0.00,148.97,3.134,4.974,3.467,4.767,4.974,0.500,-0.004,0.000,-0.024
2026-05-11 20:31:31.675491,RETURNING,25.196,1.000,-0.00,0.00,148.71,3.134,4.868,3.467,4.868,4.160,0.500,0.017,0.000,-0.024
2026-05-11 20:31:31.873380,RETURNING,25.132,1.000,-0.00,0.00,148.51,3.051,4.868,3.467,4.868,4.868,0.500,0.000,0.000,-0.031
2026-05-11 20:31:32.075032,RETURNING,25.026,1.000,-0.00,0.00,148.08,2.972,4.487,3.467,4.868,3.575,0.500,0.037,0.000,-0.038
2026-05-11 20:31:32.291728,RETURNING,24.941,1.000,-0.00,0.00,147.62,2.934,4.400,3.467,4.868,4.400,0.500,0.011,0.000,-0.042
2026-05-11 20:31:32.493044,RETURNING,24.857,1.000,-0.00,0.00,147.14,2.972,4.317,3.467,4.868,4.237,0.500,0.015,0.000,-0.038
2026-05-11 20:31:32.690662,RETURNING,24.773,1.000,-0.00,0.00,146.70,3.051,4.237,3.415,4.868,3.365,0.500,0.046,0.000,-0.028
2026-05-11 20:31:32.921893,RETURNING,24.690,1.000,-0.00,0.00,146.38,3.134,4.317,3.365,4.974,3.415,0.500,0.046,0.000,-0.017
2026-05-11 20:31:33.124847,RETURNING,24.607,1.000,-0.00,0.00,146.17,3.223,4.576,3.365,4.868,3.632,0.500,0.035,0.000,-0.010
2026-05-11 20:31:33.327880,RETURNING,24.524,1.000,-0.00,0.00,146.04,3.316,4.487,3.316,4.767,3.011,0.500,0.061,0.000,0.000
2026-05-11 20:31:33.541694,RETURNING,24.441,1.000,-0.00,0.00,146.03,3.365,4.400,3.223,4.868,3.632,0.500,0.035,0.000,0.010
2026-05-11 20:31:33.745982,RETURNING,24.358,1.000,-0.00,0.00,146.13,3.467,4.086,3.223,4.868,3.316,0.500,0.048,0.000,0.017
2026-05-11 20:31:33.958183,RETURNING,24.275,1.000,-0.00,0.00,146.33,3.575,4.237,3.223,4.767,3.415,0.500,0.042,0.000,0.024
2026-05-11 20:31:34.143990,RETURNING,24.191,1.000,-0.00,0.00,146.60,3.575,4.160,3.223,4.868,3.223,0.500,0.052,0.000,0.024
2026-05-11 20:31:35.117795,RETURNING,24.108,1.000,-0.00,0.00,146.88,3.575,3.878,3.223,4.868,3.269,0.500,0.050,0.000,0.024
2026-05-11 20:31:36.170050,RETURNING,24.024,1.000,-0.00,0.00,147.19,3.520,3.751,3.092,4.868,3.691,0.500,0.033,0.000,0.031
2026-05-11 20:31:36.268584,RETURNING,24.003,1.000,-0.00,0.00,147.28,3.520,3.751,3.092,4.868,3.691,0.500,0.033,0.000,0.031
2026-05-11 20:31:36.466084,RETURNING,23.813,1.000,-0.00,0.00,148.09,3.316,3.691,3.051,4.868,2.200,0.500,0.125,0.000,0.021
2026-05-11 20:31:36.658021,RETURNING,23.728,1.000,-0.00,0.00,148.38,3.269,3.467,3.011,4.868,2.757,0.500,0.079,0.000,0.021
2026-05-11 20:31:36.836172,RETURNING,23.642,1.000,-0.00,0.00,148.62,3.134,3.316,2.934,4.868,2.896,0.500,0.070,0.000,0.017
2026-05-11 20:31:37.062473,RETURNING,23.557,1.000,-0.00,0.00,148.83,3.011,3.178,2.972,4.868,2.692,0.500,0.083,0.000,0.003
2026-05-11 20:31:37.247015,RETURNING,23.471,1.000,-0.00,0.00,148.91,2.860,2.934,2.972,4.868,2.724,0.500,0.081,0.000,-0.010
2026-05-11 20:31:37.486605,RETURNING,23.391,1.000,-0.00,0.00,148.84,2.825,2.757,3.011,4.868,3.051,0.500,0.061,0.000,-0.017
2026-05-11 20:31:37.683097,RETURNING,23.320,1.000,-0.00,0.00,148.66,2.757,2.790,3.011,4.868,1.923,0.500,0.157,0.000,-0.024
2026-05-11 20:31:37.891055,RETURNING,23.235,1.000,-0.00,0.00,148.36,2.600,2.757,3.011,4.868,1.973,0.500,0.151,0.000,-0.042
2026-05-11 20:31:38.088203,RETURNING,23.150,1.000,-0.00,0.00,147.92,2.487,7.151,2.972,4.767,0.978,0.326,0.400,0.000,-0.052
2026-05-11 20:31:38.299793,RETURNING,23.080,1.000,-0.00,0.00,147.33,2.359,7.381,2.934,4.868,1.907,0.500,0.160,0.000,-0.066
2026-05-11 20:31:38.508739,RETURNING,22.999,1.000,-0.00,0.00,146.56,2.222,8.801,2.860,4.767,4.400,0.500,0.009,0.000,-0.080
2026-05-11 20:31:38.724395,RETURNING,22.923,1.000,-0.00,0.00,145.64,2.179,8.801,2.757,4.868,4.400,0.500,0.011,0.000,-0.077
2026-05-11 20:31:38.945759,RETURNING,22.841,1.000,-0.00,0.00,144.70,1.956,8.172,2.661,4.868,3.365,0.500,0.046,0.000,-0.108
2026-05-11 20:31:39.136455,RETURNING,22.760,1.000,-0.00,0.00,143.45,1.891,7.381,2.600,4.868,4.086,0.500,0.020,0.000,-0.115
2026-05-11 20:31:39.333853,RETURNING,22.680,1.000,-0.00,0.00,142.15,1.891,4.400,2.487,4.868,3.365,0.500,0.046,0.000,-0.101
2026-05-11 20:31:39.539997,RETURNING,22.602,1.000,-0.00,0.00,141.01,1.907,6.356,2.335,4.767,3.223,0.500,0.050,0.000,-0.077
2026-05-11 20:31:39.747424,RETURNING,22.524,1.000,-0.00,0.00,140.09,1.860,5.321,2.266,4.576,3.092,0.500,0.052,0.000,-0.077
2026-05-11 20:31:39.955357,RETURNING,22.448,1.000,-0.00,0.00,139.21,1.747,4.767,2.179,4.576,2.790,0.500,0.070,0.000,-0.091
2026-05-11 20:31:40.185549,RETURNING,22.373,1.000,-0.00,0.00,138.25,4.974,4.576,2.080,4.487,2.790,0.500,0.068,0.000,0.224
2026-05-11 20:31:40.376008,RETURNING,22.298,1.000,-0.00,0.00,139.20,4.974,4.487,2.043,4.400,2.860,0.500,0.061,0.000,0.231
2026-05-11 20:31:40.594640,RETURNING,22.221,1.000,-0.00,0.00,141.79,4.576,5.321,2.159,4.670,2.661,0.500,0.081,0.000,0.196
2026-05-11 20:31:40.795893,RETURNING,22.142,1.000,-0.00,0.00,144.04,4.400,6.538,2.335,4.868,3.632,0.500,0.035,0.000,0.161
2026-05-11 20:31:40.989346,RETURNING,22.060,1.000,-0.00,0.00,145.39,1.448,7.381,2.600,4.868,4.317,0.500,0.013,0.000,-0.245
2026-05-11 20:31:41.215547,RETURNING,21.979,1.000,-0.00,0.00,143.50,4.086,6.934,2.460,4.767,3.365,0.500,0.044,0.000,0.129
2026-05-11 20:31:41.408814,RETURNING,21.898,1.000,-0.00,0.00,144.88,4.014,7.151,2.460,4.767,3.269,0.500,0.048,0.000,0.126
2026-05-11 20:31:41.603555,RETURNING,21.815,1.000,-0.00,0.00,146.31,3.751,7.890,2.692,4.868,3.691,0.500,0.033,0.000,0.084
2026-05-11 20:31:41.814032,RETURNING,21.731,1.000,-0.00,0.00,147.32,3.632,8.475,2.757,4.868,2.487,0.500,0.098,0.000,0.070
2026-05-11 20:31:42.016888,RETURNING,21.647,1.000,-0.00,0.00,148.16,3.520,7.890,2.934,4.868,4.576,0.500,0.007,0.000,0.045
2026-05-11 20:31:42.260499,RETURNING,21.562,1.000,-0.00,0.00,148.75,3.467,7.627,2.972,4.868,6.356,0.500,-0.024,0.000,0.038
2026-05-11 20:31:42.472645,RETURNING,21.476,1.000,-0.00,0.00,149.21,3.365,7.627,2.972,4.868,7.381,0.500,-0.035,0.000,0.031
2026-05-11 20:31:42.637659,RETURNING,21.390,1.000,-0.00,0.00,149.59,3.316,6.934,3.051,4.974,5.321,0.500,-0.007,0.000,0.021
2026-05-11 20:31:42.858100,RETURNING,21.304,1.000,-0.00,0.00,149.84,3.316,7.151,3.092,4.868,6.730,0.500,-0.028,0.000,0.017
2026-05-11 20:31:43.061831,RETURNING,21.217,1.000,-0.00,0.00,150.04,3.223,7.151,3.178,4.868,6.184,0.500,-0.022,0.000,0.003
