timestamp,state,x,y,z,roll_deg,pitch_deg,yaw_deg,dist_left,dist_center,dist_right,dist_top,dist_bottom,dtof_alert,collision_event,best_dir,max_space,cmd_vx,cmd_vz,cmd_yaw
22:40:42.770,SEARCHING,0.000,0.000,1.000,0.00,0.00,0.00,7.837,7.381,7.338,7.383,7.386,0,0,SEARCHING,0.000,0.240,0.000,0.002
22:40:42.921,SEARCHING,0.048,0.000,1.000,0.00,0.00,0.68,2.812,1.323,1.173,1.328,1.335,0,0,SEARCHING,0.000,0.373,0.000,0.252
22:40:43.122,SEARCHING,0.119,0.003,1.000,0.00,0.00,4.12,2.591,1.229,1.023,1.230,1.236,0,0,SEARCHING,0.000,0.314,0.000,0.405
22:40:43.323,SEARCHING,0.179,0.009,1.007,0.00,0.00,8.01,2.358,3.238,0.974,3.412,2.245,0,0,SEARCHING,0.000,0.581,0.125,0.464
22:40:43.523,SEARCHING,0.260,0.022,1.036,0.00,0.00,11.26,2.202,3.588,0.950,3.647,2.466,0,0,SEARCHING,0.000,0.747,0.156,0.476
22:40:43.724,SEARCHING,0.351,0.043,1.067,0.00,0.00,14.55,2.073,3.308,0.919,3.307,2.572,0,0,SEARCHING,0.000,0.787,0.131,0.480
22:40:43.924,SEARCHING,0.442,0.069,1.090,0.00,0.00,17.88,2.019,2.943,1.966,2.939,2.642,0,0,SEARCHING,0.000,0.797,0.069,0.344
22:40:44.124,SEARCHING,0.533,0.099,1.099,0.00,0.00,18.83,1.973,2.704,3.935,2.703,2.647,0,0,SEARCHING,0.000,0.799,0.016,-0.038
22:40:44.325,SEARCHING,0.654,0.139,1.100,0.00,0.00,17.75,1.849,2.626,4.109,2.623,2.618,0,0,SEARCHING,0.000,0.800,0.004,-0.179
22:40:44.525,SEARCHING,0.807,0.186,1.100,0.00,0.00,15.49,1.722,2.640,4.194,2.630,2.611,0,0,SEARCHING,0.000,0.800,0.001,-0.242
22:40:44.726,SEARCHING,0.963,0.225,1.100,0.00,0.00,12.61,1.701,2.737,4.406,2.718,2.652,0,0,SEARCHING,0.000,0.800,0.000,-0.273
22:40:44.928,SEARCHING,1.119,0.256,1.100,0.00,0.00,9.42,1.725,2.840,4.994,2.845,2.679,0,0,SEARCHING,0.000,0.800,0.000,-0.291
22:40:45.127,SEARCHING,1.278,0.278,1.100,0.00,0.00,6.02,1.774,2.856,6.534,2.855,2.691,0,0,SEARCHING,0.000,0.800,0.000,-0.313
22:40:45.328,SEARCHING,1.437,0.290,1.100,0.00,0.00,2.38,1.877,2.945,7.348,2.926,2.701,0,0,SEARCHING,0.000,0.800,0.000,-0.323
22:40:45.529,SEARCHING,1.597,0.292,1.100,0.00,0.00,-1.26,2.018,3.122,5.679,3.107,2.695,0,0,SEARCHING,0.000,0.800,0.018,-0.291
22:40:45.729,SEARCHING,1.693,0.289,1.106,0.00,0.00,-3.10,2.121,3.263,4.759,3.278,2.691,0,0,SEARCHING,0.000,0.800,0.060,-0.241
22:40:45.930,SEARCHING,1.789,0.283,1.120,0.00,0.00,-4.64,2.104,3.410,4.431,3.390,2.718,0,0,SEARCHING,0.000,0.800,0.079,-0.211
22:40:46.131,SEARCHING,1.885,0.274,1.137,0.00,0.00,-6.05,2.074,3.509,4.245,3.485,2.768,0,0,SEARCHING,0.000,0.800,0.087,-0.202
22:40:46.330,SEARCHING,1.980,0.263,1.155,0.00,0.00,-7.42,2.085,3.751,4.046,3.694,2.808,0,0,SEARCHING,0.000,0.800,0.096,-0.193
22:40:46.532,SEARCHING,2.075,0.250,1.175,0.00,0.00,-8.71,2.090,4.080,3.900,4.077,2.811,0,0,SEARCHING,0.000,0.800,0.114,-0.184
22:40:46.732,SEARCHING,2.170,0.234,1.199,0.00,0.00,-9.94,2.119,4.825,3.664,4.875,2.874,0,0,SEARCHING,0.000,0.800,0.146,-0.170
22:40:46.933,SEARCHING,2.264,0.217,1.231,0.00,0.00,-11.06,2.143,5.161,3.547,5.132,3.012,0,0,SEARCHING,0.000,0.800,0.166,-0.156
22:40:47.134,SEARCHING,2.358,0.198,1.264,0.00,0.00,-12.10,2.193,5.526,3.465,5.177,3.094,0,0,SEARCHING,0.000,0.800,0.160,-0.143
22:40:47.334,SEARCHING,2.452,0.177,1.295,0.00,0.00,-13.04,2.208,6.494,3.322,5.180,3.184,0,0,SEARCHING,0.000,0.800,0.151,-0.131
22:40:47.534,SEARCHING,2.546,0.155,1.324,0.00,0.00,-13.90,2.241,7.116,3.231,5.114,3.266,0,0,SEARCHING,0.000,0.800,0.141,-0.118
22:40:47.734,SEARCHING,2.639,0.131,1.352,0.00,0.00,-14.67,2.276,7.773,3.148,5.045,3.304,0,0,SEARCHING,0.000,0.800,0.131,-0.105
22:40:47.936,SEARCHING,2.731,0.106,1.377,0.00,0.00,-15.36,2.287,7.819,3.017,4.980,3.342,0,0,SEARCHING,0.000,0.800,0.122,-0.094
22:40:48.136,SEARCHING,2.824,0.080,1.401,0.00,0.00,-15.97,2.306,7.480,2.971,4.906,3.437,0,0,SEARCHING,0.000,0.800,0.114,-0.084
22:40:48.337,SEARCHING,2.916,0.054,1.423,0.00,0.00,-16.52,2.298,7.246,2.912,4.857,3.470,0,0,SEARCHING,0.000,0.800,0.103,-0.076
22:40:48.538,SEARCHING,3.008,0.026,1.443,0.00,0.00,-17.03,2.326,7.051,2.855,4.815,3.454,0,0,SEARCHING,0.000,0.800,0.098,-0.070
22:40:48.738,SEARCHING,3.100,-0.002,1.462,0.00,0.00,-17.49,2.364,6.924,2.785,4.752,3.584,0,0,SEARCHING,0.000,0.800,0.089,-0.062
22:40:48.939,SEARCHING,3.191,-0.032,1.480,0.00,0.00,-17.86,2.534,6.727,2.705,4.694,3.639,0,0,SEARCHING,0.000,0.800,0.081,-0.041
22:40:50.465,SEARCHING,3.267,-0.056,1.495,0.00,0.00,-18.05,2.534,6.727,2.705,4.694,3.639,0,0,SEARCHING,0.000,0.800,0.076,-0.025
22:40:50.531,SEARCHING,3.343,-0.081,1.510,0.00,0.00,-18.18,2.689,6.670,2.683,4.687,3.672,0,0,SEARCHING,0.000,0.800,0.074,-0.015
22:40:50.709,SEARCHING,3.434,-0.111,1.525,0.00,0.00,-18.18,3.006,6.449,2.614,4.598,3.794,0,0,SEARCHING,0.000,0.800,0.064,0.019
22:40:50.906,SEARCHING,3.526,-0.141,1.537,0.00,0.00,-17.98,2.990,6.403,2.607,4.553,3.810,0,0,SEARCHING,0.000,0.800,0.056,0.035
22:40:51.106,SEARCHING,3.617,-0.170,1.548,0.00,0.00,-17.74,2.990,6.441,2.633,4.508,3.823,0,0,SEARCHING,0.000,0.800,0.037,0.036
22:40:51.306,SEARCHING,3.709,-0.199,1.552,0.00,0.00,-17.48,3.008,6.423,2.586,4.498,3.810,0,0,SEARCHING,0.000,0.800,0.009,0.039
22:40:51.507,SEARCHING,3.861,-0.247,1.552,0.00,0.00,-17.02,2.967,6.650,2.528,4.494,3.698,0,0,SEARCHING,0.000,0.800,0.019,0.044
22:40:51.707,SEARCHING,3.953,-0.275,1.557,0.00,0.00,-16.70,2.913,6.503,2.510,4.496,3.833,0,0,SEARCHING,0.000,0.800,0.011,0.046
22:40:51.908,SEARCHING,4.076,-0.311,1.557,0.00,0.00,-16.29,2.883,6.661,2.507,4.531,3.763,0,0,SEARCHING,0.000,0.800,0.019,0.043
22:40:52.108,SEARCHING,4.168,-0.338,1.564,0.00,0.00,-16.01,2.838,6.664,2.497,4.542,3.806,0,0,SEARCHING,0.000,0.800,0.045,0.040
22:40:52.309,SEARCHING,4.260,-0.364,1.573,0.00,0.00,-15.73,2.818,6.682,2.466,4.517,3.832,0,0,SEARCHING,0.000,0.800,0.034,0.040
22:40:52.510,SEARCHING,4.353,-0.390,1.578,0.00,0.00,-15.46,2.805,6.754,2.489,4.517,3.844,0,0,SEARCHING,0.000,0.800,0.008,0.038
22:40:52.710,SEARCHING,4.507,-0.432,1.578,0.00,0.00,-15.03,2.735,6.733,2.461,4.522,3.874,0,0,SEARCHING,0.000,0.800,0.002,0.036
22:40:52.910,SEARCHING,4.662,-0.473,1.578,0.00,0.00,-14.64,2.728,6.730,2.531,4.559,3.867,0,0,SEARCHING,0.000,0.800,0.000,0.028
22:40:53.111,SEARCHING,4.817,-0.513,1.578,0.00,0.00,-14.35,2.714,6.628,2.689,4.581,3.933,0,0,SEARCHING,0.000,0.800,0.000,0.014
22:40:53.312,SEARCHING,4.972,-0.553,1.578,0.00,0.00,-14.24,2.662,6.548,2.718,4.634,3.852,0,0,SEARCHING,0.000,0.800,0.016,0.001
22:40:53.512,SEARCHING,5.065,-0.576,1.581,0.00,0.00,-14.26,2.620,6.511,2.740,4.616,3.891,0,0,SEARCHING,0.000,0.800,0.009,-0.008
22:40:53.713,SEARCHING,5.220,-0.616,1.581,0.00,0.00,-14.37,2.655,6.281,2.818,4.603,3.978,0,0,SEARCHING,0.000,0.800,0.002,-0.013
22:40:53.913,SEARCHING,5.375,-0.656,1.581,0.00,0.00,-14.54,2.635,5.966,2.859,4.573,3.948,0,0,SEARCHING,0.000,0.800,0.001,-0.020
22:40:54.114,SEARCHING,5.530,-0.696,1.581,0.00,0.00,-14.77,2.637,5.757,2.723,4.530,3.981,0,0,SEARCHING,0.000,0.800,0.000,-0.018
22:40:54.315,SEARCHING,5.684,-0.737,1.581,0.00,0.00,-14.91,3.296,5.514,3.113,4.564,3.979,0,0,SEARCHING,0.000,0.800,0.000,0.001
22:40:54.515,SEARCHING,5.839,-0.778,1.581,0.00,0.00,-14.86,3.763,5.259,3.447,4.513,3.993,0,0,SEARCHING,0.000,0.800,0.000,0.014
22:40:54.716,SEARCHING,5.994,-0.819,1.581,0.00,0.00,-14.67,3.819,5.122,3.402,4.511,3.985,0,0,SEARCHING,0.000,0.800,0.000,0.022
22:40:54.916,SEARCHING,6.148,-0.859,1.581,0.00,0.00,-14.40,3.814,5.249,3.281,4.503,3.984,0,0,SEARCHING,0.000,0.800,0.000,0.029
22:40:55.116,SEARCHING,6.304,-0.899,1.581,0.00,0.00,-14.04,3.769,5.005,3.089,4.502,3.965,0,0,SEARCHING,0.000,0.800,0.000,0.039
22:40:55.317,SEARCHING,6.459,-0.937,1.581,0.00,0.00,-13.56,3.735,4.895,3.009,4.513,3.947,0,0,SEARCHING,0.000,0.800,0.000,0.048
22:40:55.519,SEARCHING,6.615,-0.974,1.581,0.00,0.00,-13.00,3.689,4.782,2.994,4.537,3.946,0,0,SEARCHING,0.000,0.800,0.000,0.050
22:40:55.718,SEARCHING,6.771,-1.009,1.581,0.00,0.00,-12.43,3.632,4.660,3.009,4.567,3.861,0,0,SEARCHING,0.000,0.800,0.000,0.048
22:40:55.919,SEARCHING,6.896,-1.036,1.583,0.00,0.00,-12.00,3.570,4.531,3.058,4.507,3.548,0,0,SEARCHING,0.000,0.800,0.044,0.042
22:40:56.120,SEARCHING,6.990,-1.056,1.594,0.00,0.00,-11.73,3.490,4.455,3.109,4.432,3.528,0,0,SEARCHING,0.000,0.800,0.066,0.035
22:40:56.320,SEARCHING,7.084,-1.075,1.608,0.00,0.00,-11.51,3.418,4.344,3.127,4.350,3.484,0,0,SEARCHING,0.000,0.800,0.068,0.027
22:40:56.521,SEARCHING,7.178,-1.095,1.621,0.00,0.00,-11.35,3.383,4.287,3.176,4.269,3.398,0,0,SEARCHING,0.000,0.800,0.069,0.021
22:40:56.721,SEARCHING,7.272,-1.113,1.636,0.00,0.00,-11.23,3.336,4.059,3.212,4.168,3.260,0,0,SEARCHING,0.000,0.800,0.078,0.013
22:40:56.922,SEARCHING,7.366,-1.132,1.652,0.00,0.00,-11.15,3.298,3.875,3.163,4.044,3.100,0,0,SEARCHING,0.000,0.800,0.084,0.011
22:40:57.122,SEARCHING,7.460,-1.150,1.669,0.00,0.00,-11.07,3.301,3.711,3.181,4.019,3.043,0,0,SEARCHING,0.000,0.800,0.092,0.010
22:40:57.322,SEARCHING,7.555,-1.169,1.687,0.00,0.00,-11.01,3.304,3.468,3.205,3.898,3.001,0,0,SEARCHING,0.000,0.800,0.092,0.009
22:40:57.523,SEARCHING,7.680,-1.193,1.704,0.00,0.00,-10.93,3.282,3.337,3.189,3.796,2.930,0,0,SEARCHING,0.000,0.800,0.091,0.008
22:40:57.724,SEARCHING,7.774,-1.211,1.724,0.00,0.00,-10.88,3.352,3.237,3.177,3.678,2.826,0,0,SEARCHING,0.000,0.800,0.097,0.009
22:40:57.924,SEARCHING,7.869,-1.229,1.744,0.00,0.00,-10.81,3.310,3.225,3.137,3.560,2.795,0,0,SEARCHING,0.000,0.800,0.095,0.012
22:40:58.125,SEARCHING,7.963,-1.247,1.762,0.00,0.00,-10.63,3.682,3.187,3.099,3.478,2.729,0,0,SEARCHING,0.000,0.800,0.094,0.040
22:40:58.326,SEARCHING,8.057,-1.265,1.781,0.00,0.00,-10.39,3.288,3.195,3.074,3.414,2.696,0,0,SEARCHING,0.000,0.800,0.094,0.025
22:40:58.527,SEARCHING,8.152,-1.282,1.800,0.00,0.00,-10.08,5.109,3.147,3.027,3.324,2.692,0,0,SEARCHING,0.000,0.800,0.090,0.080
22:40:58.727,SEARCHING,8.262,-1.301,1.816,0.00,0.00,-9.29,6.227,3.089,3.001,3.217,2.655,0,0,SEARCHING,0.000,0.800,0.082,0.117
22:40:58.927,SEARCHING,8.357,-1.316,1.834,0.00,0.00,-8.40,7.013,3.013,3.002,3.116,2.629,0,0,SEARCHING,0.000,0.800,0.076,0.141
22:40:59.128,SEARCHING,8.452,-1.329,1.848,0.00,0.00,-7.37,8.617,2.957,3.040,3.015,2.675,0,0,SEARCHING,0.000,0.800,0.063,0.159
22:40:59.328,SEARCHING,8.548,-1.341,1.857,0.00,0.00,-6.25,9.081,2.878,3.108,2.903,2.714,0,0,SEARCHING,0.000,0.800,0.015,0.167
22:40:59.528,SEARCHING,8.675,-1.353,1.858,0.00,0.00,-4.72,9.040,2.807,3.192,2.820,2.725,0,0,SEARCHING,0.000,0.800,0.004,0.165
22:40:59.730,SEARCHING,8.835,-1.364,1.858,0.00,0.00,-2.92,4.033,2.549,3.335,2.645,2.632,0,0,SEARCHING,0.000,0.800,0.001,0.110
22:40:59.930,SEARCHING,8.994,-1.371,1.858,0.00,0.00,-1.93,3.305,2.284,3.378,2.406,2.482,0,0,SEARCHING,0.000,0.800,0.000,0.030
22:41:00.129,SEARCHING,9.154,-1.376,1.858,0.00,0.00,-1.70,3.296,2.228,3.435,2.271,2.247,0,0,SEARCHING,0.000,0.800,0.000,0.000
22:41:00.330,SEARCHING,9.314,-1.380,1.858,0.00,0.00,-1.64,6.467,2.177,2.511,2.189,2.179,0,0,SEARCHING,0.000,0.800,0.000,0.071
22:41:00.531,SEARCHING,9.474,-1.384,1.858,0.00,0.00,-0.33,9.167,2.021,2.087,2.012,2.025,0,0,SEARCHING,0.000,0.800,0.000,0.222
22:41:00.732,SEARCHING,9.633,-1.382,1.858,0.00,0.00,2.43,5.201,1.878,1.914,1.870,1.865,0,0,SEARCHING,0.000,0.758,0.000,0.268
22:41:00.933,SEARCHING,9.779,-1.372,1.858,0.00,0.00,5.40,3.002,1.722,1.717,1.731,1.720,0,0,SEARCHING,0.000,0.657,0.000,0.227
22:41:01.133,SEARCHING,9.905,-1.358,1.858,0.00,0.00,7.91,2.592,1.666,1.564,1.670,1.669,0,0,SEARCHING,0.000,0.576,0.000,0.206
22:41:01.333,SEARCHING,10.024,-1.339,1.858,0.00,0.00,10.30,2.401,5.012,1.422,1.706,2.014,0,0,SEARCHING,0.000,0.719,-0.032,0.219
22:41:01.534,SEARCHING,10.113,-1.321,1.853,0.00,0.00,11.87,2.254,6.981,1.307,3.501,2.632,0,0,SEARCHING,0.000,0.780,0.046,0.242
22:41:01.735,SEARCHING,10.206,-1.301,1.866,0.00,0.00,13.62,2.135,7.637,1.202,3.825,3.409,0,0,SEARCHING,0.000,0.795,0.049,0.272
22:41:01.935,SEARCHING,10.298,-1.277,1.872,0.00,0.00,15.59,2.004,7.801,1.099,3.812,3.758,0,0,SEARCHING,0.000,0.799,0.012,0.304
22:41:02.136,SEARCHING,10.421,-1.240,1.873,0.00,0.00,18.49,1.738,8.156,1.098,3.788,3.864,0,0,SEARCHING,0.000,0.800,0.003,0.309
22:41:02.336,SEARCHING,10.571,-1.185,1.873,0.00,0.00,20.80,1.254,8.770,5.199,3.703,3.979,0,0,SEARCHING,0.000,0.800,0.001,-0.174
22:41:02.536,SEARCHING,10.722,-1.131,1.873,0.00,0.00,18.02,1.588,8.581,5.782,3.779,4.135,0,0,SEARCHING,0.000,0.800,0.000,-0.346
22:41:02.737,SEARCHING,10.875,-1.086,1.873,0.00,0.00,14.04,1.718,7.725,5.511,3.780,4.221,0,0,SEARCHING,0.000,0.800,0.000,-0.337
22:41:02.938,SEARCHING,11.031,-1.052,1.873,0.00,0.00,10.26,7.361,7.107,5.119,3.831,4.236,0,0,SEARCHING,0.000,0.800,0.000,-0.209
22:41:03.138,SEARCHING,11.189,-1.026,1.873,0.00,0.00,8.67,8.974,6.695,4.805,3.831,4.249,0,0,SEARCHING,0.000,0.800,0.000,0.002
22:41:03.339,SEARCHING,11.348,-1.002,1.873,0.00,0.00,8.92,9.367,6.551,4.804,3.824,4.285,0,0,SEARCHING,0.000,0.800,0.000,0.060
22:41:03.539,SEARCHING,11.505,-0.976,1.873,0.00,0.00,9.68,9.234,6.520,4.886,3.805,4.377,0,0,SEARCHING,0.000,0.800,0.000,0.076
22:41:03.739,SEARCHING,11.663,-0.948,1.873,0.00,0.00,10.55,9.273,6.536,4.858,3.775,4.398,0,0,SEARCHING,0.000,0.800,0.000,0.077
22:41:03.939,SEARCHING,11.820,-0.918,1.873,0.00,0.00,11.44,9.286,6.537,4.718,3.799,4.400,0,0,SEARCHING,0.000,0.800,0.000,0.080
22:41:04.141,SEARCHING,11.977,-0.885,1.873,0.00,0.00,12.36,8.957,6.486,4.638,3.775,4.400,0,0,SEARCHING,0.000,0.800,0.000,0.082
22:41:04.341,SEARCHING,12.133,-0.850,1.873,0.00,0.00,13.31,8.863,6.378,4.593,3.768,4.407,0,0,SEARCHING,0.000,0.800,0.000,0.083
22:41:04.542,SEARCHING,12.288,-0.812,1.873,0.00,0.00,14.27,8.677,6.519,4.569,3.805,4.401,0,0,SEARCHING,0.000,0.800,0.000,0.083
22:41:04.742,SEARCHING,12.443,-0.771,1.873,0.00,0.00,15.22,8.408,6.526,4.528,3.837,4.400,0,0,SEARCHING,0.000,0.800,0.000,0.083
22:41:04.942,SEARCHING,12.597,-0.728,1.873,0.00,0.00,16.16,7.981,6.473,4.491,3.821,4.413,0,0,SEARCHING,0.000,0.800,0.000,0.080
22:41:05.143,SEARCHING,12.750,-0.682,1.873,0.00,0.00,17.06,7.569,6.427,4.487,3.814,4.481,0,0,SEARCHING,0.000,0.800,0.000,0.076
22:41:05.344,SEARCHING,12.903,-0.634,1.873,0.00,0.00,17.93,7.477,6.322,4.368,3.805,4.486,0,0,SEARCHING,0.000,0.800,0.000,0.075
22:41:05.544,SEARCHING,13.055,-0.584,1.873,0.00,0.00,18.79,7.415,6.382,4.372,3.801,4.513,0,0,SEARCHING,0.000,0.800,0.000,0.075
22:41:05.745,SEARCHING,13.176,-0.542,1.871,0.00,0.00,19.48,7.315,6.401,4.318,3.826,4.571,0,0,SEARCHING,0.000,0.800,-0.034,0.076
22:41:05.946,SEARCHING,13.266,-0.510,1.863,0.00,0.00,20.00,7.124,6.361,4.303,3.825,4.501,0,0,SEARCHING,0.000,0.800,-0.031,0.075
22:41:06.146,SEARCHING,13.356,-0.477,1.859,0.00,0.00,20.51,7.032,6.357,4.269,3.841,4.507,0,0,SEARCHING,0.000,0.800,-0.008,0.074
22:41:06.347,SEARCHING,13.506,-0.420,1.859,0.00,0.00,21.36,6.900,6.453,4.241,3.874,4.489,0,0,SEARCHING,0.000,0.800,-0.002,0.074
22:41:06.548,SEARCHING,13.654,-0.361,1.859,0.00,0.00,22.20,6.638,6.735,4.203,3.897,4.487,0,0,SEARCHING,0.000,0.800,-0.000,0.071
22:41:06.748,SEARCHING,13.802,-0.299,1.859,0.00,0.00,23.01,6.450,7.272,4.165,3.915,4.433,0,0,SEARCHING,0.000,0.800,-0.000,0.070
22:41:06.948,SEARCHING,13.949,-0.236,1.859,0.00,0.00,23.79,6.385,7.723,4.209,3.881,4.465,0,0,SEARCHING,0.000,0.800,-0.000,0.066
22:41:07.149,SEARCHING,14.095,-0.170,1.859,0.00,0.00,24.55,6.168,8.434,4.189,3.874,4.484,0,0,SEARCHING,0.000,0.800,-0.000,0.064
22:41:07.350,SEARCHING,14.240,-0.103,1.859,0.00,0.00,25.27,6.039,8.712,4.141,3.840,4.532,0,0,SEARCHING,0.000,0.800,-0.000,0.061
22:41:07.551,SEARCHING,14.384,-0.034,1.859,0.00,0.00,25.96,5.728,8.830,4.136,3.821,4.586,0,0,SEARCHING,0.000,0.800,-0.016,0.058
22:41:07.751,SEARCHING,14.471,0.008,1.854,0.00,0.00,26.35,5.605,8.804,4.120,3.782,4.553,0,0,SEARCHING,0.000,0.800,-0.044,0.054
22:41:07.951,SEARCHING,14.557,0.051,1.844,0.00,0.00,26.70,5.635,8.703,4.116,3.817,4.566,0,0,SEARCHING,0.000,0.800,-0.051,0.052
22:41:08.152,SEARCHING,14.642,0.095,1.836,0.00,0.00,27.06,5.597,8.644,4.128,3.903,4.544,0,0,SEARCHING,0.000,0.800,-0.018,0.052
22:41:08.352,SEARCHING,14.756,0.153,1.834,0.00,0.00,27.53,5.482,8.742,4.107,3.920,4.566,0,0,SEARCHING,0.000,0.800,-0.004,0.050
22:41:08.553,SEARCHING,14.898,0.228,1.834,0.00,0.00,28.10,5.340,8.794,4.101,3.913,4.521,0,0,SEARCHING,0.000,0.800,-0.001,0.047
22:41:08.754,SEARCHING,15.038,0.304,1.834,0.00,0.00,28.63,5.216,9.093,4.033,3.985,4.477,0,0,SEARCHING,0.000,0.800,-0.000,0.045
22:41:08.953,SEARCHING,15.179,0.381,1.834,0.00,0.00,29.15,5.075,9.202,3.910,3.914,4.551,0,0,SEARCHING,0.000,0.800,-0.000,0.047
22:41:09.154,SEARCHING,15.318,0.460,1.834,0.00,0.00,29.69,4.940,9.341,3.846,3.862,4.573,0,0,SEARCHING,0.000,0.800,-0.000,0.048
22:41:09.355,SEARCHING,15.457,0.539,1.834,0.00,0.00,30.23,4.797,9.250,3.895,3.758,4.567,0,0,SEARCHING,0.000,0.800,-0.017,0.043
22:41:09.556,SEARCHING,15.539,0.588,1.828,0.00,0.00,30.51,4.659,8.767,3.929,3.600,4.496,0,0,SEARCHING,0.000,0.800,-0.050,0.036
22:41:09.756,SEARCHING,15.622,0.637,1.817,0.00,0.00,30.74,4.595,6.435,3.842,3.508,4.488,0,0,SEARCHING,0.000,0.800,-0.066,0.033
22:41:09.956,SEARCHING,15.704,0.686,1.803,0.00,0.00,30.94,3.506,3.570,3.309,3.449,4.487,0,0,SEARCHING,0.000,0.800,-0.074,0.023
22:41:10.157,SEARCHING,15.787,0.735,1.788,0.00,0.00,31.05,3.176,3.152,3.116,3.383,4.452,0,0,SEARCHING,0.000,0.800,-0.080,0.011
22:41:10.357,SEARCHING,15.869,0.785,1.771,0.00,0.00,31.11,3.046,2.985,2.995,3.049,4.411,0,0,SEARCHING,0.000,0.800,-0.104,0.007
22:41:10.558,SEARCHING,15.951,0.835,1.748,0.00,0.00,31.15,2.901,2.928,2.871,2.942,4.355,0,0,SEARCHING,0.000,0.800,-0.124,0.005
22:41:10.759,SEARCHING,16.033,0.884,1.723,0.00,0.00,31.18,2.887,2.795,2.843,2.835,4.322,0,0,SEARCHING,0.000,0.800,-0.137,0.004
22:41:10.959,SEARCHING,16.115,0.934,1.694,0.00,0.00,31.21,2.851,2.816,2.822,2.744,4.247,0,0,SEARCHING,0.000,0.800,-0.147,0.004
22:41:11.160,SEARCHING,16.198,0.984,1.664,0.00,0.00,31.24,2.806,2.817,2.778,2.636,4.167,0,0,SEARCHING,0.000,0.800,-0.159,0.004
22:41:11.360,SEARCHING,16.280,1.034,1.631,0.00,0.00,31.26,3.702,2.813,2.691,2.498,4.095,0,0,SEARCHING,0.000,0.800,-0.175,0.025
22:41:11.561,SEARCHING,16.362,1.084,1.596,0.00,0.00,31.54,4.277,4.964,3.834,2.445,3.993,0,0,SEARCHING,0.000,0.800,-0.185,0.035
22:41:11.761,SEARCHING,16.443,1.134,1.558,0.00,0.00,31.72,4.445,5.163,4.272,2.371,3.900,0,0,SEARCHING,0.000,0.800,-0.192,0.017
22:41:11.962,SEARCHING,16.525,1.184,1.519,0.00,0.00,31.80,4.429,4.930,4.520,2.257,3.780,0,0,SEARCHING,0.000,0.800,-0.203,0.005
22:41:12.163,SEARCHING,16.607,1.235,1.477,0.00,0.00,31.81,4.419,4.694,4.752,2.128,3.708,0,0,SEARCHING,0.000,0.800,-0.224,-0.005
22:41:12.364,SEARCHING,16.688,1.286,1.431,0.00,0.00,31.74,4.365,4.537,4.929,2.051,3.599,0,0,SEARCHING,0.000,0.800,-0.242,-0.015
22:41:12.564,SEARCHING,16.770,1.336,1.382,0.00,0.00,31.61,4.333,4.406,5.067,1.985,3.459,0,0,SEARCHING,0.000,0.800,-0.252,-0.023
22:41:12.764,SEARCHING,16.852,1.386,1.331,0.00,0.00,31.44,4.391,4.300,5.188,1.896,3.323,0,0,SEARCHING,0.000,0.800,-0.266,-0.026
22:41:12.965,SEARCHING,16.934,1.436,1.277,0.00,0.00,31.25,4.357,4.186,5.285,1.909,3.208,0,0,SEARCHING,0.000,0.800,-0.264,-0.029
22:41:13.166,SEARCHING,17.016,1.486,1.226,0.00,0.00,31.04,4.324,4.108,5.266,1.969,3.066,0,0,SEARCHING,0.000,0.800,-0.239,-0.032
22:41:13.367,SEARCHING,17.098,1.535,1.181,0.00,0.00,30.81,4.263,3.975,5.212,2.114,2.927,0,0,SEARCHING,0.000,0.800,-0.191,-0.034
22:41:13.567,SEARCHING,17.181,1.584,1.146,0.00,0.00,30.58,4.240,3.901,5.220,2.214,2.820,0,0,SEARCHING,0.000,0.800,-0.147,-0.034
22:41:13.767,SEARCHING,17.263,1.633,1.119,0.00,0.00,30.34,4.274,3.786,5.221,2.296,2.745,0,0,SEARCHING,0.000,0.800,-0.110,-0.035
22:41:13.967,SEARCHING,17.346,1.681,1.100,0.00,0.00,30.11,4.249,3.657,5.204,2.358,2.702,0,0,SEARCHING,0.000,0.800,-0.081,-0.034
22:41:14.167,SEARCHING,17.429,1.729,1.085,0.00,0.00,29.87,4.256,3.580,5.151,2.396,2.651,0,0,SEARCHING,0.000,0.800,-0.047,-0.034
22:41:14.368,SEARCHING,17.513,1.777,1.079,0.00,0.00,29.64,4.234,3.458,5.090,2.409,2.608,0,0,SEARCHING,0.000,0.800,-0.011,-0.032
22:41:14.569,SEARCHING,17.624,1.840,1.078,0.00,0.00,29.35,4.199,3.289,5.064,2.401,2.601,0,0,SEARCHING,0.000,0.800,-0.003,-0.031
22:41:14.770,SEARCHING,17.764,1.918,1.078,0.00,0.00,28.99,4.143,3.127,5.030,2.370,2.605,0,0,SEARCHING,0.000,0.800,-0.001,-0.033
22:41:14.969,SEARCHING,17.904,1.995,1.078,0.00,0.00,28.59,3.393,2.941,4.981,2.388,2.620,0,0,SEARCHING,0.000,0.800,-0.000,-0.050
22:41:15.170,SEARCHING,18.045,2.071,1.078,0.00,0.00,27.89,3.021,2.765,4.913,2.393,2.602,0,0,SEARCHING,0.000,0.800,-0.000,-0.084
22:41:15.372,SEARCHING,18.187,2.145,1.078,0.00,0.00,26.87,2.809,2.728,4.762,2.960,2.600,0,0,SEARCHING,0.000,0.800,0.017,-0.104
22:41:15.571,SEARCHING,18.273,2.188,1.088,0.00,0.00,26.10,2.687,2.704,4.622,4.471,2.618,0,0,SEARCHING,0.000,0.800,0.121,-0.118
22:41:15.773,SEARCHING,18.359,2.230,1.118,0.00,0.00,25.26,2.602,2.637,4.536,4.937,2.602,0,0,SEARCHING,0.000,0.800,0.191,-0.126
22:41:15.972,SEARCHING,18.446,2.270,1.158,0.00,0.00,24.36,2.382,2.528,4.436,4.932,2.522,0,0,SEARCHING,0.000,0.800,0.218,-0.142
22:41:16.174,SEARCHING,18.534,2.309,1.203,0.00,0.00,23.34,2.325,2.413,4.272,4.837,2.463,0,0,SEARCHING,0.000,0.800,0.232,-0.152
22:41:16.374,SEARCHING,18.622,2.346,1.250,0.00,0.00,22.28,2.253,7.859,4.102,4.744,2.430,0,0,SEARCHING,0.000,0.800,0.240,-0.155
22:41:16.574,SEARCHING,18.712,2.382,1.299,0.00,0.00,21.19,2.156,9.363,3.874,4.614,2.923,0,0,SEARCHING,0.000,0.800,0.214,-0.163
22:41:16.775,SEARCHING,18.801,2.416,1.336,0.00,0.00,20.35,5.042,9.619,3.773,4.554,3.259,0,0,SEARCHING,0.000,0.800,0.143,-0.041
22:41:16.976,SEARCHING,18.891,2.449,1.361,0.00,0.00,20.39,5.380,9.639,3.722,4.495,3.331,0,0,SEARCHING,0.000,0.800,0.109,0.038
22:41:17.176,SEARCHING,18.981,2.483,1.382,0.00,0.00,20.75,5.384,9.836,3.691,4.383,3.386,0,0,SEARCHING,0.000,0.800,0.092,0.061
22:41:17.378,SEARCHING,19.071,2.517,1.399,0.00,0.00,21.19,5.335,9.551,3.734,4.273,3.438,0,0,SEARCHING,0.000,0.800,0.078,0.065
22:41:17.577,SEARCHING,19.160,2.552,1.414,0.00,0.00,21.63,5.261,9.322,3.816,4.241,3.507,0,0,SEARCHING,0.000,0.800,0.067,0.062
22:41:17.778,SEARCHING,19.249,2.588,1.427,0.00,0.00,22.04,5.135,9.362,3.893,4.267,3.552,0,0,SEARCHING,0.000,0.800,0.059,0.056
22:41:17.978,SEARCHING,19.338,2.624,1.438,0.00,0.00,22.40,5.066,9.064,4.015,4.285,3.573,0,0,SEARCHING,0.000,0.800,0.056,0.048
22:41:18.179,SEARCHING,19.427,2.661,1.450,0.00,0.00,22.71,5.042,8.870,4.051,4.245,3.587,0,0,SEARCHING,0.000,0.800,0.054,0.042
22:41:18.380,SEARCHING,19.515,2.698,1.460,0.00,0.00,22.98,4.968,8.806,4.105,4.351,3.576,0,0,SEARCHING,0.000,0.800,0.057,0.038
22:41:18.581,SEARCHING,19.604,2.736,1.472,0.00,0.00,23.22,4.896,8.802,4.193,4.329,3.617,0,0,SEARCHING,0.000,0.800,0.056,0.031
22:41:18.781,SEARCHING,19.692,2.774,1.483,0.00,0.00,23.42,4.853,8.411,4.258,4.378,3.652,0,0,SEARCHING,0.000,0.800,0.056,0.026
22:41:18.981,SEARCHING,19.780,2.812,1.494,0.00,0.00,23.59,4.814,8.200,4.257,4.337,3.686,0,0,SEARCHING,0.000,0.800,0.038,0.023
22:41:19.181,SEARCHING,19.868,2.851,1.499,0.00,0.00,23.75,4.775,8.177,4.241,4.321,3.697,0,0,SEARCHING,0.000,0.800,0.009,0.022
22:41:19.383,SEARCHING,20.014,2.915,1.499,0.00,0.00,23.99,4.708,8.000,4.250,4.335,3.736,0,0,SEARCHING,0.000,0.800,0.002,0.020
22:41:19.582,SEARCHING,20.160,2.981,1.499,0.00,0.00,24.22,4.648,7.913,4.238,4.370,3.711,0,0,SEARCHING,0.000,0.800,0.001,0.018
22:41:19.783,SEARCHING,20.306,3.047,1.499,0.00,0.00,24.42,4.666,7.721,4.278,4.383,3.726,0,0,SEARCHING,0.000,0.800,0.000,0.017
22:41:19.983,SEARCHING,20.452,3.113,1.499,0.00,0.00,24.60,4.597,7.638,4.323,4.398,3.748,0,0,SEARCHING,0.000,0.800,0.000,0.013
22:41:20.184,SEARCHING,20.597,3.180,1.499,0.00,0.00,24.74,4.578,7.576,4.378,4.466,3.742,0,0,SEARCHING,0.000,0.800,0.016,0.009
22:41:20.384,SEARCHING,20.684,3.220,1.504,0.00,0.00,24.80,4.551,7.434,4.358,4.525,3.747,0,0,SEARCHING,0.000,0.800,0.045,0.008
22:41:20.585,SEARCHING,20.771,3.260,1.514,0.00,0.00,24.86,4.526,7.390,4.368,4.513,3.765,0,0,SEARCHING,0.000,0.800,0.052,0.007
22:41:20.786,SEARCHING,20.858,3.301,1.525,0.00,0.00,24.90,4.523,7.382,4.473,4.490,3.744,0,0,SEARCHING,0.000,0.800,0.053,0.004
22:41:20.987,SEARCHING,20.946,3.341,1.535,0.00,0.00,24.91,4.496,7.295,4.509,4.446,3.804,0,0,SEARCHING,0.000,0.800,0.036,0.001
22:41:21.187,SEARCHING,21.033,3.381,1.540,0.00,0.00,24.92,4.488,7.237,4.494,4.447,3.781,0,0,SEARCHING,0.000,0.800,0.009,-0.000
22:41:21.388,SEARCHING,21.178,3.449,1.540,0.00,0.00,24.92,4.487,7.161,4.487,4.453,3.807,0,0,SEARCHING,0.000,0.800,0.002,-0.000
22:41:21.588,SEARCHING,21.323,3.516,1.540,0.00,0.00,24.91,4.474,7.152,4.487,4.446,3.794,0,0,SEARCHING,0.000,0.800,0.000,-0.001
22:41:21.788,SEARCHING,21.468,3.584,1.540,0.00,0.00,24.90,4.444,7.073,4.430,4.482,3.808,0,0,SEARCHING,0.000,0.800,0.000,-0.001
22:41:21.989,SEARCHING,21.613,3.651,1.540,0.00,0.00,24.90,4.463,6.950,4.511,4.513,3.804,0,0,SEARCHING,0.000,0.800,0.000,-0.001
22:41:22.190,SEARCHING,21.729,3.705,1.541,0.00,0.00,24.78,4.402,6.936,8.391,4.562,3.812,0,0,SEARCHING,0.000,0.800,0.034,-0.050
22:41:22.391,SEARCHING,21.817,3.745,1.548,0.00,0.00,24.30,4.419,6.847,8.885,4.575,3.873,0,0,SEARCHING,0.000,0.800,0.013,-0.081
22:41:22.592,SEARCHING,21.933,3.797,1.549,0.00,0.00,23.52,4.403,6.919,8.851,4.536,3.877,0,0,SEARCHING,0.000,0.800,0.003,-0.089
22:41:24.239,SEARCHING,22.081,3.859,1.549,0.00,0.00,22.49,4.401,6.930,8.813,4.525,3.859,0,0,SEARCHING,0.000,0.800,0.001,-0.091
22:41:24.248,SEARCHING,22.229,3.919,1.549,0.00,0.00,21.45,4.401,6.930,8.813,4.525,3.859,0,0,SEARCHING,0.000,0.800,0.000,-0.091
22:41:24.378,SEARCHING,22.378,3.977,1.549,0.00,0.00,20.42,4.383,7.183,8.441,4.513,3.875,0,0,SEARCHING,0.000,0.800,0.000,-0.089
22:41:24.569,SEARCHING,22.529,4.031,1.549,0.00,0.00,19.40,4.410,7.324,8.204,4.485,3.878,0,0,SEARCHING,0.000,0.800,0.000,-0.086
22:41:24.769,SEARCHING,22.680,4.083,1.549,0.00,0.00,18.42,4.441,7.448,8.088,4.486,3.882,0,0,SEARCHING,0.000,0.800,0.000,-0.083
22:41:24.969,SEARCHING,22.832,4.133,1.549,0.00,0.00,17.49,4.455,7.495,6.970,4.501,3.846,0,0,SEARCHING,0.000,0.800,0.000,-0.074
22:41:25.169,SEARCHING,22.985,4.180,1.549,0.00,0.00,16.71,4.459,7.612,5.437,4.474,3.865,0,0,SEARCHING,0.000,0.800,0.000,-0.049
22:41:25.370,SEARCHING,23.139,4.225,1.549,0.00,0.00,16.20,4.439,7.625,5.585,4.510,3.857,0,0,SEARCHING,0.000,0.800,0.000,-0.037
22:41:25.571,SEARCHING,23.292,4.269,1.549,0.00,0.00,15.77,4.426,7.502,5.613,4.559,3.856,0,0,SEARCHING,0.000,0.800,0.000,-0.038
22:41:25.772,SEARCHING,23.447,4.312,1.549,0.00,0.00,15.34,4.451,7.408,5.507,4.561,3.825,0,0,SEARCHING,0.000,0.800,0.015,-0.037
22:41:25.973,SEARCHING,23.539,4.338,1.554,0.00,0.00,15.09,4.465,7.181,5.714,4.543,3.801,0,0,SEARCHING,0.000,0.800,0.044,-0.037
22:41:26.173,SEARCHING,23.632,4.362,1.564,0.00,0.00,14.82,4.478,7.089,6.207,4.541,3.835,0,0,SEARCHING,0.000,0.800,0.034,-0.044
22:41:26.372,SEARCHING,23.725,4.387,1.568,0.00,0.00,14.49,4.417,6.968,6.329,4.529,3.870,0,0,SEARCHING,0.000,0.800,0.008,-0.051
22:41:26.573,SEARCHING,23.880,4.426,1.568,0.00,0.00,13.90,4.474,6.768,5.896,4.492,3.882,0,0,SEARCHING,0.000,0.800,0.002,-0.049
22:41:26.773,SEARCHING,24.035,4.464,1.568,0.00,0.00,13.36,4.468,6.608,5.768,4.492,3.879,0,0,SEARCHING,0.000,0.800,0.000,-0.043
22:41:26.974,SEARCHING,24.191,4.500,1.568,0.00,0.00,12.88,4.454,6.508,5.709,4.500,3.917,0,0,SEARCHING,0.000,0.800,0.000,-0.041
22:41:27.174,SEARCHING,24.347,4.535,1.568,0.00,0.00,12.41,4.489,6.374,6.016,4.483,3.887,0,0,SEARCHING,0.000,0.800,0.000,-0.043
22:41:27.374,SEARCHING,24.504,4.569,1.568,0.00,0.00,11.90,4.523,6.207,6.018,4.482,3.907,0,0,SEARCHING,0.000,0.800,0.000,-0.045
22:41:27.576,SEARCHING,24.660,4.601,1.568,0.00,0.00,11.40,4.566,6.009,5.790,4.526,3.882,0,0,SEARCHING,0.000,0.800,0.000,-0.041
22:41:27.776,SEARCHING,24.817,4.632,1.568,0.00,0.00,10.93,4.569,5.884,6.400,4.496,3.879,0,0,SEARCHING,0.000,0.800,0.000,-0.043
22:41:27.977,SEARCHING,24.975,4.662,1.568,0.00,0.00,10.39,4.589,5.668,7.603,4.494,3.851,0,0,SEARCHING,0.000,0.800,0.000,-0.058
22:41:28.178,SEARCHING,25.132,4.690,1.568,0.00,0.00,9.69,4.592,5.490,7.508,4.520,3.856,0,0,SEARCHING,0.000,0.800,0.000,-0.066
22:41:28.378,SEARCHING,25.290,4.716,1.568,0.00,0.00,8.95,4.661,5.320,7.141,4.517,3.893,0,0,SEARCHING,0.000,0.800,0.000,-0.062
22:41:28.578,SEARCHING,25.448,4.740,1.568,0.00,0.00,8.24,4.728,5.105,7.550,4.514,3.915,0,0,SEARCHING,0.000,0.800,0.000,-0.063
22:41:28.779,SEARCHING,25.607,4.762,1.568,0.00,0.00,7.52,4.751,4.936,7.431,4.509,3.912,0,0,SEARCHING,0.000,0.800,0.000,-0.062
22:41:28.979,SEARCHING,25.765,4.782,1.568,0.00,0.00,6.81,4.765,4.785,7.077,4.564,3.900,0,0,SEARCHING,0.000,0.800,0.000,-0.059
22:41:29.181,SEARCHING,25.924,4.800,1.568,0.00,0.00,6.15,4.717,4.636,6.905,4.496,3.898,0,0,SEARCHING,0.000,0.800,0.000,-0.056
22:41:29.381,SEARCHING,26.083,4.817,1.568,0.00,0.00,5.52,4.741,4.465,6.710,4.425,3.911,0,0,SEARCHING,0.000,0.800,0.000,-0.052
22:41:29.582,SEARCHING,26.243,4.831,1.568,0.00,0.00,4.93,4.764,4.324,6.601,4.299,3.863,0,0,SEARCHING,0.000,0.800,0.000,-0.049
22:41:29.782,SEARCHING,26.402,4.844,1.568,0.00,0.00,4.38,4.767,4.081,6.892,4.082,3.865,0,0,SEARCHING,0.000,0.800,0.000,-0.049
22:41:29.984,SEARCHING,26.562,4.856,1.568,0.00,0.00,3.81,4.767,3.902,6.801,3.902,3.877,0,0,SEARCHING,0.000,0.800,0.000,-0.050
22:41:30.183,SEARCHING,26.722,4.866,1.568,0.00,0.00,3.24,4.767,3.737,7.130,3.750,3.925,0,0,SEARCHING,0.000,0.800,0.000,-0.051
22:41:30.384,SEARCHING,26.881,4.874,1.568,0.00,0.00,2.65,4.767,3.561,7.282,3.563,3.883,0,0,SEARCHING,0.000,0.800,0.000,-0.055
22:41:30.585,SEARCHING,27.041,4.881,1.568,0.00,0.00,2.01,4.916,3.447,7.346,3.433,3.782,0,0,SEARCHING,0.000,0.800,0.000,-0.055
22:41:30.784,SEARCHING,27.201,4.886,1.568,0.00,0.00,1.38,4.495,3.314,7.142,3.285,3.919,0,0,SEARCHING,0.000,0.800,-0.018,-0.057
22:41:30.987,SEARCHING,27.297,4.888,1.561,0.00,0.00,0.93,3.849,3.283,7.084,3.199,3.874,0,0,SEARCHING,0.000,0.800,-0.052,-0.079
22:41:31.187,SEARCHING,27.393,4.889,1.550,0.00,0.00,0.31,3.436,3.240,6.983,3.063,3.878,0,0,SEARCHING,0.000,0.800,-0.070,-0.103
22:41:31.387,SEARCHING,27.489,4.889,1.534,0.00,0.00,-0.41,4.410,5.666,6.614,2.924,3.832,0,0,SEARCHING,0.000,0.800,-0.086,-0.089
22:41:31.588,SEARCHING,27.585,4.888,1.516,0.00,0.00,-0.91,4.646,6.749,6.386,2.810,3.778,0,0,SEARCHING,0.000,0.800,-0.101,-0.059
22:41:31.788,SEARCHING,27.681,4.886,1.496,0.00,0.00,-1.27,4.667,7.005,6.360,2.783,3.662,0,0,SEARCHING,0.000,0.800,-0.104,-0.049
22:41:31.988,SEARCHING,27.777,4.883,1.475,0.00,0.00,-1.60,4.669,7.126,6.244,2.755,3.699,0,0,SEARCHING,0.000,0.800,-0.108,-0.045
22:41:32.189,SEARCHING,27.873,4.881,1.453,0.00,0.00,-1.90,4.670,7.149,6.189,2.711,3.607,0,0,SEARCHING,0.000,0.800,-0.109,-0.043
22:41:32.390,SEARCHING,27.969,4.877,1.431,0.00,0.00,-2.19,4.670,7.150,6.092,2.657,3.571,0,0,SEARCHING,0.000,0.800,-0.113,-0.041
22:41:32.591,SEARCHING,28.065,4.873,1.408,0.00,0.00,-2.47,4.642,7.151,6.173,2.563,3.543,0,0,SEARCHING,0.000,0.800,-0.122,-0.042
22:41:32.792,SEARCHING,28.161,4.869,1.383,0.00,0.00,-2.76,4.610,7.151,6.219,2.487,3.468,0,0,SEARCHING,0.000,0.800,-0.130,-0.043
22:41:32.992,SEARCHING,28.257,4.864,1.356,0.00,0.00,-3.07,4.580,7.184,6.081,2.416,3.398,0,0,SEARCHING,0.000,0.800,-0.139,-0.044
22:41:33.193,SEARCHING,28.352,4.859,1.328,0.00,0.00,-3.37,4.577,7.155,6.063,2.386,3.339,0,0,SEARCHING,0.000,0.800,-0.142,-0.043
22:41:33.397,SEARCHING,28.448,4.853,1.299,0.00,0.00,-3.66,4.576,7.151,6.150,2.314,3.290,0,0,SEARCHING,0.000,0.800,-0.149,-0.044
22:41:33.597,SEARCHING,28.544,4.847,1.275,0.00,0.00,-3.97,4.544,7.231,6.105,4.513,3.233,0,0,SEARCHING,0.000,0.800,-0.020,-0.044
22:41:33.797,SEARCHING,28.640,4.840,1.281,0.00,0.00,-4.27,4.514,7.234,6.031,5.126,3.201,0,0,SEARCHING,0.000,0.800,0.095,-0.044
22:41:33.998,SEARCHING,28.736,4.832,1.303,0.00,0.00,-4.57,4.490,7.264,5.952,5.219,3.250,0,0,SEARCHING,0.000,0.800,0.131,-0.044
22:41:34.198,SEARCHING,28.831,4.825,1.330,0.00,0.00,-4.87,4.469,7.250,5.932,5.174,3.277,0,0,SEARCHING,0.000,0.800,0.135,-0.044
22:41:34.398,SEARCHING,28.927,4.816,1.357,0.00,0.00,-5.17,4.441,7.314,5.923,5.092,3.333,0,0,SEARCHING,0.000,0.800,0.131,-0.044
22:41:34.599,SEARCHING,29.022,4.807,1.383,0.00,0.00,-5.48,4.411,7.222,5.762,5.024,3.380,0,0,SEARCHING,0.000,0.800,0.122,-0.044
22:41:34.800,SEARCHING,29.118,4.798,1.406,0.00,0.00,-5.77,4.402,7.187,5.747,4.980,3.449,0,0,SEARCHING,0.000,0.800,0.113,-0.043
22:41:35.000,SEARCHING,29.213,4.788,1.428,0.00,0.00,-6.07,4.373,7.155,5.724,4.937,3.528,0,0,SEARCHING,0.000,0.800,0.104,-0.043
22:41:35.200,SEARCHING,29.309,4.778,1.449,0.00,0.00,-6.36,4.397,7.054,5.657,4.899,3.596,0,0,SEARCHING,0.000,0.800,0.094,-0.042
22:41:35.401,SEARCHING,29.404,4.767,1.467,0.00,0.00,-6.64,4.375,6.948,5.550,4.851,3.634,0,0,SEARCHING,0.000,0.800,0.088,-0.040
22:41:35.602,SEARCHING,29.500,4.756,1.484,0.00,0.00,-6.91,4.391,6.936,5.537,4.792,3.694,0,0,SEARCHING,0.000,0.800,0.080,-0.039
22:41:35.803,SEARCHING,29.595,4.744,1.500,0.00,0.00,-7.17,4.395,6.754,5.498,4.770,3.735,0,0,SEARCHING,0.000,0.800,0.074,-0.037
22:41:36.004,SEARCHING,29.690,4.732,1.514,0.00,0.00,-7.43,4.341,6.733,5.416,4.767,3.784,0,0,SEARCHING,0.000,0.800,0.068,-0.037
22:41:36.203,SEARCHING,29.785,4.719,1.527,0.00,0.00,-7.68,4.320,6.584,5.372,4.688,3.792,0,0,SEARCHING,0.000,0.800,0.063,-0.036
22:41:36.404,SEARCHING,29.880,4.706,1.540,0.00,0.00,-7.93,4.324,6.543,5.334,4.637,3.811,0,0,SEARCHING,0.000,0.800,0.059,-0.036
22:41:36.604,SEARCHING,29.975,4.693,1.551,0.00,0.00,-8.17,4.342,6.418,5.261,4.584,3.832,0,0,SEARCHING,0.000,0.800,0.054,-0.034
22:41:36.804,SEARCHING,30.070,4.679,1.562,0.00,0.00,-8.40,4.290,6.363,5.229,4.592,3.798,0,0,SEARCHING,0.000,0.800,0.056,-0.033
22:41:37.005,SEARCHING,30.165,4.665,1.571,0.00,0.00,-8.63,4.266,6.205,5.182,4.574,3.876,0,0,SEARCHING,0.000,0.800,0.019,-0.034
22:41:37.205,SEARCHING,30.292,4.645,1.573,0.00,0.00,-8.93,4.249,6.138,5.154,4.533,3.873,0,0,SEARCHING,0.000,0.800,0.005,-0.033
22:41:37.406,SEARCHING,30.450,4.620,1.573,0.00,0.00,-9.31,4.152,5.989,5.025,4.525,3.884,0,0,SEARCHING,0.000,0.800,0.001,-0.033
22:41:37.607,SEARCHING,30.608,4.594,1.573,0.00,0.00,-9.69,4.146,5.792,4.986,4.570,3.913,0,0,SEARCHING,0.000,0.800,0.000,-0.033
22:41:37.808,SEARCHING,30.765,4.566,1.573,0.00,0.00,-10.06,4.159,5.603,4.852,4.562,3.900,0,0,SEARCHING,0.000,0.800,0.000,-0.030
22:41:38.008,SEARCHING,30.923,4.538,1.573,0.00,0.00,-10.40,4.160,5.490,4.784,4.535,3.915,0,0,SEARCHING,0.000,0.800,0.000,-0.027
22:41:38.208,SEARCHING,31.080,4.509,1.573,0.00,0.00,-10.70,4.132,5.289,4.693,4.605,3.900,0,0,SEARCHING,0.000,0.800,0.000,-0.024
22:41:38.409,SEARCHING,31.237,4.479,1.573,0.00,0.00,-10.97,4.135,5.135,4.611,4.573,3.928,0,0,SEARCHING,0.000,0.800,0.000,-0.022
22:41:38.610,SEARCHING,31.394,4.448,1.573,0.00,0.00,-11.21,4.148,5.018,4.480,4.573,3.931,0,0,SEARCHING,0.000,0.800,0.000,-0.018
22:41:38.810,SEARCHING,31.551,4.416,1.573,0.00,0.00,-11.40,4.210,4.886,4.355,4.609,3.954,0,0,SEARCHING,0.000,0.800,0.000,-0.012
22:41:39.011,SEARCHING,31.708,4.385,1.573,0.00,0.00,-11.51,4.117,4.752,4.201,4.592,3.917,0,0,SEARCHING,0.000,0.800,0.000,-0.006
22:41:39.212,SEARCHING,31.865,4.353,1.573,0.00,0.00,-11.57,4.093,4.618,4.063,4.572,3.939,0,0,SEARCHING,0.000,0.800,0.000,-0.002
22:41:39.411,SEARCHING,32.022,4.320,1.573,0.00,0.00,-11.58,4.057,4.481,3.925,4.482,3.944,0,0,SEARCHING,0.000,0.800,0.000,0.003
22:41:39.612,SEARCHING,32.178,4.288,1.573,0.00,0.00,-11.54,3.955,4.355,3.789,4.325,3.949,0,0,SEARCHING,0.000,0.800,0.000,0.006
22:41:39.813,SEARCHING,32.335,4.256,1.573,0.00,0.00,-11.46,3.918,4.201,3.675,4.175,3.925,0,0,SEARCHING,0.000,0.800,0.000,0.010
22:41:40.014,SEARCHING,32.492,4.225,1.573,0.00,0.00,-11.33,3.834,4.024,3.577,4.021,3.864,0,0,SEARCHING,0.000,0.800,0.000,0.013
22:41:40.214,SEARCHING,32.649,4.194,1.573,0.00,0.00,-11.18,3.736,3.866,3.460,3.865,3.788,0,0,SEARCHING,0.000,0.800,0.000,0.015
22:41:40.415,SEARCHING,32.806,4.163,1.573,0.00,0.00,-10.99,3.681,3.695,3.332,3.707,3.675,0,0,SEARCHING,0.000,0.800,0.000,0.019
22:41:40.615,SEARCHING,32.963,4.133,1.573,0.00,0.00,-10.75,3.601,3.564,3.182,3.562,3.518,0,0,SEARCHING,0.000,0.800,0.000,0.025
22:41:40.816,SEARCHING,33.120,4.103,1.573,0.00,0.00,-10.45,3.492,3.416,3.025,3.418,3.413,0,0,SEARCHING,0.000,0.800,0.000,0.031
22:41:41.016,SEARCHING,33.278,4.074,1.573,0.00,0.00,-10.08,3.427,3.299,2.911,3.283,3.303,0,0,SEARCHING,0.000,0.800,0.000,0.037
22:41:41.217,SEARCHING,33.435,4.047,1.573,0.00,0.00,-9.64,3.365,3.163,2.793,3.134,3.163,0,0,SEARCHING,0.000,0.800,0.000,0.044
22:41:41.418,SEARCHING,33.593,4.021,1.573,0.00,0.00,-9.12,3.257,3.004,2.656,3.014,3.020,0,0,SEARCHING,0.000,0.800,0.000,0.050
22:41:41.618,SEARCHING,33.751,3.996,1.573,0.00,0.00,-8.52,3.155,2.879,2.521,2.880,2.875,0,0,SEARCHING,0.000,0.800,0.000,0.058
22:41:41.818,SEARCHING,33.910,3.973,1.573,0.00,0.00,-7.84,3.025,2.751,2.392,2.754,2.748,0,0,SEARCHING,0.000,0.800,0.000,0.066
22:41:42.018,SEARCHING,34.068,3.952,1.573,0.00,0.00,-7.07,2.911,2.605,2.278,2.605,2.602,0,0,SEARCHING,0.000,0.800,0.000,0.072
22:41:42.219,SEARCHING,34.227,3.934,1.573,0.00,0.00,-6.21,2.807,2.458,2.147,2.452,2.461,0,0,SEARCHING,0.000,0.800,0.000,0.081
22:41:42.420,SEARCHING,34.386,3.918,1.573,0.00,0.00,-5.26,2.701,2.338,2.032,2.336,2.339,0,0,SEARCHING,0.000,0.800,0.000,0.091
22:41:42.620,SEARCHING,34.546,3.904,1.573,0.00,0.00,-4.19,2.572,2.203,1.895,2.208,2.204,0,0,SEARCHING,0.000,0.800,0.000,0.102
22:41:42.821,SEARCHING,34.705,3.894,1.573,0.00,0.00,-2.98,2.465,2.072,1.774,2.078,2.072,0,0,SEARCHING,0.000,0.800,0.000,0.116
22:41:43.021,SEARCHING,34.864,3.887,1.573,0.00,0.00,-1.60,2.353,1.955,1.657,1.960,1.960,0,0,SEARCHING,0.000,0.764,0.000,0.131
22:41:43.221,SEARCHING,35.013,3.885,1.573,0.00,0.00,-0.05,2.229,1.842,1.549,1.842,1.842,0,0,SEARCHING,0.000,0.690,0.000,0.147
22:41:43.423,SEARCHING,35.147,3.887,1.573,0.00,0.00,1.69,2.112,1.749,1.448,1.747,1.741,0,0,SEARCHING,0.000,0.616,0.000,0.163
22:41:43.623,SEARCHING,35.267,3.892,1.573,0.00,0.00,3.61,2.013,1.656,1.366,1.655,1.654,0,0,SEARCHING,0.000,0.553,0.000,0.178
22:41:43.824,SEARCHING,35.374,3.900,1.573,0.00,0.00,5.70,1.903,1.590,1.293,1.590,1.583,0,0,SEARCHING,0.000,0.500,0.000,0.191
22:41:44.024,SEARCHING,35.471,3.912,1.573,0.00,0.00,7.92,1.815,1.540,1.233,1.537,1.538,0,0,SEARCHING,0.000,0.461,0.000,0.201
22:41:44.225,SEARCHING,35.560,3.926,1.573,0.00,0.00,10.24,1.727,1.487,1.185,1.495,1.494,0,0,SEARCHING,0.000,0.428,0.000,0.208
22:41:44.425,SEARCHING,35.643,3.942,1.573,0.00,0.00,12.64,1.641,1.464,1.145,1.466,1.459,0,0,SEARCHING,0.000,0.405,0.000,0.211
22:41:44.626,SEARCHING,35.720,3.961,1.573,0.00,0.00,15.06,1.568,1.446,1.111,1.439,1.443,0,0,SEARCHING,0.000,0.389,0.000,0.211
22:41:44.826,SEARCHING,35.795,3.983,1.573,0.00,0.00,17.47,1.486,1.433,1.082,1.428,1.435,0,0,SEARCHING,0.000,0.378,0.000,0.207
22:41:45.026,SEARCHING,35.866,4.007,1.573,0.00,0.00,19.82,1.423,1.419,1.058,1.416,1.427,0,0,SEARCHING,0.000,0.369,0.000,0.199
22:41:45.228,SEARCHING,35.934,4.033,1.573,0.00,0.00,22.08,1.358,1.425,1.036,1.427,1.425,0,0,SEARCHING,0.000,0.364,0.000,0.191
22:41:45.428,SEARCHING,36.001,4.061,1.573,0.00,0.00,24.23,1.299,1.435,1.022,1.433,1.432,0,0,SEARCHING,0.000,0.364,0.000,0.177
22:41:45.629,SEARCHING,36.067,4.092,1.573,0.00,0.00,26.22,1.239,1.435,1.006,1.430,1.433,0,0,SEARCHING,0.000,0.365,0.000,0.162
22:41:45.829,SEARCHING,36.132,4.125,1.573,0.00,0.00,28.02,1.181,1.384,0.990,1.379,1.383,0,0,SEARCHING,0.000,0.354,0.000,0.144
22:41:46.029,SEARCHING,36.193,4.159,1.573,0.00,0.00,29.61,1.121,1.306,0.976,1.305,1.307,0,0,SEARCHING,0.000,0.327,0.000,0.122
22:41:46.230,SEARCHING,36.248,4.191,1.573,0.00,0.00,30.95,1.071,1.235,0.965,1.232,1.234,0,0,SEARCHING,0.000,0.298,0.000,0.100
22:41:46.430,SEARCHING,36.298,4.221,1.573,0.00,0.00,32.01,1.022,1.174,0.952,1.172,1.173,0,0,SEARCHING,0.000,0.272,0.000,0.073
22:41:46.632,SEARCHING,36.343,4.250,1.573,0.00,0.00,32.78,0.976,1.114,0.935,1.114,1.111,0,0,SEARCHING,0.000,0.256,0.000,0.052
22:41:46.832,SEARCHING,36.386,4.278,1.573,0.00,0.00,33.31,0.935,1.065,0.922,1.062,1.061,0,0,SEARCHING,0.000,0.251,0.000,0.029
22:41:47.033,SEARCHING,36.428,4.305,1.573,0.00,0.00,33.56,0.894,1.018,0.907,1.016,1.013,0,0,SEARCHING,0.000,0.250,0.000,0.004
22:41:47.233,SEARCHING,36.469,4.333,1.573,0.00,0.00,33.54,0.853,0.968,0.882,0.968,0.967,0,0,SEARCHING,0.000,0.250,0.000,-0.017
22:41:47.433,SEARCHING,36.511,4.360,1.573,0.00,0.00,33.28,0.812,0.923,0.862,0.921,0.921,0,0,SEARCHING,0.000,0.250,0.000,-0.039
22:41:47.634,SEARCHING,36.553,4.388,1.573,0.00,0.00,32.76,0.769,0.876,0.828,0.877,0.878,0,0,SEARCHING,0.000,0.250,0.000,-0.062
22:41:47.835,SEARCHING,36.595,4.415,1.573,0.00,0.00,32.00,0.729,0.833,0.793,0.834,0.835,0,0,SEARCHING,0.000,0.250,0.000,-0.078
22:41:48.079,INSPECTING,36.638,4.441,1.573,0.00,0.00,31.07,0.689,0.791,0.754,0.791,0.792,0,0,SEARCHING,0.000,0.175,0.000,-0.093
22:41:48.237,INSPECTING,36.649,4.448,1.548,0.00,0.00,30.88,0.668,0.767,0.733,0.768,0.768,0,0,INSPECT_BOTTOM,0.000,0.160,-0.304,-0.022
22:41:48.438,INSPECTING,36.665,4.457,1.480,0.00,0.00,30.80,0.653,0.752,0.721,0.752,0.752,0,0,INSPECT_BOTTOM,0.000,0.153,-0.377,-0.005
22:41:48.638,INSPECTING,36.681,4.466,1.402,0.00,0.00,30.78,0.638,0.735,0.722,0.736,0.736,0,0,INSPECT_BOTTOM,0.000,0.150,-0.394,-0.001
22:41:48.839,INSPECTING,36.696,4.476,1.323,0.00,0.00,30.78,0.624,0.719,0.711,0.719,0.719,0,0,INSPECT_BOTTOM,0.000,0.146,-0.399,-0.000
22:41:49.039,INSPECTING,36.711,4.484,1.243,0.00,0.00,30.78,0.609,0.704,0.704,0.703,0.703,0,0,INSPECT_BOTTOM,0.000,0.143,-0.400,-0.000
22:41:49.240,INSPECTING,36.725,4.493,1.163,0.00,0.00,30.78,0.596,0.688,0.699,0.687,0.688,0,0,INSPECT_BOTTOM,0.000,0.140,-0.400,-0.000
22:41:49.440,INSPECTING,36.740,4.502,1.083,0.00,0.00,30.78,0.583,0.671,0.691,0.673,0.672,0,0,INSPECT_BOTTOM,0.000,0.136,-0.400,-0.000
22:41:49.641,INSPECTING,36.754,4.510,1.003,0.00,0.00,30.78,0.570,0.656,0.679,0.657,0.657,0,0,INSPECT_BOTTOM,0.000,0.133,-0.400,-0.000
22:41:49.842,INSPECTING,36.767,4.518,0.923,0.00,0.00,30.78,0.557,0.642,0.669,0.642,0.642,0,0,INSPECT_BOTTOM,0.000,0.130,-0.400,-0.000
22:41:50.043,INSPECTING,36.781,4.526,0.843,0.00,0.00,30.78,0.544,0.628,0.662,0.627,0.627,0,0,INSPECT_BOTTOM,0.000,0.127,-0.400,-0.000
22:41:50.243,INSPECTING,36.794,4.534,0.764,0.00,0.00,30.78,0.532,0.614,0.655,0.613,0.613,0,0,INSPECT_BOTTOM,0.000,0.125,-0.400,-0.000
22:41:50.444,INSPECTING,36.806,4.541,0.683,0.00,0.00,30.78,0.520,0.599,0.651,0.599,0.599,0,0,INSPECT_BOTTOM,0.000,0.122,-0.400,-0.000
22:41:50.645,INSPECTING,36.819,4.549,0.603,0.00,0.00,30.78,0.509,0.585,0.642,0.586,0.585,0,0,INSPECT_BOTTOM,0.000,0.119,-0.400,-0.000
22:41:50.846,INSPECTING,36.831,4.556,0.523,0.00,0.00,30.78,0.497,0.572,0.638,0.573,0.571,0,0,INSPECT_BOTTOM,0.000,0.116,-0.400,-0.000
22:41:51.047,INSPECTING,36.843,4.563,0.443,0.00,0.00,30.78,0.485,0.559,0.632,0.559,0.558,0,0,INSPECT_BOTTOM,0.000,0.113,-0.400,-0.000
22:41:51.246,INSPECTING,36.854,4.570,0.363,0.00,0.00,30.78,0.474,0.546,0.624,0.546,0.547,0,0,INSPECT_BOTTOM,0.000,0.111,-0.400,-0.000
22:41:51.449,INSPECTING,36.866,4.577,0.284,0.00,0.00,30.78,0.464,0.534,0.618,0.534,0.535,0,0,INSPECT_BOTTOM,0.000,0.109,-0.400,-0.000
22:41:51.648,INSPECTING,36.876,4.583,0.203,0.00,0.00,30.78,0.454,0.522,0.609,0.522,0.496,0,0,INSPECT_BOTTOM,0.000,0.103,-0.400,-0.000
22:41:51.849,INSPECTING,36.887,4.589,0.135,0.00,-0.00,30.78,0.443,0.511,0.597,0.510,0.505,0,0,INSPECT_BOTTOM,0.000,0.101,-0.400,-0.000
22:41:52.051,INSPECTING,36.897,4.596,0.135,-0.00,0.00,30.78,0.433,0.501,0.584,0.499,0.429,0,0,INSPECT_RIGHT,0.000,0.106,-0.280,-0.150
22:41:52.251,TURNING,36.906,4.601,0.135,-0.00,0.00,28.53,0.424,0.489,0.571,0.491,0.413,0,0,TURNING,0.000,0.079,-0.096,-0.839
22:41:52.451,TURNING,36.913,4.604,0.135,-0.00,0.00,20.91,0.422,0.499,0.530,0.503,0.446,0,0,TURNING,0.000,0.057,-0.023,-1.265
22:41:52.653,TURNING,36.919,4.606,0.135,-0.00,0.00,11.77,0.432,0.538,0.479,0.540,0.529,0,0,TURNING,0.000,0.052,-0.006,-1.368
22:41:52.853,TURNING,36.930,4.607,0.135,-0.00,0.00,-4.00,0.478,0.509,0.427,0.511,0.505,0,0,TURNING,0.000,0.050,-0.001,-1.392
22:41:53.053,TURNING,36.939,4.605,0.135,-0.00,0.00,-19.97,0.486,0.446,0.399,0.446,0.272,0,0,TURNING,0.000,0.050,-0.000,-1.398
22:41:53.254,TURNING,36.948,4.600,0.135,-0.00,0.00,-36.00,0.425,0.414,0.404,0.415,0.232,0,0,TURNING,0.000,0.050,-0.000,-1.400
22:41:53.454,TURNING,36.956,4.593,0.135,-0.00,0.00,-52.04,0.373,0.397,0.424,0.397,0.228,0,0,TURNING,0.000,0.050,-0.000,-1.400
22:41:53.654,TURNING,36.961,4.585,0.135,-0.00,0.00,-68.08,0.353,0.410,0.490,0.410,0.227,0,0,TURNING,0.000,0.050,-0.000,-1.400
22:41:53.855,TURNING,36.963,4.575,0.135,-0.00,0.00,-84.12,0.369,0.474,0.655,0.472,0.227,0,0,TURNING,0.000,0.050,-0.000,-1.400
22:41:54.057,TURNING,36.963,4.565,0.135,-0.00,0.00,-100.17,0.432,0.624,1.172,0.634,6.217,0,0,TURNING,0.000,0.050,-0.000,-1.400
22:41:54.256,TURNING,36.960,4.556,0.135,-0.00,0.00,-116.21,0.580,1.061,1.282,1.085,7.353,0,0,TURNING,0.000,0.050,-0.000,-1.400
22:41:54.458,TURNING,36.954,4.547,0.135,-0.00,0.00,-132.25,0.964,2.071,2.657,2.966,6.757,0,0,TURNING,0.000,0.050,-0.000,-1.400
22:41:54.712,RETURNING,36.947,4.541,0.135,-0.00,0.00,-148.30,1.649,1.934,4.245,3.703,8.751,0,0,TURNING,0.000,0.035,-0.000,-0.980
22:41:54.860,RETURNING,36.918,4.524,0.135,-0.00,0.00,-151.19,1.781,2.438,5.102,4.164,8.700,0,0,RETURNING,0.000,0.558,-0.101,-0.508
22:41:55.062,RETURNING,36.849,4.488,0.135,-0.00,0.00,-154.07,2.877,4.040,5.077,4.348,5.885,0,0,RETURNING,0.000,0.705,-0.104,-0.344
22:41:55.261,RETURNING,36.770,4.451,0.135,-0.00,0.00,-156.15,3.275,4.335,5.110,4.466,3.596,0,0,RETURNING,0.000,0.749,-0.034,-0.268
22:41:55.462,RETURNING,36.686,4.416,0.138,-0.00,0.00,-157.86,3.273,4.393,5.318,4.475,4.126,0,0,RETURNING,0.000,0.764,0.203,-0.233
22:41:55.662,RETURNING,36.600,4.382,0.149,-0.00,0.00,-159.36,3.299,3.218,4.296,4.485,5.075,0,0,RETURNING,0.000,0.772,0.049,-0.201
22:41:55.864,RETURNING,36.513,4.350,0.150,-0.00,0.00,-160.49,3.273,4.173,0.985,4.500,7.542,0,0,RETURNING,0.000,0.778,-0.067,-0.089
22:41:56.064,RETURNING,36.425,4.319,0.145,-0.00,0.00,-160.86,2.217,4.303,1.413,4.488,4.020,0,0,RETURNING,0.000,0.780,0.034,-0.062
22:41:56.264,RETURNING,36.336,4.288,0.146,-0.00,0.00,-161.50,3.087,4.234,5.281,4.461,6.365,0,0,RETURNING,0.000,0.782,-0.051,-0.132
22:41:56.465,RETURNING,36.247,4.259,0.135,-0.00,-0.00,-162.54,3.150,4.186,5.761,4.447,9.080,0,0,RETURNING,0.000,0.784,-0.100,-0.161
22:41:58.062,RETURNING,36.172,4.236,0.135,0.00,-0.00,-163.47,3.145,4.202,5.888,4.459,6.424,0,0,RETURNING,0.000,0.787,-0.112,-0.159
22:41:58.127,RETURNING,36.096,4.214,0.135,0.00,-0.00,-164.37,3.140,4.181,4.397,4.473,8.248,0,0,RETURNING,0.000,0.789,-0.102,-0.148
22:41:58.304,RETURNING,36.005,4.189,0.135,0.00,0.00,-165.18,3.148,4.223,2.644,4.491,1.663,0,0,RETURNING,0.000,0.791,0.099,-0.091
22:41:58.502,RETURNING,35.913,4.165,0.138,0.00,-0.00,-165.88,2.215,4.196,7.297,4.478,4.840,0,0,RETURNING,0.000,0.792,0.098,-0.131
22:41:58.703,RETURNING,35.820,4.143,0.156,0.00,-0.00,-166.84,1.829,3.241,4.087,4.373,5.754,0,0,RETURNING,0.000,0.794,0.144,-0.141
22:41:58.902,RETURNING,35.727,4.122,0.169,0.00,-0.00,-167.98,0.906,2.026,2.981,4.294,4.606,0,0,RETURNING,0.000,0.750,-0.021,-0.207
22:41:59.103,RETURNING,35.657,4.108,0.166,0.00,-0.00,-170.47,2.328,1.546,2.389,4.212,8.107,0,0,RETURNING,0.000,0.509,-0.046,-0.363
22:41:59.305,RETURNING,35.586,4.097,0.150,0.00,-0.00,-171.84,2.964,2.794,4.741,4.279,6.845,0,0,RETURNING,0.000,0.707,-0.112,-0.109
22:41:59.504,RETURNING,35.497,4.084,0.135,-0.00,-0.00,-172.41,3.131,3.993,8.604,4.364,4.987,0,0,RETURNING,0.000,0.778,-0.038,-0.071
22:41:59.705,RETURNING,35.403,4.072,0.135,-0.00,0.00,-172.91,1.961,4.195,8.488,4.348,5.217,0,0,RETURNING,0.000,0.795,-0.039,-0.083
22:41:59.905,RETURNING,35.308,4.061,0.135,-0.00,0.00,-173.47,2.988,4.291,8.409,4.414,3.016,0,0,RETURNING,0.000,0.799,-0.019,-0.068
22:42:00.106,RETURNING,35.212,4.050,0.135,-0.00,0.00,-173.92,1.406,4.301,8.788,4.447,7.117,0,0,RETURNING,0.000,0.800,-0.022,-0.089
22:42:00.305,RETURNING,35.117,4.041,0.135,-0.00,0.00,-174.50,2.778,2.415,1.550,4.448,4.430,0,0,RETURNING,0.000,0.800,-0.016,-0.019
22:42:00.509,RETURNING,35.021,4.031,0.135,-0.00,0.00,-174.53,1.394,3.478,6.772,4.436,1.637,0,0,RETURNING,0.000,0.800,0.177,-0.052
22:42:00.707,RETURNING,34.926,4.022,0.152,-0.00,0.00,-174.99,2.121,4.008,7.368,4.375,4.281,0,0,RETURNING,0.000,0.800,0.115,-0.059
22:42:00.908,RETURNING,34.830,4.014,0.171,-0.00,0.00,-175.41,1.208,2.758,6.640,4.342,2.669,0,0,RETURNING,0.000,0.800,0.118,-0.087
22:42:01.108,RETURNING,34.735,4.007,0.217,-0.00,0.00,-176.00,1.485,1.471,2.193,4.275,0.668,0,0,RETURNING,0.000,0.690,0.506,-0.100
22:42:01.309,RETURNING,34.667,4.003,0.334,-0.00,0.00,-176.75,1.581,1.652,1.646,4.304,0.622,0,0,RETURNING,0.000,0.518,0.653,-0.057
22:42:01.509,RETURNING,34.597,3.999,0.468,-0.00,0.00,-176.83,2.555,2.377,2.424,4.297,0.927,0,0,RETURNING,0.000,0.695,0.689,0.020
22:42:01.711,RETURNING,34.508,3.994,0.607,-0.00,0.00,-176.62,2.870,3.540,3.557,4.244,1.286,0,0,RETURNING,0.000,0.774,0.682,0.030
22:42:01.911,RETURNING,34.414,3.988,0.737,-0.00,0.00,-176.46,2.871,4.025,4.823,4.156,1.589,0,0,RETURNING,0.000,0.793,0.558,0.015
22:42:02.112,RETURNING,34.318,3.982,0.838,-0.00,0.00,-176.41,2.807,4.066,5.934,4.052,1.926,0,0,RETURNING,0.000,0.797,0.415,0.000
22:42:02.312,RETURNING,34.223,3.976,0.913,-0.00,0.00,-176.44,2.719,3.978,7.272,3.938,2.141,0,0,RETURNING,0.000,0.799,0.311,-0.011
22:42:02.512,RETURNING,34.127,3.970,0.971,-0.00,0.00,-176.55,2.576,4.009,7.683,3.969,2.273,0,0,RETURNING,0.000,0.799,0.255,-0.019
22:42:02.713,RETURNING,34.031,3.965,1.019,-0.00,0.00,-176.69,2.475,3.940,7.728,3.916,2.419,0,0,RETURNING,0.000,0.799,0.217,-0.023
22:42:02.914,RETURNING,33.936,3.959,1.060,-0.00,0.00,-176.86,2.398,3.962,7.938,3.959,2.543,0,0,RETURNING,0.000,0.799,0.185,-0.025
22:42:03.116,RETURNING,33.840,3.954,1.095,-0.00,0.00,-177.04,2.338,4.010,7.989,3.995,2.612,0,0,RETURNING,0.000,0.798,0.167,-0.027
22:42:03.315,RETURNING,33.744,3.949,1.128,-0.00,0.00,-177.23,2.255,3.977,7.898,4.040,2.729,0,0,RETURNING,0.000,0.798,0.154,-0.028
22:42:03.516,RETURNING,33.649,3.945,1.158,-0.00,0.00,-177.42,2.211,4.015,7.891,4.094,2.815,0,0,RETURNING,0.000,0.798,0.143,-0.028
22:42:03.716,RETURNING,33.553,3.941,1.185,-0.00,0.00,-177.61,2.168,4.021,7.796,4.060,2.865,0,0,RETURNING,0.000,0.798,0.130,-0.028
22:42:03.916,RETURNING,33.457,3.937,1.211,-0.00,0.00,-177.80,2.170,4.010,7.743,4.078,2.943,0,0,RETURNING,0.000,0.798,0.121,-0.026
22:42:04.118,RETURNING,33.362,3.933,1.234,-0.00,0.00,-177.97,2.146,3.966,7.736,4.038,2.995,0,0,RETURNING,0.000,0.797,0.110,-0.024
22:42:04.317,RETURNING,33.266,3.930,1.256,-0.00,0.00,-178.13,2.137,3.990,7.679,4.040,3.061,0,0,RETURNING,0.000,0.797,0.103,-0.023
22:42:04.518,RETURNING,33.170,3.927,1.276,-0.00,0.00,-178.29,2.123,3.991,7.675,4.019,3.139,0,0,RETURNING,0.000,0.797,0.091,-0.021
22:42:04.719,RETURNING,33.075,3.924,1.293,-0.00,0.00,-178.43,2.118,3.968,7.638,4.013,3.186,0,0,RETURNING,0.000,0.797,0.082,-0.020
22:42:04.920,RETURNING,32.979,3.922,1.309,-0.00,0.00,-178.56,2.095,3.910,7.616,3.972,3.240,0,0,RETURNING,0.000,0.797,0.075,-0.018
22:42:05.120,RETURNING,32.884,3.919,1.324,-0.00,0.00,-178.68,2.086,3.847,7.514,3.952,3.244,0,0,RETURNING,0.000,0.796,0.069,-0.017
22:42:05.321,RETURNING,32.788,3.917,1.337,-0.00,0.00,-178.79,2.080,3.822,7.445,3.878,3.295,0,0,RETURNING,0.000,0.796,0.061,-0.015
22:42:05.521,RETURNING,32.693,3.915,1.348,-0.00,0.00,-178.90,2.045,3.826,7.437,3.874,3.314,0,0,RETURNING,0.000,0.796,0.056,-0.015
22:42:05.722,RETURNING,32.597,3.913,1.359,-0.00,0.00,-179.00,2.025,3.816,7.442,3.877,3.316,0,0,RETURNING,0.000,0.796,0.053,-0.015
22:42:05.923,RETURNING,32.502,3.912,1.368,-0.00,0.00,-179.10,1.996,3.811,7.386,3.866,3.357,0,0,RETURNING,0.000,0.796,0.018,-0.015
22:42:06.123,RETURNING,32.406,3.910,1.372,-0.00,0.00,-179.20,1.977,3.877,7.382,3.932,3.364,0,0,RETURNING,0.000,0.796,0.038,-0.015
22:42:06.324,RETURNING,32.311,3.909,1.381,-0.00,0.00,-179.31,1.878,4.068,7.299,4.060,3.386,0,0,RETURNING,0.000,0.795,0.052,-0.017
22:42:06.524,RETURNING,32.215,3.908,1.392,-0.00,0.00,-179.43,1.792,4.075,7.302,4.045,3.345,0,0,RETURNING,0.000,0.795,0.058,-0.020
22:42:06.726,RETURNING,32.120,3.907,1.404,-0.00,0.00,-179.59,1.709,4.264,7.192,4.138,3.455,0,0,RETURNING,0.000,0.795,0.059,-0.024
22:42:06.926,RETURNING,32.024,3.907,1.416,-0.00,0.00,-179.77,1.668,4.402,7.184,4.244,3.510,0,0,RETURNING,0.000,0.795,0.058,-0.028
22:42:07.126,RETURNING,31.929,3.906,1.427,-0.00,0.00,-179.96,1.660,4.507,7.089,4.309,3.525,0,0,RETURNING,0.000,0.794,0.060,-0.027
22:42:07.328,RETURNING,31.834,3.907,1.439,-0.00,0.00,179.86,1.675,4.633,7.143,4.451,3.569,0,0,RETURNING,0.000,0.794,0.063,-0.025
22:42:07.528,RETURNING,31.739,3.907,1.452,-0.00,0.00,179.70,1.708,4.628,7.007,4.509,3.591,0,0,RETURNING,0.000,0.794,0.066,-0.021
22:42:07.729,RETURNING,31.643,3.907,1.466,-0.00,0.00,179.57,1.689,4.622,6.943,4.562,3.607,0,0,RETURNING,0.000,0.793,0.068,-0.017
22:42:07.929,RETURNING,31.548,3.908,1.479,-0.00,0.00,179.46,1.719,4.586,6.935,4.575,3.656,0,0,RETURNING,0.000,0.793,0.068,-0.014
22:42:08.131,RETURNING,31.453,3.909,1.493,-0.00,0.00,179.37,1.703,4.483,6.934,4.576,3.687,0,0,RETURNING,0.000,0.793,0.065,-0.013
22:42:08.331,RETURNING,31.358,3.910,1.505,-0.00,0.00,179.29,1.740,4.329,6.800,4.504,3.730,0,0,RETURNING,0.000,0.793,0.061,-0.010
22:42:08.530,RETURNING,31.263,3.912,1.517,-0.00,0.00,179.23,1.722,4.164,6.811,4.392,3.749,0,0,RETURNING,0.000,0.793,0.038,-0.008
22:42:08.731,RETURNING,31.168,3.913,1.522,-0.00,0.00,179.18,1.721,3.985,6.739,4.265,3.743,0,0,RETURNING,0.000,0.792,0.009,-0.007
22:42:08.932,RETURNING,31.009,3.915,1.522,-0.00,0.00,179.10,1.753,4.015,6.673,4.138,3.776,0,0,RETURNING,0.000,0.792,0.002,-0.005
22:42:09.133,RETURNING,30.851,3.918,1.522,-0.00,0.00,179.05,1.729,3.971,6.563,4.038,3.814,0,0,RETURNING,0.000,0.792,0.001,-0.003
22:42:09.333,RETURNING,30.692,3.920,1.522,-0.00,0.00,179.02,1.632,3.855,6.542,3.879,3.795,0,0,RETURNING,0.000,0.792,0.000,-0.006
22:42:09.533,RETURNING,30.534,3.923,1.522,-0.00,0.00,178.92,1.482,3.667,6.538,3.721,3.702,0,0,RETURNING,0.000,0.792,0.000,-0.015
22:42:09.734,RETURNING,30.376,3.926,1.522,-0.00,0.00,178.72,1.472,3.493,6.418,3.583,3.581,0,0,RETURNING,0.000,0.791,0.000,-0.020
22:42:09.936,RETURNING,30.218,3.930,1.522,-0.00,0.00,178.50,1.523,3.314,6.363,3.482,3.440,0,0,RETURNING,0.000,0.791,0.000,-0.016
22:42:10.135,RETURNING,30.060,3.935,1.522,-0.00,0.00,178.33,1.563,3.098,6.218,3.312,3.238,0,0,RETURNING,0.000,0.790,0.000,-0.009
22:42:10.337,RETURNING,29.902,3.939,1.522,-0.00,0.00,178.25,1.622,4.758,6.081,3.117,3.126,0,0,RETURNING,0.000,0.790,0.000,-0.001
22:42:10.538,RETURNING,29.744,3.944,1.522,-0.00,0.00,178.26,1.637,7.747,6.025,2.973,2.913,0,0,RETURNING,0.000,0.790,0.000,0.004
22:42:10.738,RETURNING,29.586,3.949,1.522,-0.00,0.00,178.32,1.695,8.677,5.920,2.834,2.889,0,0,RETURNING,0.000,0.790,0.000,0.008
22:42:10.939,RETURNING,29.428,3.953,1.522,-0.00,0.00,178.43,1.713,8.424,5.947,2.741,3.045,0,0,RETURNING,0.000,0.790,0.000,0.012
22:42:11.138,RETURNING,29.302,3.957,1.518,-0.00,0.00,178.53,1.729,8.501,5.901,2.575,3.503,0,0,RETURNING,0.000,0.790,-0.070,0.012
22:42:11.340,RETURNING,29.207,3.959,1.505,-0.00,0.00,178.62,1.707,8.411,5.853,4.118,3.691,0,0,RETURNING,0.000,0.790,-0.029,0.013
22:42:11.539,RETURNING,29.112,3.961,1.501,-0.00,0.00,178.71,1.745,8.200,5.869,4.327,3.744,0,0,RETURNING,0.000,0.790,-0.007,0.013
22:42:11.741,RETURNING,28.954,3.965,1.501,-0.00,0.00,178.86,1.827,8.032,5.797,4.374,3.716,0,0,RETURNING,0.000,0.790,-0.002,0.015
22:42:11.941,RETURNING,28.796,3.968,1.501,-0.00,0.00,179.05,1.908,7.956,5.720,4.336,3.734,0,0,RETURNING,0.000,0.790,-0.000,0.021
22:42:12.142,RETURNING,28.638,3.970,1.501,-0.00,0.00,179.29,1.810,7.745,5.700,4.302,3.749,0,0,RETURNING,0.000,0.791,-0.000,0.019
22:42:12.342,RETURNING,28.480,3.972,1.501,-0.00,0.00,179.49,1.663,7.567,5.657,4.316,3.779,0,0,RETURNING,0.000,0.791,-0.000,0.010
22:42:12.543,RETURNING,28.322,3.973,1.501,-0.00,0.00,179.56,1.529,7.495,5.551,4.359,3.754,0,0,RETURNING,0.000,0.791,-0.000,-0.002
22:42:12.744,RETURNING,28.164,3.974,1.501,-0.00,0.00,179.50,1.422,7.418,5.555,4.393,3.752,0,0,RETURNING,0.000,0.791,-0.000,-0.014
22:42:12.944,RETURNING,28.005,3.976,1.501,-0.00,0.00,179.30,1.273,7.103,5.464,4.307,3.751,0,0,RETURNING,0.000,0.791,-0.000,-0.028
22:42:13.144,RETURNING,27.847,3.978,1.501,-0.00,0.00,178.94,1.142,6.969,5.315,4.233,3.745,0,0,RETURNING,0.000,0.790,-0.000,-0.042
22:42:13.344,RETURNING,27.689,3.982,1.501,-0.00,0.00,178.40,1.009,6.711,5.229,4.145,3.750,0,0,RETURNING,0.000,0.789,-0.000,-0.060
22:42:13.546,RETURNING,27.532,3.987,1.501,-0.00,0.00,177.98,4.484,6.587,5.086,4.111,3.751,0,0,RETURNING,0.000,0.788,-0.000,0.049
22:42:13.746,RETURNING,27.374,3.992,1.501,-0.00,0.00,178.75,3.833,6.431,5.042,4.058,3.783,0,0,RETURNING,0.000,0.788,-0.000,0.096
22:42:13.946,RETURNING,27.216,3.994,1.501,-0.00,0.00,179.85,3.354,6.311,4.902,3.985,3.755,0,0,RETURNING,0.000,0.790,-0.000,0.090
22:42:14.148,RETURNING,27.058,3.993,1.501,-0.00,0.00,-179.17,3.195,6.133,4.943,3.950,3.752,0,0,RETURNING,0.000,0.792,-0.000,0.075
22:42:14.347,RETURNING,26.900,3.990,1.501,-0.00,0.00,-178.35,3.110,5.839,4.948,3.879,3.779,0,0,RETURNING,0.000,0.793,-0.000,0.062
22:42:14.548,RETURNING,26.741,3.984,1.501,-0.00,0.00,-177.67,3.025,5.742,4.945,3.922,3.758,0,0,RETURNING,0.000,0.795,-0.000,0.051
22:42:14.749,RETURNING,26.582,3.977,1.501,-0.00,0.00,-177.11,3.055,5.574,4.883,3.902,3.752,0,0,RETURNING,0.000,0.796,-0.000,0.043
22:42:14.949,RETURNING,26.424,3.968,1.501,-0.00,0.00,-176.63,3.396,5.354,4.870,3.940,3.751,0,0,RETURNING,0.000,0.796,-0.000,0.042
22:42:15.151,RETURNING,26.265,3.958,1.501,-0.00,0.00,-176.15,3.716,5.309,4.869,3.937,3.751,0,0,RETURNING,0.000,0.797,-0.000,0.042
22:42:15.352,RETURNING,26.106,3.947,1.501,-0.00,0.00,-175.67,3.833,5.144,4.858,3.910,3.767,0,0,RETURNING,0.000,0.797,-0.000,0.041
22:42:15.552,RETURNING,25.947,3.934,1.501,-0.00,0.00,-175.21,3.866,5.030,4.852,3.949,3.754,0,0,RETURNING,0.000,0.798,-0.000,0.037
22:42:15.752,RETURNING,25.788,3.921,1.501,-0.00,0.00,-174.79,3.823,4.898,4.800,3.897,3.751,0,0,RETURNING,0.000,0.798,-0.000,0.032
22:42:15.952,RETURNING,25.629,3.906,1.501,-0.00,0.00,-174.44,3.829,4.706,4.848,3.758,3.744,0,0,RETURNING,0.000,0.799,-0.000,0.028
22:42:16.154,RETURNING,25.470,3.890,1.501,-0.00,0.00,-174.13,3.920,4.605,4.796,3.640,3.739,0,0,RETURNING,0.000,0.799,-0.000,0.025
22:42:16.354,RETURNING,25.311,3.873,1.501,-0.00,0.00,-173.85,3.933,4.383,4.840,3.478,3.750,0,0,RETURNING,0.000,0.799,-0.000,0.022
22:42:16.554,RETURNING,25.152,3.856,1.501,-0.00,0.00,-173.61,3.684,4.192,4.825,3.348,3.751,0,0,RETURNING,0.000,0.799,-0.000,0.017
22:42:16.755,RETURNING,24.993,3.838,1.501,-0.00,0.00,-173.43,3.725,4.072,4.833,3.235,3.720,0,0,RETURNING,0.000,0.799,-0.000,0.013
22:42:16.956,RETURNING,24.834,3.819,1.501,-0.00,0.00,-173.28,3.647,4.243,4.816,3.184,3.680,0,0,RETURNING,0.000,0.799,-0.015,0.011
22:42:17.157,RETURNING,24.739,3.808,1.498,-0.00,0.00,-173.21,3.587,4.401,4.677,3.131,3.618,0,0,RETURNING,0.000,0.800,-0.024,0.010
22:42:17.357,RETURNING,24.644,3.796,1.491,-0.00,0.00,-173.14,3.421,4.326,4.719,3.097,3.526,0,0,RETURNING,0.000,0.800,-0.030,0.008
22:42:17.557,RETURNING,24.548,3.785,1.487,-0.00,0.00,-173.11,3.417,4.326,4.761,3.136,3.422,0,0,RETURNING,0.000,0.800,-0.007,0.004
22:42:17.758,RETURNING,24.390,3.766,1.487,-0.00,0.00,-173.06,3.741,4.493,4.766,3.115,3.302,0,0,RETURNING,0.000,0.800,-0.002,0.006
22:42:17.958,RETURNING,24.231,3.746,1.487,-0.00,0.00,-172.98,4.312,4.807,4.637,3.119,3.173,0,0,RETURNING,0.000,0.800,-0.000,0.012
22:42:18.159,RETURNING,24.072,3.727,1.487,-0.00,0.00,-172.83,4.972,5.153,4.601,3.141,3.098,0,0,RETURNING,0.000,0.800,-0.000,0.019
22:42:18.359,RETURNING,23.914,3.706,1.487,-0.00,0.00,-172.59,5.668,5.874,4.591,3.101,2.982,0,0,RETURNING,0.000,0.800,-0.000,0.025
22:42:18.559,RETURNING,23.755,3.685,1.487,-0.00,0.00,-172.29,7.731,6.493,4.651,3.124,2.845,0,0,RETURNING,0.000,0.800,-0.000,0.030
22:42:18.760,RETURNING,23.597,3.664,1.487,-0.00,0.00,-171.93,8.994,7.051,4.590,3.034,2.774,0,0,RETURNING,0.000,0.800,-0.000,0.034
22:42:18.961,RETURNING,23.438,3.641,1.487,-0.00,0.00,-171.54,9.214,7.101,4.588,2.864,2.707,0,0,RETURNING,0.000,0.800,-0.000,0.033
22:42:19.162,RETURNING,23.280,3.617,1.487,-0.00,0.00,-171.18,9.298,7.381,4.519,2.700,3.046,0,0,RETURNING,0.000,0.800,-0.015,0.030
22:42:19.363,RETURNING,23.185,3.602,1.480,-0.00,0.00,-170.98,9.303,7.376,4.473,2.589,3.603,0,0,RETURNING,0.000,0.800,-0.086,0.027
22:42:19.563,RETURNING,23.090,3.587,1.459,-0.00,0.00,-170.80,9.170,7.591,4.485,2.499,3.642,0,0,RETURNING,0.000,0.800,-0.130,0.025
22:42:19.764,RETURNING,22.996,3.571,1.431,-0.00,0.00,-170.64,8.939,7.585,4.525,2.404,3.594,0,0,RETURNING,0.000,0.800,-0.153,0.022
