timestamp,state,x,y,z,roll_deg,pitch_deg,yaw_deg,dist_left,dist_center,dist_right,dist_top,dist_bottom,dtof_alert,collision_event,best_dir,max_space,cmd_vx,cmd_vz,cmd_yaw
19:46:25.745,SEARCHING,0.000,0.000,0.000,0.00,0.00,0.00,10.000,10.000,10.000,10.000,10.000,0,0,SEARCHING,10.000,0.800,0.030,0.000
19:46:26.791,SEARCHING,0.048,0.000,1.000,0.00,0.00,0.00,10.000,10.000,10.000,10.000,10.000,0,0,SEARCHING,10.000,0.800,0.058,0.000
19:46:27.003,SEARCHING,0.208,0.000,1.000,0.00,0.00,0.00,10.000,10.000,10.000,10.000,10.000,0,0,SEARCHING,10.000,0.800,0.085,0.000
19:46:27.208,SEARCHING,0.368,0.000,1.000,0.00,0.00,0.00,6.356,2.896,2.179,2.896,2.460,0,0,SEARCHING,2.179,0.800,0.135,0.302
19:46:27.405,SEARCHING,0.528,0.002,1.000,0.00,0.00,2.46,6.730,2.860,1.990,2.860,2.460,0,0,SEARCHING,1.990,0.800,0.125,0.354
19:46:27.606,SEARCHING,0.688,0.014,1.000,0.00,0.00,6.44,5.321,3.051,1.923,3.051,2.409,0,0,SEARCHING,1.923,0.800,0.192,0.332
19:46:27.808,SEARCHING,0.846,0.037,1.000,0.00,0.00,10.15,3.878,3.691,1.990,3.632,2.434,0,0,SEARCHING,1.990,0.800,0.298,0.245
19:46:28.003,SEARCHING,1.003,0.068,1.000,0.00,0.00,12.99,3.575,4.237,2.043,4.317,2.359,0,0,SEARCHING,2.043,0.800,0.423,0.210
19:46:28.211,SEARCHING,1.158,0.107,1.000,0.00,0.00,15.32,3.223,5.085,2.099,5.085,2.460,0,0,SEARCHING,2.099,0.800,0.462,0.166
19:46:28.430,SEARCHING,1.311,0.152,1.000,0.00,0.00,17.23,3.092,5.200,2.099,5.200,2.460,0,0,SEARCHING,2.099,0.800,0.471,0.153
19:46:28.613,SEARCHING,1.464,0.201,1.000,0.00,0.00,18.75,2.825,5.448,2.222,5.448,2.460,0,0,SEARCHING,2.222,0.800,0.490,0.096
19:46:28.813,SEARCHING,1.615,0.254,1.000,0.00,0.00,19.88,2.757,5.581,2.266,5.581,2.460,0,0,SEARCHING,2.266,0.800,0.500,0.079
19:46:29.005,SEARCHING,1.765,0.310,1.000,0.00,0.00,20.75,2.661,5.867,2.600,5.720,2.460,0,0,SEARCHING,2.460,0.800,0.510,0.000
19:46:29.208,SEARCHING,1.914,0.367,1.000,0.00,0.00,20.89,2.571,5.867,2.790,5.720,2.434,0,0,SEARCHING,2.434,0.800,0.519,0.000
19:46:29.403,SEARCHING,2.064,0.424,1.000,0.00,0.00,20.89,2.571,5.720,2.692,5.581,2.487,0,0,SEARCHING,2.487,0.800,0.490,0.000
19:46:29.607,SEARCHING,2.213,0.481,1.000,0.00,0.00,20.89,2.514,5.581,2.692,5.581,2.311,0,0,SEARCHING,2.311,0.800,0.558,0.000
19:46:29.811,SEARCHING,2.363,0.538,1.000,0.00,0.00,20.89,2.487,5.581,2.661,5.448,2.460,0,0,SEARCHING,2.460,0.800,0.490,0.000
19:46:30.017,SEARCHING,2.512,0.595,1.000,0.00,0.00,20.89,2.460,5.321,2.661,5.448,2.434,0,0,SEARCHING,2.434,0.800,0.500,0.000
19:46:30.205,SEARCHING,2.662,0.652,1.000,0.00,0.00,20.89,2.409,5.200,2.630,5.200,2.460,0,0,SEARCHING,2.409,0.800,0.471,0.000
19:46:30.409,SEARCHING,2.811,0.709,1.000,0.00,0.00,20.89,2.409,5.200,2.692,5.200,2.460,0,0,SEARCHING,2.409,0.800,0.471,0.000
19:46:30.606,SEARCHING,2.961,0.766,1.000,0.00,0.00,20.89,2.384,5.085,2.724,5.085,2.460,0,0,SEARCHING,2.384,0.800,0.462,-0.052
19:46:30.817,SEARCHING,3.110,0.823,1.000,0.00,0.00,20.47,2.434,4.974,2.692,5.085,2.487,0,0,SEARCHING,2.434,0.800,0.452,0.000
19:46:31.015,SEARCHING,3.260,0.879,1.000,0.00,0.00,20.47,2.460,4.868,2.661,4.868,2.434,0,0,SEARCHING,2.434,0.800,0.452,0.000
19:46:31.214,SEARCHING,3.410,0.935,1.000,0.00,0.00,20.47,2.487,4.767,2.630,4.767,2.434,0,0,SEARCHING,2.434,0.800,0.442,0.000
19:46:31.412,SEARCHING,3.560,0.990,1.000,0.00,0.00,20.47,2.487,4.670,2.661,4.767,2.460,0,0,SEARCHING,2.460,0.800,0.433,0.000
19:46:31.612,SEARCHING,3.710,1.046,1.000,0.00,0.00,20.47,2.487,4.576,2.600,4.670,2.460,0,0,SEARCHING,2.460,0.800,0.423,0.000
19:46:31.812,SEARCHING,3.860,1.102,1.000,0.00,0.00,20.47,2.487,4.576,2.630,4.576,2.434,0,0,SEARCHING,2.434,0.800,0.423,0.000
19:46:32.012,SEARCHING,4.010,1.158,1.000,0.00,0.00,20.47,2.460,4.487,2.460,4.487,2.434,0,0,SEARCHING,2.434,0.800,0.413,0.000
19:46:32.213,SEARCHING,4.160,1.214,1.000,0.00,0.00,20.47,2.359,4.400,2.359,4.400,2.460,0,0,SEARCHING,2.359,0.800,0.394,0.000
19:46:32.419,SEARCHING,4.309,1.270,1.000,0.00,0.00,20.47,2.311,4.400,2.288,4.400,2.487,0,0,SEARCHING,2.288,0.800,0.385,0.000
19:46:32.614,SEARCHING,4.459,1.326,1.000,0.00,0.00,21.02,3.575,4.400,2.266,4.400,2.460,0,0,SEARCHING,2.266,0.800,0.394,0.162
19:46:32.814,SEARCHING,4.608,1.386,1.000,0.00,0.00,22.83,3.178,4.576,2.311,4.670,2.434,0,0,SEARCHING,2.311,0.800,0.433,0.118
19:46:33.018,SEARCHING,4.755,1.450,1.000,0.00,0.00,24.18,3.092,4.974,2.359,4.868,2.434,0,0,SEARCHING,2.359,0.800,0.452,0.101
19:46:33.218,SEARCHING,4.900,1.517,1.000,0.00,0.00,25.32,3.011,5.321,2.384,5.321,2.487,0,0,SEARCHING,2.384,0.800,0.471,0.087
19:46:33.419,SEARCHING,5.044,1.586,1.000,0.00,0.00,26.28,2.860,5.867,2.409,6.022,2.460,0,0,SEARCHING,2.409,0.800,0.529,0.066
19:46:33.618,SEARCHING,5.187,1.658,1.000,0.00,0.00,27.02,2.896,6.356,2.434,6.022,2.460,0,0,SEARCHING,2.434,0.800,0.529,0.066
19:46:33.823,SEARCHING,5.329,1.731,1.000,0.00,0.00,27.53,2.825,6.022,2.460,6.184,2.434,0,0,SEARCHING,2.434,0.800,0.548,0.052
19:46:34.016,SEARCHING,5.471,1.805,1.000,0.00,0.00,27.95,2.896,5.581,2.487,6.022,2.487,0,0,SEARCHING,2.487,0.800,0.519,0.057
19:46:34.219,SEARCHING,5.612,1.881,1.000,0.00,0.00,28.46,2.825,5.448,2.514,5.867,2.487,0,0,SEARCHING,2.487,0.800,0.510,0.000
19:46:34.422,SEARCHING,5.753,1.957,1.000,0.00,0.00,28.46,2.896,5.085,2.542,5.867,2.487,0,0,SEARCHING,2.487,0.800,0.510,0.000
19:46:34.630,SEARCHING,5.893,2.034,1.000,0.00,0.00,28.59,2.934,4.767,2.514,5.720,2.460,0,0,SEARCHING,2.460,0.800,0.510,0.057
19:46:34.820,SEARCHING,6.033,2.111,1.000,0.00,0.00,29.05,2.860,4.868,2.571,5.581,2.434,0,0,SEARCHING,2.434,0.800,0.510,0.000
19:46:35.033,SEARCHING,6.173,2.189,1.000,0.00,0.00,29.05,2.790,4.767,2.542,5.321,2.487,0,0,SEARCHING,2.487,0.800,0.471,0.000
19:46:35.219,SEARCHING,6.313,2.266,1.000,0.00,0.00,29.05,2.757,4.317,2.514,5.085,2.460,0,0,SEARCHING,2.460,0.800,0.462,0.000
19:46:35.426,SEARCHING,6.453,2.344,1.000,0.00,0.00,29.05,2.692,3.945,2.487,4.974,2.460,0,0,SEARCHING,2.460,0.800,0.452,0.000
19:46:35.632,SEARCHING,6.593,2.422,1.000,0.00,0.00,29.05,2.600,3.878,2.487,4.868,2.434,0,0,SEARCHING,2.434,0.800,0.452,0.000
19:46:35.820,SEARCHING,6.733,2.499,1.000,0.00,0.00,29.05,2.571,3.632,2.460,4.767,2.460,0,0,SEARCHING,2.460,0.800,0.433,0.000
19:46:36.023,SEARCHING,6.873,2.577,1.000,0.00,0.00,29.05,2.571,3.520,2.409,4.670,2.460,0,0,SEARCHING,2.409,0.800,0.423,0.000
19:46:36.232,SEARCHING,7.012,2.655,1.000,0.00,0.00,29.05,2.542,3.316,2.542,4.487,2.460,0,0,SEARCHING,2.460,0.800,0.404,0.000
19:46:36.432,SEARCHING,7.152,2.732,1.000,0.00,0.00,29.05,2.514,3.223,2.724,4.317,2.460,0,0,SEARCHING,2.460,0.800,0.385,0.000
19:46:36.626,SEARCHING,7.292,2.810,1.000,0.00,0.00,29.05,2.514,2.934,2.757,4.086,2.434,0,0,SEARCHING,2.434,0.800,0.365,0.000
19:46:36.825,SEARCHING,7.432,2.888,1.000,0.00,0.00,29.05,2.460,2.825,2.692,3.878,2.460,0,0,SEARCHING,2.460,0.800,0.327,0.000
19:46:37.028,SEARCHING,7.572,2.965,1.000,0.00,0.00,29.05,2.434,2.661,2.571,3.814,2.460,0,0,SEARCHING,2.434,0.800,0.317,0.000
19:46:37.224,SEARCHING,7.712,3.043,1.000,0.00,0.00,29.05,2.409,2.434,2.409,3.520,2.460,0,0,SEARCHING,2.409,0.779,0.269,0.000
19:46:37.431,SEARCHING,7.849,3.119,1.000,0.00,0.00,29.05,2.359,2.311,2.266,3.415,2.335,0,0,SEARCHING,2.266,0.740,0.298,0.000
19:46:37.630,SEARCHING,7.980,3.192,1.000,0.00,0.00,29.05,2.243,2.138,2.099,3.316,2.138,0,0,SEARCHING,2.099,0.684,0.365,0.000
19:46:37.825,SEARCHING,8.102,3.260,1.000,0.00,0.00,29.05,2.099,2.007,2.007,3.269,1.990,0,0,SEARCHING,1.990,0.642,0.433,0.000
19:46:38.031,SEARCHING,8.215,3.323,1.000,0.00,0.00,29.05,1.923,1.939,1.876,3.134,1.747,0,0,SEARCHING,1.747,0.621,0.558,0.000
19:46:38.230,SEARCHING,8.323,3.382,1.000,0.00,0.00,29.05,1.845,1.788,1.774,3.011,1.658,0,0,SEARCHING,1.658,0.572,0.596,0.000
19:46:38.429,SEARCHING,8.423,3.438,1.000,0.00,0.00,29.05,1.747,1.695,1.634,2.896,1.670,0,0,SEARCHING,1.634,0.542,0.558,0.000
19:46:38.638,SEARCHING,8.518,3.491,1.000,0.00,0.00,29.05,1.634,1.623,1.557,2.692,1.578,0,0,SEARCHING,1.557,0.519,0.577,0.000
19:46:38.831,SEARCHING,8.609,3.542,1.000,0.00,0.00,29.05,1.557,1.557,1.486,2.630,1.486,0,0,SEARCHING,1.486,0.498,0.644,0.000
19:46:39.038,SEARCHING,8.695,3.589,1.000,0.00,0.00,29.05,1.467,1.467,1.378,2.571,1.387,0,0,SEARCHING,1.378,0.469,0.731,0.000
19:46:39.233,SEARCHING,8.778,3.635,1.000,0.00,0.00,29.05,1.387,1.370,1.323,2.487,1.293,0,0,SEARCHING,1.293,0.438,0.817,0.000
19:46:39.434,SEARCHING,8.856,3.679,1.000,0.00,0.00,29.23,1.330,1.338,1.224,1.557,1.192,0,0,SEARCHING,1.192,0.428,0.433,0.066
19:46:39.632,SEARCHING,8.931,3.721,1.000,0.00,0.00,29.71,1.264,1.308,1.217,2.335,1.095,0,0,SEARCHING,1.095,0.418,1.000,0.000
19:46:39.834,SEARCHING,9.004,3.762,1.000,0.00,0.00,29.71,1.224,1.224,1.300,1.090,1.022,0,0,SEARCHING,1.022,0.392,0.135,0.000
19:46:40.070,SEARCHING,9.072,3.801,1.000,0.00,0.00,29.71,1.179,1.211,1.237,2.243,0.957,0,0,SEARCHING,0.957,0.387,1.000,0.000
19:46:41.657,SEARCHING,9.106,3.821,1.000,0.00,0.00,29.71,1.167,1.224,1.224,2.200,0.930,0,0,SEARCHING,0.930,0.392,1.000,0.000
19:46:41.802,SEARCHING,9.139,3.840,1.000,0.00,0.00,29.71,1.217,1.264,1.217,2.200,0.908,0,0,SEARCHING,0.908,0.405,1.000,0.000
19:46:42.093,SEARCHING,9.224,3.888,1.000,0.00,0.00,29.71,1.244,1.230,1.323,1.973,0.720,0,0,SEARCHING,0.720,0.394,1.000,0.000
19:46:42.357,SEARCHING,9.326,3.947,1.000,0.00,0.00,29.71,1.257,1.338,1.250,1.860,0.620,0,0,SEARCHING,0.620,0.428,1.000,0.000
19:46:42.496,SEARCHING,9.361,3.967,1.000,0.00,0.00,29.71,1.338,1.323,1.338,1.860,0.569,0,0,SEARCHING,0.569,0.423,1.000,0.000
19:46:42.781,SEARCHING,9.465,4.026,1.000,0.00,0.00,29.71,1.338,1.264,1.250,1.695,0.488,0,0,SEARCHING,0.488,0.405,1.000,0.026
19:46:43.059,SEARCHING,9.557,4.078,1.000,0.00,0.00,29.71,1.285,1.271,1.300,1.536,0.492,0,0,SEARCHING,0.492,0.407,1.000,0.000
19:46:43.203,SEARCHING,9.612,4.109,1.000,0.00,0.00,29.71,1.224,1.217,1.330,1.546,0.466,0,0,SEARCHING,0.466,0.389,1.000,-0.033
19:46:43.504,SEARCHING,9.716,4.169,1.000,0.00,0.00,29.93,1.285,1.173,1.264,3.051,0.479,0,0,SEARCHING,0.479,0.375,1.000,0.000
19:46:43.790,SEARCHING,9.821,4.230,1.000,0.00,0.00,29.83,1.217,1.244,1.338,2.860,0.468,0,0,SEARCHING,0.468,0.398,1.000,-0.037
19:46:44.088,SEARCHING,9.920,4.285,1.000,0.00,0.00,29.26,1.127,1.285,1.330,2.896,0.475,0,0,SEARCHING,0.475,0.411,1.000,-0.068
19:46:44.370,SEARCHING,10.025,4.344,1.000,0.00,0.00,29.00,1.031,1.257,1.264,2.825,0.468,0,0,SEARCHING,0.468,0.402,1.000,-0.090
19:46:44.509,SEARCHING,10.059,4.363,1.000,0.00,0.00,28.73,0.995,1.204,1.264,2.790,0.471,0,0,SEARCHING,0.471,0.385,1.000,-0.107
19:46:44.790,SEARCHING,10.166,4.420,1.000,0.00,0.00,27.67,0.904,1.244,1.217,2.724,0.470,0,0,SEARCHING,0.470,0.398,1.000,-0.142
19:46:45.088,SEARCHING,10.273,4.475,1.000,0.00,0.00,26.18,0.803,1.257,3.751,2.661,0.469,0,0,SEARCHING,0.469,0.402,1.000,-0.489
19:46:45.388,SEARCHING,10.380,4.525,1.000,0.00,0.00,23.97,3.051,6.022,3.520,2.600,0.486,0,0,SEARCHING,0.486,0.800,1.000,0.000
19:46:45.671,SEARCHING,10.554,4.597,1.000,0.00,0.00,18.95,4.160,7.151,2.757,2.661,0.479,0,0,SEARCHING,0.479,0.800,1.000,0.061
19:46:45.807,SEARCHING,10.616,4.615,1.000,0.00,0.00,14.93,3.520,3.467,2.724,2.630,0.466,0,0,SEARCHING,0.466,0.800,1.000,0.042
19:46:46.086,SEARCHING,10.848,4.676,1.000,0.00,0.00,14.65,3.365,3.316,2.724,2.661,0.464,0,0,SEARCHING,0.464,0.800,1.000,0.035
19:46:46.359,SEARCHING,11.041,4.728,1.000,0.00,0.00,15.34,3.092,3.223,2.724,2.661,0.477,0,0,SEARCHING,0.477,0.800,1.000,0.000
19:46:46.512,SEARCHING,11.157,4.760,1.000,0.00,0.00,15.70,3.051,3.011,2.757,2.600,0.486,0,0,SEARCHING,0.486,0.800,1.000,0.000
19:46:46.664,SEARCHING,11.387,4.826,1.000,0.00,0.00,16.26,2.934,2.790,2.692,2.600,1.467,0,0,SEARCHING,1.467,0.800,0.654,0.000
19:46:46.857,SEARCHING,11.810,4.950,1.000,0.00,0.00,16.35,2.542,2.571,2.542,2.335,1.430,0,0,SEARCHING,1.430,0.800,0.596,0.000
19:46:47.054,SEARCHING,11.962,4.995,1.000,0.00,0.00,16.35,2.266,2.487,2.460,2.288,1.956,0,0,SEARCHING,1.956,0.796,0.163,0.000
19:46:47.256,SEARCHING,12.114,5.039,1.000,0.00,0.00,16.35,2.434,2.200,2.434,2.119,1.956,0,0,SEARCHING,1.956,0.704,0.087,0.000
19:46:47.454,SEARCHING,12.255,5.080,1.000,0.00,0.00,16.35,1.973,2.179,2.222,1.990,1.939,0,0,SEARCHING,1.939,0.697,0.029,-0.057
19:46:47.666,SEARCHING,12.393,5.120,1.000,0.00,0.00,15.74,2.460,2.384,2.487,1.831,1.939,0,0,SEARCHING,1.831,0.763,-0.067,0.000
19:46:47.857,SEARCHING,12.543,5.162,1.000,0.00,0.00,15.98,6.730,2.434,2.434,1.682,1.939,0,0,SEARCHING,1.682,0.779,-0.173,0.262
19:46:48.054,SEARCHING,12.692,5.208,1.000,0.00,0.00,18.79,3.575,2.460,2.487,1.536,1.956,0,0,SEARCHING,1.536,0.787,-0.308,0.122
19:46:48.261,SEARCHING,12.841,5.261,1.000,0.00,0.00,19.99,3.316,7.151,4.974,1.378,1.990,0,0,SEARCHING,1.378,0.800,-0.490,-0.101
19:46:48.456,SEARCHING,12.991,5.315,1.000,0.00,0.00,19.14,3.575,7.381,5.200,1.217,2.138,0,0,SEARCHING,1.217,0.800,-0.779,-0.087
19:46:48.662,SEARCHING,13.143,5.366,1.000,0.00,0.00,18.28,6.022,6.356,5.085,1.069,2.200,0,0,SEARCHING,1.069,0.800,-1.000,0.000
19:46:48.954,SEARCHING,13.295,5.417,1.000,0.00,0.00,18.28,6.022,6.022,4.974,0.953,2.200,0,0,SEARCHING,0.953,0.800,-1.000,0.000
19:46:49.103,SEARCHING,13.371,5.442,1.000,0.00,0.00,18.28,6.184,6.934,5.085,0.908,2.200,0,0,SEARCHING,0.908,0.800,-1.000,0.000
19:46:49.374,SEARCHING,13.561,5.504,1.000,0.00,0.00,18.28,5.448,6.184,5.085,0.877,2.179,0,0,SEARCHING,0.877,0.800,-1.000,0.000
19:46:49.512,SEARCHING,13.637,5.530,1.000,0.00,0.00,18.28,5.720,6.184,5.085,0.857,2.179,0,0,SEARCHING,0.857,0.800,-1.000,0.000
19:46:49.792,SEARCHING,13.827,5.592,1.000,0.00,0.00,18.28,5.448,6.538,5.321,0.877,2.159,0,0,SEARCHING,0.877,0.800,-1.000,0.000
19:46:50.070,SEARCHING,14.016,5.655,1.000,0.00,0.00,18.28,5.200,6.538,5.448,0.870,2.159,0,0,SEARCHING,0.870,0.800,-1.000,0.000
19:46:50.243,SEARCHING,14.092,5.680,1.000,0.00,0.00,18.28,5.200,6.356,5.085,0.854,2.200,0,0,SEARCHING,0.854,0.800,-1.000,0.000
19:46:50.548,SEARCHING,14.244,5.730,1.000,0.00,0.00,18.28,5.448,6.356,4.767,0.851,2.266,0,0,SEARCHING,0.851,0.800,-1.000,0.000
19:46:50.812,SEARCHING,14.396,5.780,1.000,0.00,0.00,18.28,5.448,6.022,4.670,0.857,2.288,0,0,SEARCHING,0.857,0.800,-1.000,0.000
19:46:51.065,SEARCHING,14.624,5.856,1.000,0.00,0.00,18.28,5.448,5.867,4.670,0.867,2.311,0,0,SEARCHING,0.867,0.800,-1.000,0.000
19:46:51.191,SEARCHING,14.700,5.881,1.000,0.00,0.00,18.28,5.321,5.448,4.670,0.847,2.266,0,0,SEARCHING,0.847,0.800,-1.000,0.000
19:46:51.479,SEARCHING,14.890,5.944,1.000,0.00,0.00,18.28,5.581,5.448,4.487,0.857,2.288,0,0,SEARCHING,0.857,0.800,-1.000,0.000
19:46:51.616,SEARCHING,15.004,5.981,1.000,0.00,0.00,18.28,5.720,5.321,4.400,0.867,2.311,0,0,SEARCHING,0.867,0.800,-1.000,0.026
19:46:51.813,SEARCHING,15.232,6.057,1.000,0.00,0.00,18.56,5.581,5.200,4.086,5.200,2.384,0,0,SEARCHING,2.384,0.800,0.500,0.066
19:46:51.961,SEARCHING,15.648,6.199,1.000,0.00,0.00,19.27,5.200,4.767,4.237,4.767,2.335,0,0,SEARCHING,2.335,0.800,0.481,0.000
19:46:52.161,SEARCHING,15.799,6.252,1.000,0.00,0.00,19.27,4.974,4.670,4.086,4.670,2.335,0,0,SEARCHING,2.335,0.800,0.471,0.000
19:46:52.359,SEARCHING,15.950,6.305,1.000,0.00,0.00,19.27,4.767,4.576,4.086,4.576,2.384,0,0,SEARCHING,2.384,0.800,0.442,0.000
19:46:52.565,SEARCHING,16.101,6.357,1.000,0.00,0.00,19.27,4.670,4.400,4.014,4.400,2.409,0,0,SEARCHING,2.409,0.800,0.413,0.000
19:46:52.761,SEARCHING,16.252,6.410,1.000,0.00,0.00,19.27,4.400,4.237,4.014,4.237,2.384,0,0,SEARCHING,2.384,0.800,0.404,0.000
19:46:52.961,SEARCHING,16.403,6.463,1.000,0.00,0.00,19.27,4.317,4.086,3.945,4.086,2.311,0,0,SEARCHING,2.311,0.800,0.413,0.000
19:46:53.170,SEARCHING,16.554,6.516,1.000,0.00,0.00,19.27,4.160,3.945,3.878,3.945,2.384,0,0,SEARCHING,2.384,0.800,0.365,0.000
19:46:53.361,SEARCHING,16.705,6.569,1.000,0.00,0.00,19.27,3.691,3.751,3.520,3.751,2.409,0,0,SEARCHING,2.409,0.800,0.327,0.000
19:46:53.568,SEARCHING,16.856,6.622,1.000,0.00,0.00,19.27,3.316,3.632,3.632,3.632,2.434,0,0,SEARCHING,2.434,0.800,0.298,0.000
19:46:53.771,SEARCHING,17.007,6.674,1.000,0.00,0.00,19.27,3.632,3.520,3.467,3.575,2.384,0,0,SEARCHING,2.384,0.800,0.308,0.000
19:46:53.965,SEARCHING,17.158,6.727,1.000,0.00,0.00,19.27,3.269,3.415,3.269,3.415,2.384,0,0,SEARCHING,2.384,0.800,0.279,0.000
19:46:54.164,SEARCHING,17.310,6.780,1.000,0.00,0.00,19.27,3.415,3.316,3.092,3.316,2.359,0,0,SEARCHING,2.359,0.800,0.269,0.000
19:46:54.365,SEARCHING,17.461,6.833,1.000,0.00,0.00,19.27,3.223,3.178,3.011,3.134,2.409,0,0,SEARCHING,2.409,0.800,0.212,0.000
19:46:54.565,SEARCHING,17.612,6.886,1.000,0.00,0.00,19.27,3.134,3.011,2.825,3.011,2.409,0,0,SEARCHING,2.409,0.800,0.183,0.000
19:46:54.769,SEARCHING,17.763,6.938,1.000,0.00,0.00,19.27,3.134,2.972,2.692,2.972,2.409,0,0,SEARCHING,2.409,0.800,0.173,0.052
19:46:54.989,SEARCHING,17.914,6.992,1.000,0.00,0.00,19.57,2.692,2.860,2.514,2.860,2.434,0,0,SEARCHING,2.434,0.800,0.135,0.000
19:46:55.168,SEARCHING,18.064,7.045,1.000,0.00,0.00,19.57,2.724,2.724,2.384,2.757,2.434,0,0,SEARCHING,2.384,0.800,0.106,0.052
19:46:55.366,SEARCHING,18.215,7.099,1.000,0.00,0.00,20.19,2.661,2.661,2.200,2.661,2.460,0,0,SEARCHING,2.200,0.800,0.067,0.079
19:46:55.563,SEARCHING,18.364,7.156,1.000,0.00,0.00,22.02,7.381,2.692,2.007,2.724,2.460,0,0,SEARCHING,2.007,0.800,0.087,0.363
19:46:55.775,SEARCHING,18.511,7.220,1.000,0.00,0.00,25.35,2.514,3.011,1.788,2.972,2.434,0,0,SEARCHING,1.788,0.800,0.163,0.162
19:46:55.973,SEARCHING,18.655,7.291,1.000,0.00,0.00,27.08,2.266,3.134,1.646,3.092,2.409,0,0,SEARCHING,1.646,0.800,0.202,0.166
19:46:56.176,SEARCHING,18.796,7.366,1.000,0.00,0.00,28.86,2.200,3.575,1.682,3.365,2.434,0,0,SEARCHING,1.682,0.800,0.250,0.140
19:46:56.379,SEARCHING,18.935,7.445,1.000,0.00,0.00,30.44,2.119,4.400,1.708,4.317,2.460,0,0,SEARCHING,1.708,0.800,0.385,0.114
19:46:56.573,SEARCHING,19.072,7.527,1.000,0.00,0.00,31.68,1.973,4.400,1.760,4.400,2.460,0,0,SEARCHING,1.760,0.800,0.394,0.061
19:46:56.772,SEARCHING,19.208,7.612,1.000,0.00,0.00,32.23,1.876,4.400,1.788,4.400,2.434,0,0,SEARCHING,1.788,0.800,0.404,0.000
19:46:56.972,SEARCHING,19.343,7.697,1.000,0.00,0.00,32.23,1.788,4.317,1.733,4.317,2.460,0,0,SEARCHING,1.733,0.800,0.385,0.000
19:46:57.173,SEARCHING,19.478,7.783,1.000,0.00,0.00,33.68,6.538,4.400,1.733,4.317,2.460,0,0,SEARCHING,1.733,0.800,0.385,0.424
19:46:57.379,SEARCHING,19.608,7.877,1.000,0.00,0.00,37.41,1.600,5.085,2.025,5.200,2.434,0,0,SEARCHING,1.600,0.800,0.481,-0.131
19:46:57.576,SEARCHING,19.736,7.973,1.000,0.00,0.00,36.14,4.400,4.868,1.923,4.868,2.434,0,0,SEARCHING,1.923,0.800,0.452,0.293
19:46:57.774,SEARCHING,19.864,8.069,1.000,0.00,0.00,38.47,3.632,5.085,2.542,5.085,2.409,0,0,SEARCHING,2.409,0.800,0.481,0.118
19:46:57.975,SEARCHING,19.988,8.170,1.000,0.00,0.00,40.10,3.269,5.720,2.790,5.581,2.460,0,0,SEARCHING,2.460,0.800,0.500,0.052
19:46:58.182,SEARCHING,20.109,8.274,1.000,0.00,0.00,40.82,3.223,5.720,2.757,5.581,2.460,0,0,SEARCHING,2.460,0.800,0.500,0.052
19:46:58.378,SEARCHING,20.230,8.379,1.000,0.00,0.00,41.48,3.134,5.720,2.661,5.720,2.460,0,0,SEARCHING,2.460,0.800,0.510,0.057
19:46:58.583,SEARCHING,20.349,8.486,1.000,0.00,0.00,41.95,3.092,6.022,2.692,5.867,2.434,0,0,SEARCHING,2.434,0.800,0.529,0.000
19:46:58.780,SEARCHING,20.468,8.593,1.000,0.00,0.00,41.95,3.178,5.867,2.692,5.867,2.434,0,0,SEARCHING,2.434,0.800,0.529,0.057
19:46:58.979,SEARCHING,20.587,8.700,1.000,0.00,0.00,42.54,3.814,5.867,2.692,5.867,2.434,0,0,SEARCHING,2.434,0.800,0.529,0.109
19:46:59.177,SEARCHING,20.704,8.809,1.000,0.00,0.00,43.71,3.575,6.184,2.825,6.022,2.460,0,0,SEARCHING,2.460,0.800,0.529,0.074
19:46:59.385,SEARCHING,20.819,8.921,1.000,0.00,0.00,44.56,3.415,6.538,2.896,5.867,2.460,0,0,SEARCHING,2.460,0.800,0.519,0.052
19:46:59.584,SEARCHING,20.932,9.033,1.000,0.00,0.00,45.10,3.415,6.356,2.972,6.022,2.434,0,0,SEARCHING,2.434,0.800,0.538,0.000
19:46:59.785,SEARCHING,21.045,9.147,1.000,0.00,0.00,45.28,3.575,6.538,2.934,6.022,2.434,0,0,SEARCHING,2.434,0.800,0.538,0.061
19:46:59.985,SEARCHING,21.157,9.261,1.000,0.00,0.00,45.94,3.520,7.151,2.972,6.184,2.487,0,0,SEARCHING,2.487,0.800,0.529,0.052
19:47:00.190,SEARCHING,21.268,9.377,1.000,0.00,0.00,46.42,3.467,7.381,3.011,6.184,2.460,0,0,SEARCHING,2.460,0.800,0.538,0.000
19:47:00.376,SEARCHING,21.378,9.492,1.000,0.00,0.00,46.42,3.575,7.151,2.972,6.022,2.460,0,0,SEARCHING,2.460,0.800,0.529,0.057
19:47:00.583,SEARCHING,21.488,9.609,1.000,0.00,0.00,46.92,3.520,7.151,3.051,5.867,2.434,0,0,SEARCHING,2.434,0.800,0.529,0.000
19:47:00.782,SEARCHING,21.597,9.726,1.000,0.00,0.00,47.10,3.520,7.151,3.051,6.022,2.460,0,0,SEARCHING,2.460,0.800,0.529,0.000
19:47:00.983,SEARCHING,21.706,9.843,1.000,0.00,0.00,47.10,3.575,7.381,3.051,6.022,2.460,0,0,SEARCHING,2.460,0.800,0.529,0.000
19:47:01.185,SEARCHING,21.815,9.960,1.000,0.00,0.00,47.23,3.632,6.934,3.011,6.022,2.460,0,0,SEARCHING,2.460,0.800,0.529,0.057
19:47:01.383,SEARCHING,21.923,10.078,1.000,0.00,0.00,47.87,3.575,7.151,3.092,6.022,2.434,0,0,SEARCHING,2.434,0.800,0.538,0.000
19:47:01.589,SEARCHING,22.030,10.197,1.000,0.00,0.00,47.99,3.575,7.627,3.092,6.022,2.434,0,0,SEARCHING,2.434,0.800,0.538,0.000
19:47:01.786,SEARCHING,22.137,10.316,1.000,0.00,0.00,47.99,3.575,7.890,3.092,6.184,2.487,0,0,SEARCHING,2.487,0.800,0.529,0.000
19:47:01.985,SEARCHING,22.244,10.435,1.000,0.00,0.00,47.99,3.691,7.890,3.051,6.022,2.460,0,0,SEARCHING,2.460,0.800,0.529,0.057
19:47:02.186,SEARCHING,22.351,10.554,1.000,0.00,0.00,48.51,3.520,7.151,3.134,6.022,2.460,0,0,SEARCHING,2.460,0.800,0.529,0.000
19:47:02.394,SEARCHING,22.457,10.674,1.000,0.00,0.00,48.65,3.520,7.627,3.092,6.022,2.434,0,0,SEARCHING,2.434,0.800,0.538,0.000
19:47:02.588,SEARCHING,22.562,10.794,1.000,0.00,0.00,48.65,3.575,7.627,3.092,6.022,2.487,0,0,SEARCHING,2.487,0.800,0.519,0.000
19:47:02.791,SEARCHING,22.668,10.914,1.000,0.00,0.00,48.65,3.575,7.627,3.092,6.022,2.487,0,0,SEARCHING,2.487,0.800,0.519,0.000
19:47:02.986,SEARCHING,22.774,11.035,1.000,0.00,0.00,48.65,3.575,7.151,3.051,6.022,2.487,0,0,SEARCHING,2.487,0.800,0.519,0.000
19:47:03.189,SEARCHING,22.879,11.155,1.000,0.00,0.00,48.65,3.467,7.381,3.051,6.022,2.460,0,0,SEARCHING,2.460,0.800,0.529,0.000
19:47:03.388,SEARCHING,22.985,11.275,1.000,0.00,0.00,48.65,3.575,7.151,3.011,6.022,2.434,0,0,SEARCHING,2.434,0.800,0.538,0.052
19:47:03.597,SEARCHING,23.090,11.395,1.000,0.00,0.00,49.13,3.520,6.934,3.051,6.022,2.460,0,0,SEARCHING,2.460,0.800,0.529,0.000
19:47:03.796,SEARCHING,23.195,11.516,1.000,0.00,0.00,49.31,3.520,7.151,3.051,6.022,2.487,0,0,SEARCHING,2.487,0.800,0.519,0.000
19:47:03.990,SEARCHING,23.299,11.638,1.000,0.00,0.00,49.31,3.467,6.934,3.011,6.022,2.460,0,0,SEARCHING,2.460,0.800,0.529,0.000
19:47:04.191,SEARCHING,23.404,11.759,1.000,0.00,0.00,49.31,3.520,6.934,3.011,6.022,2.460,0,0,SEARCHING,2.460,0.800,0.529,0.000
19:47:04.387,SEARCHING,23.508,11.880,1.000,0.00,0.00,49.49,3.520,6.934,3.011,6.022,2.460,0,0,SEARCHING,2.460,0.800,0.529,0.000
19:47:04.586,SEARCHING,23.612,12.002,1.000,0.00,0.00,49.61,3.520,6.538,3.051,6.022,2.460,0,0,SEARCHING,2.460,0.800,0.529,0.000
19:47:04.795,SEARCHING,23.715,12.124,1.000,0.00,0.00,49.61,3.520,6.538,3.011,5.867,2.487,0,0,SEARCHING,2.487,0.800,0.510,0.000
19:47:04.995,SEARCHING,23.819,12.246,1.000,0.00,0.00,49.61,3.520,6.538,2.972,5.720,2.460,0,0,SEARCHING,2.460,0.800,0.510,0.052
19:47:05.193,SEARCHING,23.922,12.368,1.000,0.00,0.00,50.04,3.520,6.356,3.051,5.581,2.434,0,0,SEARCHING,2.434,0.800,0.510,0.000
19:47:05.394,SEARCHING,24.025,12.491,1.000,0.00,0.00,50.17,3.520,6.184,3.011,5.448,2.460,0,0,SEARCHING,2.460,0.800,0.490,0.000
19:47:05.603,SEARCHING,24.127,12.614,1.000,0.00,0.00,50.17,3.575,6.022,3.092,5.200,2.487,0,0,SEARCHING,2.487,0.800,0.462,0.000
19:47:05.801,SEARCHING,24.230,12.737,1.000,0.00,0.00,50.17,3.520,5.867,3.178,4.974,2.460,0,0,SEARCHING,2.460,0.800,0.452,0.000
19:47:05.993,SEARCHING,24.332,12.859,1.000,0.00,0.00,50.17,3.575,5.720,3.223,4.868,2.460,0,0,SEARCHING,2.460,0.800,0.442,0.000
19:47:06.199,SEARCHING,24.435,12.982,1.000,0.00,0.00,50.17,3.575,5.720,3.269,4.767,2.460,0,0,SEARCHING,2.460,0.800,0.433,0.000
19:47:06.396,SEARCHING,24.537,13.105,1.000,0.00,0.00,50.17,3.520,5.448,3.269,4.576,2.434,0,0,SEARCHING,2.434,0.800,0.423,0.000
19:47:06.593,SEARCHING,24.640,13.228,1.000,0.00,0.00,50.17,3.520,5.448,3.316,4.487,2.460,0,0,SEARCHING,2.460,0.800,0.404,0.000
19:47:06.798,SEARCHING,24.742,13.351,1.000,0.00,0.00,50.17,3.467,5.321,3.269,4.237,2.460,0,0,SEARCHING,2.460,0.800,0.375,0.000
19:47:07.005,SEARCHING,24.845,13.474,1.000,0.00,0.00,50.17,3.467,5.085,3.269,4.086,2.460,0,0,SEARCHING,2.460,0.800,0.356,0.000
19:47:07.195,SEARCHING,24.947,13.597,1.000,0.00,0.00,50.17,3.365,4.868,3.223,3.945,2.409,0,0,SEARCHING,2.409,0.800,0.356,0.000
19:47:07.412,SEARCHING,25.050,13.720,1.000,0.00,0.00,50.17,3.223,4.868,3.092,3.814,2.487,0,0,SEARCHING,2.487,0.800,0.308,0.000
19:47:07.599,SEARCHING,25.152,13.842,1.000,0.00,0.00,49.82,3.051,4.767,6.356,3.691,2.487,0,0,SEARCHING,2.487,0.800,0.288,-0.170
19:47:07.801,SEARCHING,25.257,13.963,1.000,0.00,0.00,47.89,3.011,4.670,2.934,3.520,2.460,0,0,SEARCHING,2.460,0.800,0.269,0.000
19:47:07.997,SEARCHING,25.365,14.081,1.000,0.00,0.00,47.29,3.011,4.576,5.867,3.365,2.434,0,0,SEARCHING,2.434,0.800,0.250,-0.162
19:47:08.199,SEARCHING,25.475,14.198,1.000,0.00,0.00,45.87,3.051,4.576,5.200,3.223,2.460,0,0,SEARCHING,2.460,0.800,0.212,-0.135
19:47:08.407,SEARCHING,25.588,14.311,1.000,0.00,0.00,44.76,3.051,4.576,2.934,3.011,2.487,0,0,SEARCHING,2.487,0.800,0.154,0.000
19:47:08.606,SEARCHING,25.701,14.424,1.000,0.00,0.00,44.49,3.051,4.487,4.400,2.860,2.434,0,0,SEARCHING,2.434,0.800,0.135,-0.101
19:47:08.807,SEARCHING,25.816,14.535,1.000,0.00,0.00,43.41,3.051,4.487,4.400,2.757,2.460,0,0,SEARCHING,2.460,0.800,0.096,-0.101
19:47:09.001,SEARCHING,25.934,14.644,1.000,0.00,0.00,42.27,3.134,4.487,4.317,2.571,2.434,0,0,SEARCHING,2.434,0.800,0.048,-0.087
19:47:09.213,SEARCHING,26.053,14.750,1.000,0.00,0.00,41.27,3.134,4.487,4.160,2.434,2.487,0,0,SEARCHING,2.434,0.800,-0.019,-0.079
19:47:09.404,SEARCHING,26.174,14.855,1.000,0.00,0.00,40.35,3.092,4.487,4.160,2.460,2.487,0,0,SEARCHING,2.460,0.800,-0.010,-0.083
19:47:09.606,SEARCHING,26.297,14.958,1.000,0.00,0.00,39.40,2.972,4.576,4.014,4.487,2.487,0,0,SEARCHING,2.487,0.800,0.394,-0.087
19:47:09.807,SEARCHING,26.421,15.058,1.000,0.00,0.00,38.38,2.860,4.767,3.945,4.767,2.460,0,0,SEARCHING,2.460,0.800,0.433,-0.096
19:47:10.010,SEARCHING,26.547,15.157,1.000,0.00,0.00,37.30,2.757,5.448,3.751,5.085,2.460,0,0,SEARCHING,2.460,0.800,0.462,-0.096
19:47:10.210,SEARCHING,26.675,15.252,1.000,0.00,0.00,36.21,2.757,6.184,3.632,5.581,2.434,0,0,SEARCHING,2.434,0.800,0.510,-0.087
19:47:10.410,SEARCHING,26.805,15.346,1.000,0.00,0.00,35.22,2.790,6.538,3.520,6.022,2.460,0,0,SEARCHING,2.460,0.800,0.529,-0.074
19:47:10.610,SEARCHING,26.937,15.437,1.000,0.00,0.00,34.37,2.757,6.538,3.365,6.022,2.434,0,0,SEARCHING,2.434,0.800,0.538,-0.066
19:47:10.809,SEARCHING,27.069,15.527,1.000,0.00,0.00,33.64,2.757,6.356,3.316,6.022,2.434,0,0,SEARCHING,2.434,0.800,0.538,-0.061
19:47:11.009,SEARCHING,27.203,15.615,1.000,0.00,0.00,32.94,2.757,6.356,3.269,6.022,2.434,0,0,SEARCHING,2.434,0.800,0.538,-0.057
19:47:11.214,SEARCHING,27.338,15.701,1.000,0.00,0.00,32.27,2.757,6.184,3.134,6.022,2.409,0,0,SEARCHING,2.409,0.800,0.548,0.000
19:47:11.411,SEARCHING,27.473,15.786,1.000,0.00,0.00,31.97,2.692,6.022,3.134,6.022,2.460,0,0,SEARCHING,2.460,0.800,0.529,-0.052
19:47:11.608,SEARCHING,27.609,15.870,1.000,0.00,0.00,31.37,2.692,5.867,3.092,5.867,2.434,0,0,SEARCHING,2.434,0.800,0.529,0.000
19:47:11.809,SEARCHING,27.746,15.953,1.000,0.00,0.00,31.11,2.571,5.581,3.092,5.581,2.630,0,0,SEARCHING,2.571,0.800,0.442,-0.066
19:47:12.016,SEARCHING,27.884,16.035,1.000,0.00,0.00,30.41,2.661,5.448,3.011,5.448,2.460,0,0,SEARCHING,2.460,0.800,0.490,0.000
19:47:12.211,SEARCHING,28.022,16.116,1.000,0.00,0.00,30.23,2.724,5.200,2.972,5.200,2.460,0,0,SEARCHING,2.460,0.800,0.471,0.000
19:47:12.416,SEARCHING,28.160,16.196,1.000,0.00,0.00,30.23,3.092,5.200,2.934,5.085,2.460,0,0,SEARCHING,2.460,0.800,0.462,0.000
19:47:12.617,SEARCHING,28.298,16.277,1.000,0.00,0.00,30.23,3.051,4.974,2.972,4.974,2.434,0,0,SEARCHING,2.434,0.800,0.462,0.000
19:47:12.815,SEARCHING,28.436,16.357,1.000,0.00,0.00,30.23,3.051,4.868,2.934,4.868,2.460,0,0,SEARCHING,2.460,0.800,0.442,0.000
19:47:13.010,SEARCHING,28.575,16.438,1.000,0.00,0.00,30.23,3.051,4.670,2.934,4.767,2.487,0,0,SEARCHING,2.487,0.800,0.423,0.000
19:47:13.212,SEARCHING,28.713,16.519,1.000,0.00,0.00,30.23,3.178,4.670,2.860,4.670,2.460,0,0,SEARCHING,2.460,0.800,0.423,0.000
19:47:13.425,SEARCHING,28.851,16.599,1.000,0.00,0.00,30.44,3.945,4.576,2.757,4.576,2.460,0,0,SEARCHING,2.460,0.800,0.413,0.109
19:47:13.616,SEARCHING,28.988,16.681,1.000,0.00,0.00,31.64,3.814,4.400,2.757,4.487,2.434,0,0,SEARCHING,2.434,0.800,0.413,0.101
19:47:13.814,SEARCHING,29.124,16.767,1.000,0.00,0.00,32.84,3.691,4.400,2.757,4.400,2.409,0,0,SEARCHING,2.409,0.800,0.413,0.092
19:47:14.019,SEARCHING,29.257,16.855,1.000,0.00,0.00,33.90,3.575,4.237,2.790,4.237,2.460,0,0,SEARCHING,2.460,0.800,0.375,0.079
19:47:14.219,SEARCHING,29.390,16.945,1.000,0.00,0.00,34.81,3.467,4.014,2.825,4.014,2.460,0,0,SEARCHING,2.460,0.800,0.346,0.066
19:47:14.460,SEARCHING,29.520,17.037,1.000,0.00,0.00,35.55,3.365,3.878,2.790,3.878,2.434,0,0,SEARCHING,2.434,0.800,0.337,0.061
19:47:14.632,SEARCHING,29.650,17.131,1.000,0.00,0.00,36.23,3.223,3.691,2.790,3.691,2.434,0,0,SEARCHING,2.434,0.800,0.308,0.000
19:47:14.840,SEARCHING,29.779,17.226,1.000,0.00,0.00,36.41,3.092,3.575,2.825,3.575,2.460,0,0,SEARCHING,2.460,0.800,0.279,0.000
19:47:15.024,SEARCHING,29.908,17.320,1.000,0.00,0.00,36.41,2.972,3.467,2.757,3.415,2.460,0,0,SEARCHING,2.460,0.800,0.250,0.000
19:47:15.225,SEARCHING,30.036,17.415,1.000,0.00,0.00,36.41,2.825,3.269,2.757,3.316,2.159,0,0,SEARCHING,2.159,0.800,0.356,0.000
19:47:15.426,SEARCHING,30.165,17.510,1.000,0.00,0.00,36.41,2.724,3.134,2.724,3.134,2.384,0,0,SEARCHING,2.384,0.800,0.221,0.000
19:47:15.627,SEARCHING,30.294,17.605,1.000,0.00,0.00,36.41,2.600,2.972,2.661,2.972,2.434,0,0,SEARCHING,2.434,0.800,0.163,0.000
19:47:15.826,SEARCHING,30.423,17.700,1.000,0.00,0.00,36.41,2.460,2.860,2.571,2.860,2.460,0,0,SEARCHING,2.460,0.800,0.125,0.000
19:47:16.024,SEARCHING,30.551,17.795,1.000,0.00,0.00,36.41,2.359,2.724,2.409,2.692,2.460,0,0,SEARCHING,2.359,0.800,0.077,0.000
19:47:16.237,SEARCHING,30.680,17.890,1.000,0.00,0.00,36.41,2.222,2.571,2.266,2.571,2.460,0,0,SEARCHING,2.222,0.800,0.038,0.000
19:47:16.429,SEARCHING,30.809,17.985,1.000,0.00,0.00,36.41,2.099,2.409,2.099,2.434,2.384,0,0,SEARCHING,2.099,0.771,0.019,0.000
19:47:16.625,SEARCHING,30.934,18.077,1.000,0.00,0.00,36.41,1.990,2.288,1.990,2.288,2.288,0,0,SEARCHING,1.990,0.732,0.000,0.000
19:47:16.838,SEARCHING,31.051,18.164,1.000,0.00,0.00,36.41,1.860,2.138,1.956,2.138,2.138,0,0,SEARCHING,1.860,0.684,0.000,0.000
19:47:17.028,SEARCHING,31.162,18.246,1.000,0.00,0.00,36.41,1.760,2.025,1.860,2.025,2.025,0,0,SEARCHING,1.760,0.648,0.000,0.000
19:47:17.228,SEARCHING,31.266,18.322,1.000,0.00,0.00,36.41,1.646,1.923,1.816,1.923,1.907,0,0,SEARCHING,1.646,0.615,0.010,-0.057
19:47:17.438,SEARCHING,31.365,18.395,1.000,0.00,0.00,35.88,1.557,1.802,1.747,1.802,1.788,0,0,SEARCHING,1.557,0.577,0.010,-0.070
19:47:17.634,SEARCHING,31.459,18.462,1.000,0.00,0.00,35.07,1.457,1.708,1.658,1.708,1.708,0,0,SEARCHING,1.457,0.546,0.000,-0.083
19:47:17.831,SEARCHING,31.549,18.524,1.000,0.00,0.00,34.13,1.387,1.611,1.567,1.611,1.611,0,0,SEARCHING,1.387,0.516,0.000,-0.083
19:47:18.031,SEARCHING,31.635,18.581,1.000,0.00,0.00,33.12,1.300,1.525,1.515,1.525,1.536,0,0,SEARCHING,1.300,0.488,-0.010,-0.109
19:47:18.232,SEARCHING,31.717,18.634,1.000,0.00,0.00,31.89,1.230,1.448,1.439,1.448,1.448,0,0,SEARCHING,1.230,0.463,0.000,-0.118
19:47:18.436,SEARCHING,31.797,18.683,1.000,0.00,0.00,30.53,1.162,1.387,1.378,1.387,1.378,0,0,SEARCHING,1.162,0.444,0.010,-0.135
19:47:18.630,SEARCHING,31.874,18.727,1.000,0.00,0.00,29.01,1.095,1.315,1.300,1.315,1.315,0,0,SEARCHING,1.095,0.421,0.000,-0.144
19:47:18.840,SEARCHING,31.948,18.767,1.000,0.00,0.00,27.36,1.040,1.264,1.224,1.264,1.264,0,0,SEARCHING,1.040,0.405,0.000,-0.144
19:47:19.037,SEARCHING,32.020,18.803,1.000,0.00,0.00,25.68,0.986,1.211,1.162,1.204,1.204,0,0,SEARCHING,0.986,0.387,0.000,-0.153
19:47:19.247,SEARCHING,32.091,18.836,1.000,0.00,0.00,23.94,0.938,1.162,1.095,1.162,1.156,0,0,SEARCHING,0.938,0.372,0.010,-0.153
19:47:19.441,SEARCHING,32.159,18.865,1.000,0.00,0.00,22.18,0.890,1.116,1.026,1.116,1.111,0,0,SEARCHING,0.890,0.357,0.010,-0.149
19:47:19.644,SEARCHING,32.226,18.891,1.000,0.00,0.00,20.46,0.854,1.084,0.974,1.079,1.084,0,0,SEARCHING,0.854,0.347,-0.010,-0.144
19:47:19.838,SEARCHING,32.291,18.914,1.000,0.00,0.00,18.83,0.811,1.035,0.904,1.040,1.035,0,0,SEARCHING,0.811,0.331,0.010,-0.127
19:47:20.090,SEARCHING,32.354,18.935,1.000,0.00,0.00,17.37,0.776,0.999,0.854,0.999,1.004,0,0,SEARCHING,0.776,0.320,-0.010,-0.059
19:47:20.426,SEARCHING,32.416,18.954,1.000,0.00,0.00,16.30,0.750,0.978,0.823,0.974,0.982,0,0,SEARCHING,0.750,0.313,-0.019,-0.059
19:47:20.596,SEARCHING,32.447,18.963,1.000,0.00,0.00,15.97,0.738,0.965,0.806,0.961,0.965,0,0,SEARCHING,0.738,0.309,-0.010,-0.057
19:47:20.929,SEARCHING,32.522,18.984,1.000,0.00,0.00,15.14,0.675,0.887,0.731,0.887,0.887,0,0,SEARCHING,0.675,0.284,0.000,-0.057
19:47:21.095,SEARCHING,32.552,18.992,1.000,0.00,0.00,14.82,0.645,0.851,0.693,0.851,0.854,0,0,SEARCHING,0.645,0.272,-0.010,-0.055
19:47:21.435,INSPECTING,32.624,19.010,1.000,0.00,0.00,14.04,0.582,0.763,0.613,0.765,0.765,0,0,TOP,0.765,0.150,1.000,0.000
19:47:21.609,INSPECTING,32.666,19.020,1.000,0.00,0.00,13.56,0.562,0.729,0.587,0.731,0.729,0,0,TOP,0.731,0.150,1.000,0.000
19:47:21.905,INSPECTING,32.744,19.039,1.000,0.00,0.00,12.70,0.532,0.671,0.544,0.671,0.673,0,0,TOP,0.671,0.150,1.000,0.000
19:47:22.243,INSPECTING,32.790,19.049,1.000,0.00,0.00,12.63,0.502,0.629,0.505,0.630,0.629,0,0,TOP,0.630,0.150,1.000,0.000
19:47:22.409,INSPECTING,32.812,19.054,1.000,0.00,0.00,12.63,0.484,0.607,0.489,0.609,0.607,0,0,TOP,0.609,0.150,1.000,0.000
19:47:22.659,INSPECTING,32.848,19.062,1.000,0.00,0.00,12.63,0.459,0.573,0.460,0.571,0.573,0,0,ANTI_HANG_TOP_LEFT,0.571,0.150,1.000,1.100
19:47:22.808,INSPECTING,32.870,19.067,1.000,0.00,0.00,12.63,0.443,0.551,0.443,0.551,0.553,0,0,ANTI_HANG_TOP_RIGHT,0.553,0.150,1.000,-1.100
19:47:23.158,INSPECTING,32.921,19.078,1.000,0.00,0.00,12.63,0.392,0.500,0.437,0.500,0.500,0,0,ANTI_HANG_TOP_RIGHT,0.500,0.150,1.000,-1.100
19:47:23.327,INSPECTING,32.943,19.085,1.000,0.00,0.00,22.08,0.363,0.462,0.425,0.459,0.464,0,0,ANTI_HANG_BOTTOM_LEFT,0.464,0.150,-1.000,1.100
19:47:23.682,INSPECTING,32.992,19.102,1.000,0.00,0.00,8.85,0.422,0.387,0.335,0.387,0.388,0,0,ANTI_HANG_BOTTOM_LEFT,0.422,0.150,-1.000,1.100
19:47:23.858,INSPECTING,33.022,19.104,1.000,0.00,0.00,-3.76,0.416,0.357,0.312,0.357,0.355,0,0,ANTI_HANG_BOTTOM_RIGHT,0.416,0.150,-1.000,-1.100
19:47:24.007,INSPECTING,33.044,19.103,1.000,0.00,0.00,0.65,0.356,0.371,0.307,0.371,0.372,0,0,ANTI_HANG_BOTTOM_RIGHT,0.356,0.150,-1.000,-1.100
19:47:24.406,TURNING,33.103,19.116,1.000,0.00,0.00,25.86,0.282,0.356,0.299,0.362,0.356,0,0,TURNING,0.000,0.000,0.000,0.800
19:47:24.656,TURNING,33.138,19.128,1.000,0.00,0.00,11.37,0.307,0.284,0.240,0.284,0.284,0,0,TURNING,0.000,0.000,0.000,-0.800
19:47:24.883,TURNING,33.168,19.131,1.000,0.00,0.00,-1.24,0.256,0.227,0.227,0.227,0.227,1,0,TURNING,0.000,0.000,0.000,-0.800
19:47:25.154,TURNING,33.182,19.130,1.000,0.00,0.00,-0.66,0.257,0.227,0.227,0.227,0.227,1,0,TURNING,0.000,0.000,0.000,-0.800
19:47:25.289,TURNING,33.182,19.130,1.000,0.00,0.00,-6.62,0.238,0.227,0.227,0.227,0.227,1,0,TURNING,0.000,0.000,0.000,-0.800
19:47:25.525,TURNING,33.182,19.130,1.000,0.00,0.00,-18.08,0.381,0.233,0.388,0.400,0.239,1,0,TURNING,0.000,0.000,0.000,-0.800
19:47:25.641,TURNING,33.182,19.130,1.000,0.00,0.00,-22.67,0.503,0.233,0.289,2.724,0.238,1,0,TURNING,0.000,0.000,0.000,-0.800
19:47:25.878,TURNING,33.182,19.130,1.000,0.00,0.00,-34.13,0.227,0.227,0.227,0.227,0.227,1,0,TURNING,0.000,0.000,0.000,-0.800
19:47:26.117,TURNING,33.182,19.130,1.000,0.00,0.00,-45.58,0.241,0.227,0.245,0.227,0.227,1,0,TURNING,0.000,0.000,0.000,-0.800
19:47:26.359,TURNING,33.182,19.130,1.000,0.00,0.00,-54.75,0.227,0.229,0.289,0.229,0.229,1,0,TURNING,0.000,0.000,0.000,-0.800
19:47:26.569,TURNING,33.182,19.130,1.000,0.00,0.00,-66.21,0.227,0.264,0.379,0.266,0.264,0,0,TURNING,0.000,0.000,0.000,-0.800
19:47:26.724,TURNING,33.182,19.130,1.000,0.00,0.00,-73.09,0.227,0.302,0.455,0.301,0.293,0,0,TURNING,0.000,0.000,0.000,-0.800
19:47:27.036,TURNING,33.182,19.130,1.000,0.00,0.00,-86.84,0.277,0.409,1.211,0.412,0.408,0,0,TURNING,0.000,0.000,0.000,-0.800
19:47:27.352,TURNING,33.182,19.130,1.000,0.00,0.00,-100.59,0.401,1.122,2.138,1.116,1.116,0,0,TURNING,0.000,0.000,0.000,-0.800
19:47:27.510,TURNING,33.182,19.130,1.000,0.00,0.00,-109.76,0.501,1.421,3.269,1.412,1.412,0,0,TURNING,0.000,0.000,0.000,-0.800
19:47:27.849,TURNING,33.182,19.130,1.000,0.00,0.00,-123.51,1.186,2.724,5.200,2.724,2.460,0,0,TURNING,0.000,0.000,0.000,-0.645
19:47:28.167,TURNING,33.182,19.130,1.000,0.00,0.00,-139.55,2.434,4.974,3.223,4.974,2.460,0,0,TURNING,0.000,0.000,0.000,-0.365
19:47:28.407,TURNING,33.182,19.130,1.000,0.00,0.00,-148.02,3.092,7.381,2.972,5.200,2.514,0,0,TURNING,0.000,0.000,0.000,-0.300
19:47:28.599,RETURNING,33.182,19.130,1.000,0.00,0.00,-154.99,4.014,6.022,2.514,5.581,2.460,0,0,TURNING,0.000,0.000,0.000,0.000
19:47:28.759,RETURNING,33.182,19.130,1.000,0.00,0.00,-160.27,4.487,3.751,2.288,3.751,2.311,0,0,RETURNING,0.000,0.500,0.133,0.171
19:47:28.925,RETURNING,33.182,19.130,1.000,0.00,0.00,-163.25,4.974,3.415,2.335,3.365,2.409,0,0,RETURNING,0.000,0.500,0.094,0.182
19:47:31.103,RETURNING,32.994,19.081,1.000,0.00,0.00,-163.38,5.085,3.316,2.222,3.269,2.434,0,0,RETURNING,0.000,0.500,0.084,0.203
19:47:31.273,RETURNING,32.898,19.051,1.000,0.00,0.00,-161.22,4.237,4.974,2.266,4.868,2.487,0,0,RETURNING,0.000,0.500,0.157,0.164
19:47:31.603,RETURNING,32.758,18.999,1.000,0.00,0.00,-157.90,3.751,6.730,2.460,4.767,2.460,0,0,RETURNING,0.000,0.500,0.157,0.112
19:47:31.765,RETURNING,32.666,18.960,1.000,0.00,0.00,-155.59,3.632,7.151,2.542,4.670,2.460,0,0,RETURNING,0.000,0.500,0.154,0.094
19:47:32.099,RETURNING,32.531,18.894,1.000,0.00,0.00,-152.83,3.365,7.381,2.434,4.487,2.434,0,0,RETURNING,0.000,0.500,0.150,0.091
19:47:32.266,RETURNING,32.442,18.848,1.000,0.00,0.00,-151.49,3.223,7.381,2.434,4.487,2.409,0,0,RETURNING,0.000,0.500,0.154,0.080
19:47:32.563,RETURNING,32.311,18.775,1.000,0.00,0.00,-149.90,3.051,6.538,2.692,4.317,2.460,0,0,RETURNING,0.000,0.500,0.140,0.035
19:47:32.882,RETURNING,32.183,18.698,1.000,0.00,0.00,-148.34,2.896,5.321,3.178,4.400,2.487,0,0,RETURNING,0.000,0.500,0.140,-0.024
19:47:33.217,RETURNING,32.035,18.604,1.000,0.00,0.00,-147.35,2.860,5.085,3.691,4.160,2.487,0,0,RETURNING,0.000,0.500,0.129,-0.063
19:47:33.383,RETURNING,31.972,18.564,1.000,0.00,0.00,-147.33,2.896,5.448,3.814,4.160,2.460,0,0,RETURNING,0.000,0.500,0.133,-0.066
19:47:33.703,RETURNING,31.845,18.483,1.000,0.00,0.00,-147.86,2.860,7.627,3.632,3.878,2.434,0,0,RETURNING,0.000,0.500,0.122,-0.059
19:47:34.022,RETURNING,31.696,18.392,1.000,0.00,0.00,-149.18,2.934,7.381,3.365,3.691,2.434,0,0,RETURNING,0.000,0.500,0.112,-0.035
19:47:34.181,RETURNING,31.631,18.354,1.000,0.00,0.00,-149.78,2.896,7.151,3.316,3.575,2.434,0,0,RETURNING,0.000,0.500,0.105,-0.035
19:47:34.537,RETURNING,31.479,18.267,1.000,0.00,0.00,-150.93,2.825,6.934,3.178,3.520,2.460,0,0,RETURNING,0.000,0.500,0.098,-0.031
19:47:34.689,RETURNING,31.414,18.231,1.000,0.00,0.00,-151.24,2.790,6.934,3.269,3.467,2.460,0,0,RETURNING,0.000,0.500,0.094,-0.042
19:47:35.010,RETURNING,31.282,18.159,1.000,0.00,0.00,-151.80,2.724,6.730,3.365,3.316,2.460,0,0,RETURNING,0.000,0.500,0.084,-0.056
19:47:35.335,RETURNING,31.127,18.077,1.000,0.00,0.00,-152.54,2.790,6.538,3.365,3.092,2.434,0,0,RETURNING,0.000,0.500,0.070,-0.049
19:47:35.501,RETURNING,31.060,18.043,1.000,0.00,0.00,-152.93,2.896,6.356,3.316,3.051,2.434,0,0,RETURNING,0.000,0.500,0.066,-0.035
19:47:35.771,RETURNING,30.949,17.987,1.000,0.00,0.00,-153.69,2.972,6.184,3.269,2.790,2.460,0,0,RETURNING,0.000,0.500,0.038,-0.024
19:47:35.926,RETURNING,30.859,17.943,1.000,0.00,0.00,-154.23,2.972,6.022,3.269,2.724,2.487,0,0,RETURNING,0.000,0.500,0.028,-0.024
19:47:36.105,RETURNING,30.791,17.910,1.000,0.00,0.00,-154.55,2.934,5.867,3.223,2.661,2.460,0,0,RETURNING,0.000,0.500,0.024,-0.024
19:47:36.285,RETURNING,30.701,17.868,1.000,0.00,0.00,-154.88,2.934,5.867,3.134,2.542,2.460,0,0,RETURNING,0.000,0.500,0.010,-0.017
19:47:36.623,RETURNING,30.565,17.804,1.000,0.00,0.00,-155.27,2.972,5.581,3.051,2.311,2.434,0,0,RETURNING,0.000,0.500,-0.017,-0.007
19:47:36.959,RETURNING,30.406,17.732,1.000,0.00,0.00,-155.72,3.269,5.581,2.972,2.288,2.434,0,0,RETURNING,0.000,0.500,-0.021,0.024
19:47:37.132,RETURNING,30.337,17.701,1.000,0.00,0.00,-155.86,3.814,5.448,3.011,2.288,2.460,0,0,RETURNING,0.000,0.500,-0.024,0.056
19:47:37.312,RETURNING,30.246,17.660,1.000,0.00,0.00,-155.98,6.538,5.321,2.934,4.576,2.460,0,0,RETURNING,0.000,0.500,0.150,0.150
19:47:37.619,RETURNING,30.109,17.599,1.000,0.00,0.00,-155.75,5.867,5.321,2.972,5.200,2.460,0,0,RETURNING,0.000,0.500,0.171,0.133
19:47:37.942,RETURNING,29.950,17.526,1.000,0.00,0.00,-154.20,3.415,5.448,3.092,5.448,2.460,0,0,RETURNING,0.000,0.500,0.178,0.024
19:47:38.117,RETURNING,29.883,17.492,1.000,0.00,0.00,-153.06,3.467,5.581,3.269,5.581,2.434,0,0,RETURNING,0.000,0.500,0.185,0.014
19:47:38.491,RETURNING,29.729,17.410,1.000,0.00,0.00,-150.43,3.134,5.720,3.632,5.867,2.434,0,0,RETURNING,0.000,0.500,0.192,-0.035
19:47:38.649,RETURNING,29.642,17.360,1.000,0.00,0.00,-150.15,3.178,5.720,3.575,5.720,2.460,0,0,RETURNING,0.000,0.500,0.185,-0.028
19:47:38.811,RETURNING,29.577,17.323,1.000,0.00,0.00,-150.09,3.269,5.581,3.575,5.581,2.460,0,0,RETURNING,0.000,0.500,0.182,-0.021
19:47:39.144,RETURNING,29.425,17.236,1.000,0.00,0.00,-150.54,3.467,5.321,3.467,5.321,2.460,0,0,RETURNING,0.000,0.500,0.175,0.000
19:47:39.307,RETURNING,29.359,17.199,1.000,0.00,0.00,-150.78,5.085,5.321,3.467,5.321,2.434,0,0,RETURNING,0.000,0.500,0.178,0.073
19:47:39.650,RETURNING,29.206,17.114,1.000,0.00,0.00,-151.23,5.720,5.085,3.316,5.200,2.434,0,0,RETURNING,0.000,0.500,0.175,0.101
19:47:39.813,RETURNING,29.141,17.078,1.000,0.00,0.00,-151.12,5.581,5.200,3.365,5.200,2.434,0,0,RETURNING,0.000,0.500,0.175,0.094
19:47:40.134,RETURNING,29.010,17.005,1.000,0.00,0.00,-149.85,4.767,5.321,3.316,5.321,2.460,0,0,RETURNING,0.000,0.500,0.175,0.073
19:47:40.294,RETURNING,28.924,16.954,1.000,0.00,0.00,-148.73,4.086,5.581,3.365,5.581,2.487,0,0,RETURNING,0.000,0.500,0.178,0.042
19:47:40.602,RETURNING,28.797,16.874,1.000,0.00,0.00,-147.11,3.415,5.720,3.415,5.720,2.460,0,0,RETURNING,0.000,0.500,0.185,0.000
19:47:40.959,RETURNING,28.651,16.777,1.000,0.00,0.00,-145.90,3.467,5.720,3.365,5.581,2.434,0,0,RETURNING,0.000,0.500,0.185,0.007
19:47:41.123,RETURNING,28.589,16.735,1.000,0.00,0.00,-145.74,3.632,5.581,3.365,5.581,2.460,0,0,RETURNING,0.000,0.500,0.182,0.017
19:47:41.427,RETURNING,28.465,16.651,1.000,0.00,0.00,-145.75,4.160,5.720,3.269,5.720,2.460,0,0,RETURNING,0.000,0.500,0.185,0.052
19:47:41.771,RETURNING,28.320,16.552,1.000,0.00,0.00,-145.63,4.086,5.581,3.223,5.581,2.460,0,0,RETURNING,0.000,0.500,0.182,0.052
19:47:41.962,RETURNING,28.238,16.495,1.000,0.00,0.00,-145.18,4.086,5.581,3.269,5.448,2.460,0,0,RETURNING,0.000,0.500,0.178,0.049
19:47:42.124,RETURNING,28.177,16.452,1.000,0.00,0.00,-144.73,3.945,5.448,3.223,5.581,2.434,0,0,RETURNING,0.000,0.500,0.185,0.045
19:47:42.450,RETURNING,28.035,16.350,1.000,0.00,0.00,-143.70,3.814,5.720,3.223,5.720,2.434,0,0,RETURNING,0.000,0.500,0.189,0.038
19:47:42.615,RETURNING,27.974,16.306,1.000,0.00,0.00,-143.27,3.751,5.720,3.316,5.720,2.434,0,0,RETURNING,0.000,0.500,0.189,0.028
19:47:42.939,RETURNING,27.835,16.200,1.000,0.00,0.00,-142.40,3.751,5.867,3.178,5.867,2.460,0,0,RETURNING,0.000,0.500,0.189,0.038
19:47:43.107,RETURNING,27.775,16.154,1.000,0.00,0.00,-142.07,3.691,5.867,3.269,5.720,2.460,0,0,RETURNING,0.000,0.500,0.185,0.028
19:47:43.452,RETURNING,27.638,16.046,1.000,0.00,0.00,-141.40,3.691,5.867,3.269,5.867,2.460,0,0,RETURNING,0.000,0.500,0.189,0.028
19:47:43.625,RETURNING,27.579,15.999,1.000,0.00,0.00,-141.08,3.691,5.867,3.269,5.867,2.487,0,0,RETURNING,0.000,0.500,0.185,0.028
19:47:43.943,RETURNING,27.444,15.888,1.000,0.00,0.00,-140.44,3.691,6.022,3.269,5.720,2.460,0,0,RETURNING,0.000,0.500,0.185,0.028
19:47:44.117,RETURNING,27.386,15.840,1.000,0.00,0.00,-140.20,3.632,6.022,3.269,5.867,2.460,0,0,RETURNING,0.000,0.500,0.189,0.024
19:47:44.455,RETURNING,27.271,15.744,1.000,0.00,0.00,-139.74,3.632,6.022,3.223,5.867,2.460,0,0,RETURNING,0.000,0.500,0.189,0.028
19:47:44.614,RETURNING,27.195,15.679,1.000,0.00,0.00,-139.44,3.575,6.022,3.223,5.867,2.460,0,0,RETURNING,0.000,0.500,0.189,0.024
19:47:44.925,RETURNING,27.082,15.581,1.000,0.00,0.00,-139.01,3.575,6.184,3.269,6.022,2.487,0,0,RETURNING,0.000,0.500,0.189,0.021
19:47:45.234,RETURNING,26.969,15.482,1.000,0.00,0.00,-138.56,3.520,6.022,3.269,5.867,2.409,0,0,RETURNING,0.000,0.500,0.196,0.017
19:47:45.549,RETURNING,26.857,15.383,1.000,0.00,0.00,-138.16,3.575,5.867,3.316,5.720,2.434,0,0,RETURNING,0.000,0.500,0.189,0.017
19:47:45.794,RETURNING,26.764,15.299,1.000,0.00,0.00,-137.91,3.520,5.867,3.223,5.720,2.434,0,0,RETURNING,0.000,0.500,0.189,0.021
19:47:45.958,RETURNING,26.689,15.232,1.000,0.00,0.00,-137.71,3.520,5.867,3.223,5.581,2.460,0,0,RETURNING,0.000,0.500,0.182,0.021
19:47:46.121,RETURNING,26.634,15.181,1.000,0.00,0.00,-137.55,3.575,5.581,3.223,5.448,2.460,0,0,RETURNING,0.000,0.500,0.178,0.024
19:47:46.417,RETURNING,26.524,15.080,1.000,0.00,0.00,-137.19,3.467,5.867,3.178,5.720,2.460,0,0,RETURNING,0.000,0.500,0.185,0.021
19:47:46.743,RETURNING,26.414,14.978,1.000,0.00,0.00,-136.81,3.415,5.321,3.134,5.321,2.460,0,0,RETURNING,0.000,0.500,0.175,0.021
19:47:46.918,RETURNING,26.341,14.909,1.000,0.00,0.00,-136.54,3.467,5.867,3.134,5.448,2.460,0,0,RETURNING,0.000,0.500,0.178,0.024
19:47:47.254,RETURNING,26.233,14.805,1.000,0.00,0.00,-136.15,3.467,6.022,3.223,5.720,2.460,0,0,RETURNING,0.000,0.500,0.185,0.017
19:47:47.506,RETURNING,26.143,14.719,1.000,0.00,0.00,-135.86,3.467,6.730,3.178,5.720,2.460,0,0,RETURNING,0.000,0.500,0.185,0.021
19:47:47.666,RETURNING,26.071,14.649,1.000,0.00,0.00,-135.59,3.415,6.730,3.178,5.867,2.487,0,0,RETURNING,0.000,0.500,0.185,0.017
19:47:47.830,RETURNING,26.018,14.596,1.000,0.00,0.00,-135.40,3.415,6.730,3.178,5.867,2.487,0,0,RETURNING,0.000,0.500,0.185,0.017
19:47:48.144,RETURNING,25.911,14.491,1.000,0.00,0.00,-135.05,3.365,6.538,3.223,6.022,2.460,0,0,RETURNING,0.000,0.500,0.192,0.010
19:47:48.478,RETURNING,25.788,14.367,1.000,0.00,0.00,-134.72,3.365,6.356,3.178,5.867,2.434,0,0,RETURNING,0.000,0.500,0.192,0.014
19:47:48.645,RETURNING,25.735,14.313,1.000,0.00,0.00,-134.60,3.415,6.356,3.178,5.867,2.409,0,0,RETURNING,0.000,0.500,0.196,0.017
19:47:48.972,RETURNING,25.612,14.189,1.000,0.00,0.00,-134.36,3.365,6.022,3.092,5.867,2.460,0,0,RETURNING,0.000,0.500,0.189,0.021
19:47:49.133,RETURNING,25.560,14.135,1.000,0.00,0.00,-134.24,3.316,6.184,3.051,5.720,2.460,0,0,RETURNING,0.000,0.500,0.185,0.021
19:47:49.460,RETURNING,25.455,14.027,1.000,0.00,0.00,-133.91,3.316,6.184,3.011,5.867,2.487,0,0,RETURNING,0.000,0.500,0.185,0.024
19:47:49.702,RETURNING,25.369,13.937,1.000,0.00,0.00,-133.58,3.316,6.022,3.051,5.720,2.460,0,0,RETURNING,0.000,0.500,0.185,0.021
19:47:49.863,RETURNING,25.317,13.882,1.000,0.00,0.00,-133.38,3.269,5.720,3.092,5.720,2.460,0,0,RETURNING,0.000,0.500,0.185,0.014
19:47:50.017,RETURNING,25.249,13.810,1.000,0.00,0.00,-133.11,3.223,5.720,3.051,5.720,2.434,0,0,RETURNING,0.000,0.500,0.189,0.014
19:47:50.346,RETURNING,25.147,13.700,1.000,0.00,0.00,-132.72,3.134,5.581,3.178,5.720,2.460,0,0,RETURNING,0.000,0.500,0.185,-0.003
19:47:50.673,RETURNING,25.028,13.571,1.000,0.00,0.00,-132.43,3.134,5.581,3.178,5.867,2.460,0,0,RETURNING,0.000,0.500,0.189,-0.003
19:47:50.839,RETURNING,24.978,13.516,1.000,0.00,0.00,-132.40,3.178,5.321,3.134,5.448,2.460,0,0,RETURNING,0.000,0.500,0.178,0.003
19:47:51.156,RETURNING,24.877,13.405,1.000,0.00,0.00,-132.42,3.092,5.200,3.011,5.321,2.460,0,0,RETURNING,0.000,0.500,0.175,0.007
19:47:51.471,RETURNING,24.775,13.294,1.000,0.00,0.00,-132.43,3.092,5.200,2.896,5.200,2.434,0,0,RETURNING,0.000,0.500,0.175,0.017
19:47:51.637,RETURNING,24.708,13.220,1.000,0.00,0.00,-132.41,3.134,5.085,2.860,5.321,2.434,0,0,RETURNING,0.000,0.500,0.178,0.024
19:47:51.962,RETURNING,24.607,13.109,1.000,0.00,0.00,-132.26,3.092,5.085,2.724,5.200,2.434,0,0,RETURNING,0.000,0.500,0.175,0.035
19:47:52.149,RETURNING,24.540,13.035,1.000,0.00,0.00,-132.06,3.051,5.085,2.724,5.448,2.434,0,0,RETURNING,0.000,0.500,0.182,0.031
19:47:52.468,RETURNING,24.440,12.924,1.000,0.00,0.00,-131.59,2.934,5.085,3.316,5.321,2.460,0,0,RETURNING,0.000,0.500,0.175,-0.031
19:47:52.787,RETURNING,24.324,12.792,1.000,0.00,0.00,-130.94,2.896,5.085,3.945,5.200,2.460,0,0,RETURNING,0.000,0.500,0.171,-0.073
19:47:52.949,RETURNING,24.275,12.735,1.000,0.00,0.00,-130.83,2.896,5.085,4.014,5.200,2.460,0,0,RETURNING,0.000,0.500,0.171,-0.077
19:47:53.253,RETURNING,24.177,12.622,1.000,0.00,0.00,-131.36,3.011,4.868,3.814,5.321,2.460,0,0,RETURNING,0.000,0.500,0.175,-0.056
19:47:53.592,RETURNING,24.060,12.492,1.000,0.00,0.00,-132.79,3.223,4.317,3.316,4.576,2.460,0,0,RETURNING,0.000,0.500,0.150,-0.007
19:47:53.754,RETURNING,24.008,12.437,1.000,0.00,0.00,-133.46,3.223,4.237,3.269,4.487,2.460,0,0,RETURNING,0.000,0.500,0.147,-0.003
19:47:54.059,RETURNING,23.904,12.329,1.000,0.00,0.00,-134.35,3.269,4.014,3.415,4.160,2.460,0,0,RETURNING,0.000,0.500,0.133,-0.010
19:47:54.376,RETURNING,23.782,12.204,1.000,0.00,0.00,-134.55,3.178,3.945,3.632,4.086,2.434,0,0,RETURNING,0.000,0.500,0.133,-0.031
19:47:54.549,RETURNING,23.729,12.151,1.000,0.00,0.00,-134.60,3.134,3.814,3.632,3.945,2.434,0,0,RETURNING,0.000,0.500,0.126,-0.035
19:47:54.859,RETURNING,23.623,12.044,1.000,0.00,0.00,-134.86,3.051,3.575,3.467,3.632,2.434,0,0,RETURNING,0.000,0.500,0.108,-0.031
19:47:55.159,RETURNING,23.517,11.939,1.000,0.00,0.00,-135.43,3.051,3.467,3.365,3.632,2.434,0,0,RETURNING,0.000,0.500,0.108,-0.024
19:47:55.463,RETURNING,23.410,11.834,1.000,0.00,0.00,-136.01,2.972,3.316,3.269,3.467,2.460,0,0,RETURNING,0.000,0.500,0.094,-0.024
19:47:55.796,RETURNING,23.301,11.730,1.000,0.00,0.00,-136.51,2.896,3.178,3.092,3.269,2.409,0,0,RETURNING,0.000,0.500,0.087,-0.017
19:47:55.964,RETURNING,23.229,11.661,1.000,0.00,0.00,-136.80,2.860,2.934,3.011,3.134,2.434,0,0,RETURNING,0.000,0.500,0.073,-0.014
19:47:56.264,RETURNING,23.119,11.559,1.000,0.00,0.00,-137.24,2.860,2.790,2.825,2.790,2.434,0,0,RETURNING,0.000,0.500,0.042,0.003
19:47:56.588,RETURNING,22.990,11.441,1.000,0.00,0.00,-137.56,2.896,2.757,2.661,2.661,2.460,0,0,RETURNING,0.000,0.500,0.024,0.024
19:47:56.729,RETURNING,22.935,11.390,1.000,0.00,0.00,-137.61,2.860,2.692,2.288,2.630,2.434,0,0,RETURNING,0.000,0.500,0.024,0.070
19:47:57.069,RETURNING,22.824,11.289,1.000,0.00,0.00,-137.55,2.860,2.600,2.311,2.571,2.460,0,0,RETURNING,0.000,0.500,0.014,0.066
19:47:57.402,RETURNING,22.695,11.170,1.000,0.00,0.00,-136.79,2.724,2.487,2.266,2.434,2.384,0,0,RETURNING,0.000,0.500,0.007,0.059
19:47:57.560,RETURNING,22.641,11.119,1.000,0.00,0.00,-136.28,2.692,2.460,2.138,2.434,2.384,0,0,RETURNING,0.000,0.500,0.007,0.077
19:47:57.852,RETURNING,22.533,11.014,1.000,0.00,0.00,-135.24,2.571,6.538,1.973,2.600,2.434,0,0,RETURNING,0.000,0.500,0.021,0.094
19:47:58.149,RETURNING,22.428,10.908,1.000,0.00,0.00,-134.24,2.434,6.934,1.802,4.670,2.434,0,0,RETURNING,0.000,0.500,0.157,0.115
19:47:58.471,RETURNING,22.324,10.799,1.000,0.00,0.00,-132.74,2.335,6.356,1.760,4.576,2.434,0,0,RETURNING,0.000,0.500,0.154,0.112
19:47:58.781,RETURNING,22.224,10.687,1.000,0.00,0.00,-130.70,2.159,6.356,1.589,4.576,2.434,0,0,RETURNING,0.000,0.500,0.154,0.133
19:47:59.098,RETURNING,22.113,10.553,1.000,0.00,0.00,-128.52,2.043,6.538,1.467,4.868,2.409,0,0,RETURNING,0.000,0.500,0.168,0.154
19:47:59.255,RETURNING,22.066,10.494,1.000,0.00,0.00,-127.48,1.973,6.022,1.395,3.945,2.409,0,0,RETURNING,0.000,0.500,0.129,0.168
19:47:59.588,RETURNING,21.977,10.373,1.000,0.00,0.00,-125.08,1.816,2.934,6.730,2.934,2.359,0,0,RETURNING,0.000,0.500,0.066,-0.322
19:47:59.761,RETURNING,21.921,10.290,1.000,0.00,0.00,-123.28,1.720,2.790,6.730,2.757,2.384,0,0,RETURNING,0.000,0.500,0.045,-0.346
19:48:00.099,RETURNING,21.827,10.143,1.000,0.00,0.00,-124.08,1.774,5.720,6.730,4.400,2.409,0,0,RETURNING,0.000,0.500,0.150,-0.332
19:48:00.238,RETURNING,21.784,10.081,1.000,0.00,0.00,-126.85,1.860,6.184,6.538,4.670,2.384,0,0,RETURNING,0.000,0.500,0.164,-0.308
19:48:00.591,RETURNING,21.688,9.966,1.000,0.00,0.00,-132.86,2.159,6.022,6.184,4.670,2.384,0,0,RETURNING,0.000,0.500,0.164,-0.241
19:48:00.749,RETURNING,21.618,9.895,1.000,0.00,0.00,-136.69,4.670,6.022,1.064,4.670,2.384,0,0,RETURNING,0.000,0.500,0.164,0.580
19:48:01.087,RETURNING,21.504,9.797,1.000,0.00,0.00,-141.73,5.085,6.730,0.915,4.487,2.409,0,0,RETURNING,0.000,0.500,0.154,0.600
19:48:01.400,RETURNING,21.366,9.690,1.000,0.00,0.00,-139.25,2.025,5.720,6.184,4.576,2.434,0,0,RETURNING,0.000,0.500,0.154,-0.266
19:48:01.584,RETURNING,21.311,9.639,1.000,0.00,0.00,-134.15,1.831,5.720,6.184,4.576,2.409,0,0,RETURNING,0.000,0.500,0.157,-0.308
19:48:01.895,RETURNING,21.215,9.524,1.000,0.00,0.00,-126.23,1.670,4.086,6.184,4.086,2.384,0,0,RETURNING,0.000,0.500,0.140,-0.350
19:48:02.068,RETURNING,21.156,9.443,1.000,0.00,0.00,-128.10,1.733,5.720,5.867,4.400,2.384,0,0,RETURNING,0.000,0.500,0.154,-0.325
19:48:02.393,RETURNING,21.041,9.311,1.000,0.00,0.00,-134.59,4.237,5.581,5.867,4.160,2.409,0,0,RETURNING,0.000,0.500,0.140,-0.052
19:48:02.716,RETURNING,20.930,9.210,1.000,0.00,0.00,-140.13,4.487,5.867,6.184,3.751,2.434,0,0,RETURNING,0.000,0.500,0.115,-0.049
19:48:02.863,RETURNING,20.873,9.162,1.000,0.00,0.00,-140.71,4.086,5.581,6.184,3.691,2.384,0,0,RETURNING,0.000,0.500,0.119,-0.066
19:48:04.440,RETURNING,20.756,9.068,1.000,0.00,0.00,-141.68,4.086,5.720,5.867,3.632,2.359,0,0,RETURNING,0.000,0.500,0.119,-0.059
19:48:04.616,RETURNING,20.558,8.915,1.000,0.00,0.00,-143.05,4.487,5.448,5.581,3.575,2.359,0,0,RETURNING,0.000,0.500,0.115,-0.035
19:48:04.939,RETURNING,20.417,8.811,1.000,0.00,0.00,-144.03,4.086,5.321,5.321,3.415,2.335,0,0,RETURNING,0.000,0.500,0.108,-0.045
19:48:05.096,RETURNING,20.356,8.768,1.000,0.00,0.00,-144.51,4.400,5.321,5.200,3.467,2.359,0,0,RETURNING,0.000,0.500,0.108,-0.028
19:48:05.423,RETURNING,20.213,8.667,1.000,0.00,0.00,-145.28,4.160,5.200,4.868,3.415,2.359,0,0,RETURNING,0.000,0.500,0.105,-0.028
19:48:05.725,RETURNING,20.089,8.582,1.000,0.00,0.00,-145.80,4.086,4.974,4.317,3.415,2.359,0,0,RETURNING,0.000,0.500,0.105,-0.010
19:48:05.894,RETURNING,20.027,8.540,1.000,0.00,0.00,-146.08,4.086,4.868,4.014,3.467,2.359,0,0,RETURNING,0.000,0.500,0.108,0.003
19:48:06.219,RETURNING,19.902,8.457,1.000,0.00,0.00,-146.55,4.086,4.237,3.814,3.467,2.359,0,0,RETURNING,0.000,0.500,0.108,0.014
19:48:06.528,RETURNING,19.756,8.360,1.000,0.00,0.00,-146.57,4.086,4.014,3.632,3.467,2.335,0,0,RETURNING,0.000,0.500,0.112,0.024
19:48:06.692,RETURNING,19.694,8.319,1.000,0.00,0.00,-146.50,4.086,3.878,3.575,3.467,2.288,0,0,RETURNING,0.000,0.500,0.119,0.028
19:48:07.029,RETURNING,19.569,8.236,1.000,0.00,0.00,-146.26,3.269,3.691,3.415,3.467,2.335,0,0,RETURNING,0.000,0.500,0.112,-0.010
19:48:07.189,RETURNING,19.486,8.180,1.000,0.00,0.00,-146.00,3.878,3.691,3.269,3.467,2.311,0,0,RETURNING,0.000,0.500,0.115,0.038
19:48:07.506,RETURNING,19.362,8.096,1.000,0.00,0.00,-145.67,3.751,3.575,3.178,3.467,2.311,0,0,RETURNING,0.000,0.500,0.115,0.038
19:48:07.842,RETURNING,19.218,7.997,1.000,0.00,0.00,-145.09,3.467,3.269,3.011,3.316,2.266,0,0,RETURNING,0.000,0.500,0.112,0.035
19:48:07.988,RETURNING,19.156,7.954,1.000,0.00,0.00,-144.73,3.178,3.178,2.972,3.178,2.266,0,0,RETURNING,0.000,0.500,0.101,0.017
19:48:08.325,RETURNING,19.034,7.866,1.000,0.00,0.00,-143.86,3.178,3.178,2.860,3.134,2.243,0,0,RETURNING,0.000,0.500,0.101,0.028
19:48:08.511,RETURNING,18.954,7.807,1.000,0.00,0.00,-143.53,3.178,3.134,2.896,3.051,2.288,0,0,RETURNING,0.000,0.500,0.087,0.024
19:48:08.866,RETURNING,18.813,7.703,1.000,0.00,0.00,-143.05,3.178,2.860,2.487,2.757,2.288,0,0,RETURNING,0.000,0.500,0.059,0.070
19:48:09.024,RETURNING,18.753,7.657,1.000,0.00,0.00,-142.81,2.630,2.934,2.460,2.724,2.243,0,0,RETURNING,0.000,0.500,0.063,0.021
19:48:09.199,RETURNING,18.674,7.597,1.000,0.00,0.00,-142.43,3.178,2.860,2.487,2.661,2.266,0,0,RETURNING,0.000,0.500,0.052,0.070
19:48:09.511,RETURNING,18.556,7.504,1.000,0.00,0.00,-141.41,2.600,2.724,2.661,2.542,2.243,0,0,RETURNING,0.000,0.500,0.042,-0.007
19:48:09.873,RETURNING,18.420,7.394,1.000,0.00,0.00,-140.16,2.600,2.514,2.266,2.384,2.266,0,0,RETURNING,0.000,0.500,0.017,0.045
19:48:10.026,RETURNING,18.344,7.330,1.000,0.00,0.00,-139.73,2.692,2.514,2.025,2.288,2.288,0,0,RETURNING,0.000,0.500,0.000,0.098
19:48:10.382,RETURNING,18.229,7.232,1.000,0.00,0.00,-139.08,2.600,2.542,2.179,2.138,2.266,0,0,RETURNING,0.000,0.500,-0.021,0.059
19:48:10.528,RETURNING,18.173,7.183,1.000,0.00,0.00,-138.83,2.600,2.487,2.080,2.061,2.243,0,0,RETURNING,0.000,0.500,-0.031,0.077
19:48:10.825,RETURNING,18.061,7.084,1.000,0.00,0.00,-137.90,2.200,2.790,3.415,1.939,2.222,0,0,RETURNING,0.000,0.500,-0.052,-0.129
19:48:11.193,RETURNING,17.931,6.966,1.000,0.00,0.00,-137.10,2.200,2.661,3.269,1.802,2.200,0,0,RETURNING,0.000,0.500,-0.080,-0.119
19:48:11.350,RETURNING,17.857,6.898,1.000,0.00,0.00,-138.28,2.222,2.692,3.223,1.695,2.200,0,0,RETURNING,0.000,0.500,-0.108,-0.112
19:48:11.536,RETURNING,17.801,6.849,1.000,0.00,0.00,-139.39,2.080,2.692,3.223,1.611,2.200,0,0,RETURNING,0.000,0.500,-0.133,-0.136
19:48:11.689,RETURNING,17.724,6.785,1.000,0.00,0.00,-140.63,1.990,2.724,3.092,1.515,2.179,0,0,RETURNING,0.000,0.500,-0.161,-0.143
19:48:12.024,RETURNING,17.605,6.693,1.000,0.00,0.00,-144.83,1.816,2.757,3.051,1.338,2.200,0,0,RETURNING,0.000,0.446,-0.234,-0.178
19:48:12.372,RETURNING,17.460,6.596,1.000,0.00,0.00,-147.55,1.860,2.692,2.825,1.179,2.200,0,0,RETURNING,0.000,0.393,-0.315,-0.147
19:48:12.528,RETURNING,17.400,6.559,1.000,0.00,0.00,-148.99,1.891,2.934,2.972,1.095,2.200,0,0,RETURNING,0.000,0.365,-0.367,-0.154
19:48:12.834,RETURNING,17.267,6.483,1.000,0.00,0.00,-152.52,1.990,2.692,5.200,0.965,2.159,0,0,RETURNING,0.000,0.322,-0.458,-0.248
19:48:13.181,RETURNING,17.164,6.433,1.000,0.00,0.00,-155.23,2.080,2.630,4.767,0.897,2.099,0,0,RETURNING,0.000,0.299,-0.510,-0.217
19:48:13.330,RETURNING,17.116,6.411,1.000,0.00,0.00,-156.91,2.080,2.266,4.317,0.894,2.080,0,0,RETURNING,0.000,0.298,-0.510,-0.199
19:48:13.673,RETURNING,17.012,6.372,1.000,0.00,0.00,-161.79,2.159,2.200,3.751,0.873,2.080,0,0,RETURNING,0.000,0.291,-0.531,-0.157
19:48:13.841,RETURNING,16.969,6.358,1.000,0.00,0.00,-163.67,2.460,2.243,3.691,0.854,2.061,0,0,RETURNING,0.000,0.285,-0.549,-0.108
19:48:14.004,RETURNING,16.911,6.342,1.000,0.00,0.00,-165.97,2.860,2.222,3.632,0.857,2.061,0,0,RETURNING,0.000,0.286,-0.545,-0.059
19:48:14.326,RETURNING,16.825,6.323,1.000,0.00,0.00,-169.06,2.179,2.179,3.467,0.851,2.007,0,0,RETURNING,0.000,0.284,-0.542,-0.136
19:48:14.659,RETURNING,16.727,6.306,1.000,0.00,0.00,-171.05,2.025,5.085,3.316,0.863,1.956,0,0,RETURNING,0.000,0.288,-0.517,-0.154
19:48:14.829,RETURNING,16.684,6.300,1.000,0.00,0.00,-172.10,2.099,4.974,3.178,0.880,1.956,0,0,RETURNING,0.000,0.293,-0.500,-0.129
19:48:15.173,RETURNING,16.584,6.289,1.000,0.00,0.00,-175.00,4.670,4.576,2.972,0.854,1.973,0,0,RETURNING,0.000,0.285,-0.531,0.098
19:48:15.327,RETURNING,16.541,6.285,1.000,0.00,0.00,-176.28,4.767,4.400,2.860,0.860,1.956,0,0,RETURNING,0.000,0.287,-0.521,0.112
19:48:15.652,RETURNING,16.440,6.280,1.000,0.00,0.00,-176.47,4.487,4.487,2.934,0.870,1.939,0,0,RETURNING,0.000,0.290,-0.507,0.094
19:48:15.996,RETURNING,16.354,6.273,1.000,0.00,0.00,-174.69,4.237,4.576,3.011,0.857,1.939,0,0,RETURNING,0.000,0.286,-0.521,0.077
19:48:16.157,RETURNING,16.296,6.267,1.000,0.00,0.00,-173.59,4.317,4.670,3.011,0.857,1.939,0,0,RETURNING,0.000,0.286,-0.521,0.080
19:48:16.315,RETURNING,16.253,6.262,1.000,0.00,0.00,-172.80,4.014,4.767,3.011,0.857,1.939,0,0,RETURNING,0.000,0.286,-0.521,0.066
19:48:16.614,RETURNING,16.167,6.250,1.000,0.00,0.00,-171.27,3.814,4.767,3.051,0.867,1.923,0,0,RETURNING,0.000,0.289,-0.507,0.052
19:48:16.921,RETURNING,16.082,6.236,1.000,0.00,0.00,-169.98,3.814,4.670,3.051,0.847,1.939,0,0,RETURNING,0.000,0.282,-0.531,0.052
19:48:17.256,RETURNING,15.997,6.220,1.000,0.00,0.00,-169.01,3.632,4.670,2.972,0.880,1.939,0,0,RETURNING,0.000,0.293,-0.496,0.049
