timestamp,state,x,z,roll_deg,pitch_deg,yaw_deg,left,center,right,top,bottom,cmd_vx,cmd_vz,cmd_roll,cmd_yaw
2026-05-11 15:56:45.204700,SEARCHING,0.000,0.000,0.00,0.00,0.00,10.000,10.000,10.000,10.000,10.000,0.700,0.000,0.000,0.000
2026-05-11 15:56:46.455894,SEARCHING,0.000,1.000,0.00,0.00,0.00,10.000,10.000,10.000,10.000,10.000,0.700,0.000,0.000,0.000
2026-05-11 15:56:46.655314,SEARCHING,0.105,1.000,0.00,0.00,0.00,10.000,10.000,10.000,10.000,10.000,0.700,0.000,0.000,0.000
2026-05-11 15:56:46.872881,SEARCHING,0.245,1.000,0.00,0.00,0.00,10.000,10.000,10.000,10.000,10.000,0.700,0.000,0.000,0.000
2026-05-11 15:56:47.103806,SEARCHING,0.385,1.000,0.00,0.00,1.15,1.876,3.051,1.017,3.092,2.460,0.700,0.050,0.203,0.405
2026-05-11 15:56:47.327743,SEARCHING,0.525,1.000,0.00,0.00,5.88,1.733,2.630,7.627,2.600,2.434,0.700,0.016,-0.201,-0.401
2026-05-11 15:56:47.538743,SEARCHING,0.664,1.000,0.00,0.00,3.65,1.611,2.335,6.730,2.335,2.311,0.700,0.003,-0.212,-0.425
2026-05-11 15:56:47.752447,SEARCHING,0.804,1.000,0.00,0.00,-1.23,1.578,2.692,6.184,2.661,2.335,0.700,0.031,-0.212,-0.425
2026-05-11 15:56:47.962050,SEARCHING,0.944,1.000,0.00,0.00,-6.05,1.658,3.011,5.085,2.972,2.434,0.700,0.045,-0.183,-0.366
2026-05-11 15:56:48.164376,SEARCHING,1.082,1.000,0.00,0.00,-10.14,1.860,5.321,4.160,5.321,2.099,0.700,0.173,-0.134,-0.267
2026-05-11 15:56:48.397492,SEARCHING,1.219,1.000,0.00,0.00,-13.24,1.939,6.022,3.878,5.720,2.243,0.700,0.163,-0.116,-0.232
2026-05-11 15:56:48.628624,SEARCHING,1.355,1.000,0.00,0.00,-15.70,2.061,6.356,3.751,6.022,2.384,0.700,0.152,-0.098,-0.197
2026-05-11 15:56:48.831918,SEARCHING,1.489,1.000,0.00,0.00,-17.83,2.200,7.151,3.520,4.400,2.434,0.700,0.110,-0.077,-0.153
2026-05-11 15:56:49.062255,SEARCHING,1.622,1.000,0.00,0.00,-19.41,2.460,6.356,3.269,6.022,2.460,0.700,0.144,-0.045,-0.090
2026-05-11 15:56:49.277820,SEARCHING,1.753,1.000,0.00,0.00,-20.44,2.460,6.356,3.269,6.022,2.460,0.700,0.144,-0.045,-0.090
2026-05-11 15:56:49.492104,SEARCHING,1.884,1.000,0.00,0.00,-21.48,2.460,6.356,3.269,6.022,2.460,0.700,0.144,-0.045,-0.090
2026-05-11 15:56:49.716015,SEARCHING,2.014,1.000,0.00,0.00,-22.52,2.460,6.356,3.269,6.022,2.460,0.700,0.144,-0.045,-0.090
2026-05-11 15:56:49.918701,SEARCHING,2.143,1.000,0.00,0.00,-23.55,2.460,6.356,3.269,6.022,2.460,0.700,0.144,-0.045,-0.090
2026-05-11 15:56:50.145057,SEARCHING,2.271,1.000,0.00,0.00,-24.59,2.460,6.356,3.269,6.022,2.460,0.700,0.144,-0.045,-0.090
2026-05-11 15:56:50.379618,SEARCHING,2.398,1.000,0.00,0.00,-25.63,2.460,6.356,3.269,6.022,2.460,0.700,0.144,-0.045,-0.090
2026-05-11 15:56:50.605107,SEARCHING,2.523,1.000,0.00,0.00,-26.66,2.460,6.356,3.269,6.022,2.460,0.700,0.144,-0.045,-0.090
2026-05-11 15:56:50.819884,SEARCHING,2.648,1.000,0.00,0.00,-27.70,2.460,6.356,3.269,6.022,2.460,0.700,0.144,-0.045,-0.090
2026-05-11 15:56:51.036196,SEARCHING,2.771,1.000,0.00,0.00,-28.74,2.460,6.356,3.269,6.022,2.460,0.700,0.144,-0.045,-0.090
2026-05-11 15:56:51.273536,SEARCHING,2.924,1.000,0.00,0.00,-30.03,2.460,6.356,3.269,6.022,2.460,0.700,0.144,-0.045,-0.090
2026-05-11 15:56:51.468179,SEARCHING,3.014,1.000,0.00,0.00,-30.81,2.460,6.356,3.269,6.022,2.460,0.700,0.144,-0.045,-0.090
2026-05-11 15:56:51.692821,SEARCHING,3.134,1.000,0.00,0.00,-30.71,5.867,2.934,1.956,2.896,2.460,0.700,0.037,0.153,0.307
2026-05-11 15:56:51.910424,SEARCHING,3.257,1.000,0.00,0.00,-27.19,5.867,2.934,1.956,2.896,2.460,0.700,0.037,0.153,0.307
2026-05-11 15:56:52.148837,SEARCHING,3.383,1.000,0.00,0.00,-23.68,5.085,2.972,1.939,3.011,2.460,0.700,0.045,0.144,0.287
2026-05-11 15:56:52.344496,SEARCHING,3.512,1.000,0.00,0.00,-20.33,5.085,2.972,1.939,3.011,2.460,0.700,0.045,0.144,0.287
2026-05-11 15:56:52.550551,SEARCHING,3.645,1.000,0.00,0.00,-17.04,5.085,2.972,1.939,3.011,2.460,0.700,0.045,0.144,0.287
2026-05-11 15:56:52.775954,SEARCHING,3.780,1.000,0.00,0.00,-13.75,3.751,6.538,2.222,3.814,2.222,0.700,0.113,0.083,0.165
2026-05-11 15:56:53.003303,SEARCHING,3.916,1.000,0.00,0.00,-11.51,3.751,6.538,2.222,3.814,2.222,0.700,0.113,0.083,0.165
2026-05-11 15:56:53.199192,SEARCHING,4.054,1.000,0.00,0.00,-9.61,3.751,6.538,2.222,3.814,2.222,0.700,0.113,0.083,0.165
2026-05-11 15:56:53.404755,SEARCHING,4.192,1.000,0.00,0.00,-7.72,3.751,6.538,2.222,3.814,2.222,0.700,0.113,0.083,0.165
2026-05-11 15:56:53.612360,SEARCHING,4.331,1.000,0.00,0.00,-5.83,3.751,6.538,2.222,3.814,2.222,0.700,0.113,0.083,0.165
2026-05-11 15:56:53.845762,SEARCHING,4.471,1.000,0.00,0.00,-3.93,3.751,6.538,2.222,3.814,2.222,0.700,0.113,0.083,0.165
2026-05-11 15:56:54.057909,SEARCHING,4.611,1.000,0.00,0.00,-2.04,3.751,6.538,2.222,3.814,2.222,0.700,0.113,0.083,0.165
2026-05-11 15:56:54.271336,SEARCHING,4.750,1.000,0.00,0.00,-0.15,3.751,6.538,2.222,3.814,2.222,0.700,0.113,0.083,0.165
2026-05-11 15:56:54.475405,SEARCHING,4.890,1.000,0.00,0.00,1.74,3.751,6.538,2.222,3.814,2.222,0.700,0.113,0.083,0.165
2026-05-11 15:56:54.695480,SEARCHING,5.030,1.000,0.00,0.00,3.64,3.751,6.538,2.222,3.814,2.222,0.700,0.113,0.083,0.165
2026-05-11 15:56:54.906456,SEARCHING,5.170,1.000,0.00,0.00,5.53,3.751,6.538,2.222,3.814,2.222,0.700,0.113,0.083,0.165
2026-05-11 15:56:55.120540,SEARCHING,5.309,1.000,0.00,0.00,7.42,3.751,6.538,2.222,3.814,2.222,0.700,0.113,0.083,0.165
2026-05-11 15:56:55.330754,SEARCHING,5.448,1.000,0.00,0.00,7.99,1.682,2.661,4.014,2.630,2.460,0.700,0.016,-0.155,-0.311
2026-05-11 15:56:55.549367,SEARCHING,5.587,1.000,0.00,0.00,4.45,1.682,2.692,4.160,2.692,2.359,0.700,0.031,-0.159,-0.319
2026-05-11 15:56:55.756444,SEARCHING,5.727,1.000,0.00,0.00,0.81,1.733,2.825,4.487,2.630,2.460,0.700,0.016,-0.159,-0.319
2026-05-11 15:56:55.984230,SEARCHING,5.866,1.000,0.00,0.00,-2.84,1.816,2.860,5.200,2.600,2.460,0.700,0.013,-0.161,-0.323
2026-05-11 15:56:56.190377,SEARCHING,6.006,1.000,0.00,0.00,-6.56,1.845,2.896,5.867,2.600,2.460,0.700,0.013,-0.167,-0.334
2026-05-11 15:56:56.412194,SEARCHING,6.145,1.000,0.00,0.00,-10.32,2.007,3.092,5.720,2.600,2.460,0.700,0.013,-0.146,-0.291
2026-05-11 15:56:56.640386,SEARCHING,6.282,1.000,0.00,0.00,-13.54,2.159,3.415,5.448,2.600,2.434,0.700,0.016,-0.126,-0.252
2026-05-11 15:56:56.863239,SEARCHING,6.417,1.000,0.00,0.00,-16.42,2.159,3.415,5.448,2.600,2.434,0.700,0.016,-0.126,-0.252
2026-05-11 15:56:57.071927,SEARCHING,6.550,1.000,0.00,0.00,-19.31,2.159,3.415,5.448,2.600,2.434,0.700,0.016,-0.126,-0.252
2026-05-11 15:56:57.278702,SEARCHING,6.681,1.000,0.00,0.00,-22.19,2.159,3.415,5.448,2.600,2.434,0.700,0.016,-0.126,-0.252
2026-05-11 15:56:57.516566,SEARCHING,6.810,1.000,0.00,0.00,-25.08,2.159,3.415,5.448,2.600,2.434,0.700,0.016,-0.126,-0.252
2026-05-11 15:56:57.710931,SEARCHING,6.935,1.000,0.00,0.00,-27.96,2.159,3.415,5.448,2.600,2.434,0.700,0.016,-0.126,-0.252
2026-05-11 15:56:57.914410,SEARCHING,7.057,1.000,0.00,0.00,-30.85,2.159,3.415,5.448,2.600,2.434,0.700,0.016,-0.126,-0.252
2026-05-11 15:56:58.120165,SEARCHING,7.176,1.000,0.00,0.00,-33.73,2.159,3.415,5.448,2.600,2.434,0.700,0.016,-0.126,-0.252
2026-05-11 15:56:58.330415,SEARCHING,7.290,1.000,0.00,0.00,-36.62,3.691,5.085,2.934,4.317,2.514,0.700,0.100,0.031,0.063
2026-05-11 15:56:58.527024,SEARCHING,7.402,1.000,0.00,0.00,-36.80,3.691,5.085,2.934,4.317,2.514,0.700,0.100,0.031,0.063
2026-05-11 15:56:58.749177,SEARCHING,7.515,1.000,0.00,0.00,-36.08,3.691,5.085,2.934,4.317,2.514,0.700,0.100,0.031,0.063
2026-05-11 15:56:58.974483,SEARCHING,7.628,1.000,0.00,0.00,-35.35,3.691,5.085,2.934,4.317,2.514,0.700,0.100,0.031,0.063
2026-05-11 15:56:59.192024,SEARCHING,7.743,1.000,0.00,0.00,-34.63,3.691,5.085,2.934,4.317,2.514,0.700,0.100,0.031,0.063
2026-05-11 15:56:59.389436,SEARCHING,7.859,1.000,0.00,0.00,-33.91,3.691,5.085,2.934,4.317,2.514,0.700,0.100,0.031,0.063
2026-05-11 15:56:59.927707,SEARCHING,7.975,1.000,0.00,0.00,-33.19,3.691,5.085,2.934,4.317,2.514,0.700,0.100,0.031,0.063
2026-05-11 15:57:00.048802,SEARCHING,8.093,1.000,0.00,0.00,-32.47,3.691,5.085,2.934,4.317,2.514,0.700,0.100,0.031,0.063
2026-05-11 15:57:00.759267,SEARCHING,8.211,1.000,0.00,0.00,-31.75,3.691,5.085,2.934,4.317,2.514,0.700,0.100,0.031,0.063
2026-05-11 15:57:00.860365,SEARCHING,8.331,1.000,0.00,0.00,-31.03,3.691,5.085,2.934,4.317,2.514,0.700,0.100,0.031,0.063
2026-05-11 15:57:01.067611,SEARCHING,8.451,1.000,0.00,0.00,-30.31,3.691,5.085,2.934,4.317,2.514,0.700,0.100,0.031,0.063
2026-05-11 15:57:01.265202,SEARCHING,8.572,1.000,0.00,0.00,-29.59,3.691,5.085,2.934,4.317,2.514,0.700,0.100,0.031,0.063
2026-05-11 15:57:01.500271,SEARCHING,8.695,1.000,0.00,0.00,-28.86,3.691,5.085,2.934,4.317,2.514,0.700,0.100,0.031,0.063
2026-05-11 15:57:01.693645,SEARCHING,8.818,1.000,0.00,0.00,-28.06,3.520,6.934,2.600,2.630,2.460,0.700,0.016,0.045,0.090
2026-05-11 15:57:01.917058,SEARCHING,8.942,1.000,0.00,0.00,-27.03,3.520,6.934,2.600,2.630,2.460,0.700,0.016,0.045,0.090
2026-05-11 15:57:02.126133,SEARCHING,9.067,1.000,0.00,0.00,-25.99,3.223,6.184,2.661,2.311,2.460,0.700,-0.016,0.029,0.059
2026-05-11 15:57:02.336694,SEARCHING,9.193,1.000,0.00,0.00,-25.22,3.223,6.184,2.661,2.311,2.460,0.700,-0.016,0.029,0.059
2026-05-11 15:57:02.565335,SEARCHING,9.320,1.000,0.00,0.00,-24.58,3.134,5.581,2.692,2.138,2.409,0.700,-0.031,0.024,0.047
2026-05-11 15:57:02.786179,SEARCHING,9.448,1.000,0.00,0.00,-24.04,3.134,5.581,2.692,2.138,2.409,0.700,-0.031,0.024,0.047
2026-05-11 15:57:03.030050,SEARCHING,9.576,1.000,0.00,0.00,-23.57,3.011,5.200,2.790,1.923,2.288,0.700,-0.050,0.012,0.024
2026-05-11 15:57:03.245859,SEARCHING,9.704,1.000,0.00,0.00,-23.33,2.896,4.974,2.934,1.816,2.460,0.700,-0.087,-0.002,-0.004
2026-05-11 15:57:03.449959,SEARCHING,9.833,1.000,0.00,0.00,-23.31,2.896,4.974,2.934,1.816,2.460,0.700,-0.087,-0.002,-0.004
2026-05-11 15:57:03.659943,SEARCHING,9.961,1.000,0.00,0.00,-23.36,2.896,4.974,2.934,1.816,2.460,0.700,-0.087,-0.002,-0.004
2026-05-11 15:57:03.884895,SEARCHING,10.090,1.000,0.00,0.00,-23.40,2.896,4.974,2.934,1.816,2.460,0.700,-0.087,-0.002,-0.004
2026-05-11 15:57:04.082814,SEARCHING,10.218,1.000,0.00,0.00,-23.45,2.896,4.670,3.011,4.670,2.434,0.700,0.118,-0.006,-0.012
2026-05-11 15:57:04.304157,SEARCHING,10.347,1.000,0.00,0.00,-23.55,2.896,4.576,2.972,4.576,2.434,0.700,0.115,-0.004,-0.008
2026-05-11 15:57:04.503807,SEARCHING,10.475,1.000,0.00,0.00,-23.64,2.860,4.487,3.092,4.487,2.487,0.700,0.108,-0.012,-0.024
2026-05-11 15:57:04.722547,SEARCHING,10.603,1.000,0.00,0.00,-23.87,2.860,4.487,3.092,4.487,2.487,0.700,0.108,-0.012,-0.024
2026-05-11 15:57:04.933256,SEARCHING,10.731,1.000,0.00,0.00,-24.15,2.825,4.400,3.092,4.400,2.434,0.700,0.110,-0.014,-0.028
2026-05-11 15:57:05.158330,SEARCHING,10.859,1.000,0.00,0.00,-24.51,2.790,4.400,3.223,4.400,2.359,0.700,0.118,-0.022,-0.043
2026-05-11 15:57:05.372190,SEARCHING,10.986,1.000,0.00,0.00,-25.00,2.661,4.317,3.632,4.317,2.434,0.700,0.108,-0.045,-0.090
2026-05-11 15:57:05.582667,SEARCHING,11.112,1.000,0.00,0.00,-25.91,2.661,4.317,3.632,4.317,2.434,0.700,0.108,-0.045,-0.090
2026-05-11 15:57:05.812508,SEARCHING,11.238,1.000,0.00,0.00,-26.94,2.661,4.317,3.632,4.317,2.434,0.700,0.108,-0.045,-0.090
2026-05-11 15:57:06.026880,SEARCHING,11.362,1.000,0.00,0.00,-27.98,2.661,4.317,3.632,4.317,2.434,0.700,0.108,-0.045,-0.090
2026-05-11 15:57:06.246168,SEARCHING,11.485,1.000,0.00,0.00,-29.04,2.434,4.767,3.316,4.767,2.487,0.700,0.115,-0.049,-0.098
2026-05-11 15:57:06.445432,SEARCHING,11.607,1.000,0.00,0.00,-30.16,2.434,4.767,3.316,4.767,2.487,0.700,0.115,-0.049,-0.098
2026-05-11 15:57:06.674745,SEARCHING,11.727,1.000,0.00,0.00,-31.29,2.514,4.576,2.896,4.576,2.434,0.700,0.115,-0.024,-0.047
2026-05-11 15:57:06.860045,SEARCHING,11.846,1.000,0.00,0.00,-31.98,2.514,4.576,2.896,4.576,2.434,0.700,0.115,-0.024,-0.047
2026-05-11 15:57:07.075399,SEARCHING,11.965,1.000,0.00,0.00,-32.52,2.514,4.576,2.896,4.576,2.434,0.700,0.115,-0.024,-0.047
2026-05-11 15:57:07.291621,SEARCHING,12.083,1.000,0.00,0.00,-33.06,2.571,4.576,2.692,4.670,2.409,0.700,0.121,-0.008,-0.016
2026-05-11 15:57:07.511811,SEARCHING,12.200,1.000,0.00,0.00,-33.33,2.542,4.576,2.661,4.670,2.222,0.700,0.142,-0.008,-0.016
2026-05-11 15:57:07.714759,SEARCHING,12.317,1.000,0.00,0.00,-33.51,2.542,4.576,2.661,4.670,2.222,0.700,0.142,-0.008,-0.016
2026-05-11 15:57:07.927714,SEARCHING,12.433,1.000,0.00,0.00,-33.67,2.514,4.576,2.571,4.670,2.460,0.700,0.115,-0.004,-0.008
2026-05-11 15:57:08.130997,SEARCHING,12.550,1.000,0.00,0.00,-33.76,2.514,4.576,2.571,4.670,2.460,0.700,0.115,-0.004,-0.008
2026-05-11 15:57:08.358252,SEARCHING,12.666,1.000,0.00,0.00,-33.83,2.542,4.576,2.542,4.670,2.514,0.700,0.110,0.000,0.000
2026-05-11 15:57:08.561296,SEARCHING,12.782,1.000,0.00,0.00,-33.83,2.542,4.576,2.542,4.670,2.514,0.700,0.110,0.000,0.000
2026-05-11 15:57:08.783078,SEARCHING,12.899,1.000,0.00,0.00,-33.62,3.092,4.576,2.487,4.576,2.460,0.700,0.113,0.035,0.071
2026-05-11 15:57:08.981088,SEARCHING,13.016,1.000,0.00,0.00,-32.81,2.860,4.317,2.434,4.317,2.487,0.700,0.102,0.028,0.055
2026-05-11 15:57:09.202601,SEARCHING,13.134,1.000,0.00,0.00,-32.14,2.860,4.317,2.434,4.317,2.487,0.700,0.102,0.028,0.055
2026-05-11 15:57:09.407181,SEARCHING,13.253,1.000,0.00,0.00,-31.51,2.860,4.317,2.434,4.317,2.487,0.700,0.102,0.028,0.055
2026-05-11 15:57:09.615495,SEARCHING,13.372,1.000,0.00,0.00,-30.87,2.860,4.317,2.434,4.317,2.487,0.700,0.102,0.028,0.055
2026-05-11 15:57:09.825891,SEARCHING,13.493,1.000,0.00,0.00,-30.24,2.359,3.467,2.061,3.467,2.384,0.700,0.079,0.028,0.055
2026-05-11 15:57:10.044491,SEARCHING,13.614,1.000,0.00,0.00,-29.61,2.359,3.467,2.061,3.467,2.384,0.700,0.079,0.028,0.055
2026-05-11 15:57:10.256992,SEARCHING,13.736,1.000,0.00,0.00,-28.95,2.200,3.223,1.891,3.269,2.514,0.700,0.055,0.033,0.067
2026-05-11 15:57:10.478755,SEARCHING,13.859,1.000,0.00,0.00,-28.18,1.973,2.934,2.099,2.934,2.487,0.700,0.037,-0.014,-0.028
2026-05-11 15:57:10.680712,SEARCHING,13.983,1.000,0.00,0.00,-28.23,1.973,2.934,2.099,2.934,2.487,0.700,0.037,-0.014,-0.028
2026-05-11 15:57:10.898530,SEARCHING,14.106,1.000,0.00,0.00,-28.54,1.973,2.934,2.099,2.934,2.487,0.700,0.037,-0.014,-0.028
2026-05-11 15:57:11.145571,SEARCHING,14.229,1.000,0.00,0.00,-29.22,1.578,2.724,2.335,2.757,2.434,0.700,0.029,-0.092,-0.185
2026-05-11 15:57:11.335142,SEARCHING,14.350,1.000,0.00,0.00,-31.25,1.578,2.724,2.335,2.757,2.434,0.700,0.029,-0.092,-0.185
2026-05-11 15:57:11.552994,SEARCHING,14.468,1.000,0.00,0.00,-33.36,1.505,3.051,2.025,3.134,2.460,0.700,0.052,-0.077,-0.153
2026-05-11 15:57:11.777315,SEARCHING,14.584,1.000,0.00,0.00,-35.21,1.505,3.051,2.025,3.134,2.460,0.700,0.052,-0.077,-0.153
2026-05-11 15:57:11.993097,SEARCHING,14.697,1.000,0.00,0.00,-36.97,1.505,3.051,2.025,3.134,2.460,0.700,0.052,-0.077,-0.153
2026-05-11 15:57:12.204736,SEARCHING,14.808,1.000,0.00,0.00,-38.36,1.646,4.576,1.720,4.487,2.311,0.700,0.126,-0.012,-0.024
2026-05-11 15:57:12.430729,SEARCHING,14.918,1.000,0.00,0.00,-38.63,1.646,4.576,1.720,4.487,2.311,0.700,0.126,-0.012,-0.024
2026-05-11 15:57:12.631531,SEARCHING,15.027,1.000,0.00,0.00,-38.90,1.646,4.576,1.720,4.487,2.311,0.700,0.126,-0.012,-0.024
2026-05-11 15:57:12.882265,SEARCHING,15.136,1.000,0.00,0.00,-39.17,1.646,4.576,1.720,4.487,2.311,0.700,0.126,-0.012,-0.024
2026-05-11 15:57:13.077671,SEARCHING,15.244,1.000,0.00,0.00,-39.44,1.646,4.576,1.720,4.487,2.311,0.700,0.126,-0.012,-0.024
2026-05-11 15:57:13.298578,SEARCHING,15.352,1.000,0.00,0.00,-39.71,1.646,4.576,1.720,4.487,2.311,0.700,0.126,-0.012,-0.024
2026-05-11 15:57:13.508679,SEARCHING,15.459,1.000,0.00,0.00,-39.98,1.646,4.576,1.720,4.487,2.311,0.700,0.126,-0.012,-0.024
2026-05-11 15:57:13.737620,SEARCHING,15.566,1.000,0.00,0.00,-40.25,1.646,4.576,1.720,4.487,2.311,0.700,0.126,-0.012,-0.024
2026-05-11 15:57:13.929619,SEARCHING,15.673,1.000,0.00,0.00,-40.52,1.646,4.576,1.720,4.487,2.311,0.700,0.126,-0.012,-0.024
2026-05-11 15:57:14.168734,SEARCHING,15.779,1.000,0.00,0.00,-40.32,2.159,3.223,1.611,3.134,2.487,0.700,0.050,0.071,0.142
2026-05-11 15:57:14.350719,SEARCHING,15.887,1.000,0.00,0.00,-38.69,2.119,3.092,1.634,3.051,2.222,0.700,0.073,0.063,0.126
2026-05-11 15:57:14.590523,SEARCHING,15.998,1.000,0.00,0.00,-37.36,1.973,3.223,1.708,3.223,2.434,0.700,0.060,0.035,0.071
2026-05-11 15:57:14.780403,SEARCHING,16.109,1.000,0.00,0.00,-36.55,1.973,3.223,1.708,3.223,2.434,0.700,0.060,0.035,0.071
2026-05-11 15:57:15.006896,SEARCHING,16.222,1.000,0.00,0.00,-35.74,1.845,3.316,1.907,3.316,2.487,0.700,0.060,-0.008,-0.016
2026-05-11 15:57:15.202610,SEARCHING,16.336,1.000,0.00,0.00,-35.67,1.845,3.316,1.907,3.316,2.487,0.700,0.060,-0.008,-0.016
2026-05-11 15:57:15.413779,SEARCHING,16.450,1.000,0.00,0.00,-35.85,1.845,3.316,1.907,3.316,2.487,0.700,0.060,-0.008,-0.016
2026-05-11 15:57:15.621481,SEARCHING,16.563,1.000,0.00,0.00,-36.03,1.845,3.316,1.907,3.316,2.487,0.700,0.060,-0.008,-0.016
2026-05-11 15:57:15.851522,SEARCHING,16.676,1.000,0.00,0.00,-36.22,1.845,3.316,1.907,3.316,2.487,0.700,0.060,-0.008,-0.016
2026-05-11 15:57:16.055537,SEARCHING,16.789,1.000,0.00,0.00,-36.40,1.845,3.316,1.907,3.316,2.487,0.700,0.060,-0.008,-0.016
2026-05-11 15:57:16.266829,SEARCHING,16.902,1.000,0.00,0.00,-36.58,1.845,3.316,1.907,3.316,2.487,0.700,0.060,-0.008,-0.016
2026-05-11 15:57:16.497162,SEARCHING,17.014,1.000,0.00,0.00,-36.76,1.845,3.316,1.907,3.316,2.487,0.700,0.060,-0.008,-0.016
2026-05-11 15:57:16.707906,SEARCHING,17.126,1.000,0.00,0.00,-36.94,1.845,3.316,1.907,3.316,2.487,0.700,0.060,-0.008,-0.016
2026-05-11 15:57:16.904507,SEARCHING,17.238,1.000,0.00,0.00,-37.12,1.845,3.316,1.907,3.316,2.487,0.700,0.060,-0.008,-0.016
2026-05-11 15:57:17.117467,SEARCHING,17.349,1.000,0.00,0.00,-36.41,2.542,2.384,1.387,2.384,2.434,0.700,-0.005,0.147,0.295
2026-05-11 15:57:17.323254,SEARCHING,17.464,1.000,0.00,0.00,-33.03,2.542,2.384,1.387,2.384,2.434,0.700,-0.005,0.147,0.295
2026-05-11 15:57:17.551958,SEARCHING,17.584,1.000,0.00,0.00,-29.65,2.542,2.384,1.387,2.384,2.434,0.700,-0.005,0.147,0.295
2026-05-11 15:57:17.777892,SEARCHING,17.707,1.000,0.00,0.00,-26.45,2.243,2.243,1.557,2.222,2.266,0.700,-0.005,0.088,0.177
2026-05-11 15:57:18.014777,SEARCHING,17.833,1.000,0.00,0.00,-24.32,2.266,2.222,1.623,2.200,2.222,0.700,-0.003,0.079,0.157
2026-05-11 15:57:18.213627,SEARCHING,17.962,1.000,0.00,0.00,-22.51,2.266,2.222,1.623,2.200,2.222,0.700,-0.003,0.079,0.157
2026-05-11 15:57:18.453153,SEARCHING,18.092,1.000,0.00,0.00,-20.71,2.266,2.222,1.623,2.200,2.222,0.700,-0.003,0.079,0.157
2026-05-11 15:57:18.671908,SEARCHING,18.224,1.000,0.00,0.00,-18.91,2.266,2.222,1.623,2.200,2.222,0.700,-0.003,0.079,0.157
2026-05-11 15:57:18.894167,SEARCHING,18.357,1.000,0.00,0.00,-17.10,2.266,2.222,1.623,2.200,2.222,0.700,-0.003,0.079,0.157
2026-05-11 15:57:19.080310,SEARCHING,18.491,1.000,0.00,0.00,-15.30,2.266,2.222,1.623,2.200,2.222,0.700,-0.003,0.079,0.157
2026-05-11 15:57:19.313747,SEARCHING,18.627,1.000,0.00,0.00,-13.50,2.266,2.222,1.623,2.200,2.222,0.700,-0.003,0.079,0.157
2026-05-11 15:57:19.505954,SEARCHING,18.763,1.000,0.00,0.00,-11.70,2.266,2.222,1.623,2.200,2.222,0.700,-0.003,0.079,0.157
2026-05-11 15:57:19.746717,SEARCHING,18.901,1.000,0.00,0.00,-9.89,2.266,2.222,1.623,2.200,2.222,0.700,-0.003,0.079,0.157
2026-05-11 15:57:19.968323,SEARCHING,19.039,1.000,0.00,0.00,-8.09,2.266,2.222,1.623,2.200,2.222,0.700,-0.003,0.079,0.157
2026-05-11 15:57:20.201842,SEARCHING,19.178,1.000,0.00,0.00,-6.29,2.266,2.222,1.623,2.200,2.222,0.700,-0.003,0.079,0.157
2026-05-11 15:57:20.407226,SEARCHING,19.317,1.000,0.00,0.00,-4.48,2.266,2.222,1.623,2.200,2.222,0.700,-0.003,0.079,0.157
2026-05-11 15:57:20.691823,INSPECTING,19.457,1.000,0.00,0.00,-2.68,1.150,0.803,0.582,0.795,0.823,0.350,-0.550,0.552,0.850
2026-05-11 15:57:20.974945,INSPECTING,19.530,1.000,0.00,0.00,6.66,1.150,0.803,0.582,0.795,0.823,0.350,-0.550,0.552,0.850
2026-05-11 15:57:21.119293,INSPECTING,19.599,1.000,0.00,0.00,16.40,1.150,0.803,0.582,0.795,0.823,0.350,-0.550,0.552,0.850
2026-05-11 15:57:21.342843,INSPECTING,19.664,1.000,0.00,0.00,26.14,1.150,0.803,0.582,0.795,0.823,0.350,-0.550,0.552,0.850
2026-05-11 15:57:21.572671,INSPECTING,19.724,1.000,0.00,0.00,35.88,0.591,0.726,0.946,0.726,0.726,0.350,0.550,-0.552,-0.850
2026-05-11 15:57:21.789911,INSPECTING,19.780,1.000,0.00,0.00,34.91,0.480,0.639,0.784,0.639,0.639,0.350,0.550,-0.552,-0.850
2026-05-11 15:57:22.122912,INSPECTING,19.840,1.000,0.00,0.00,25.17,0.492,0.613,0.814,0.615,0.613,0.350,0.550,-0.552,-0.850
2026-05-11 15:57:22.334965,INSPECTING,19.872,1.000,0.00,0.00,20.30,0.492,0.613,0.814,0.615,0.613,0.350,0.550,-0.552,-0.850
2026-05-11 15:57:22.490049,INSPECTING,19.905,1.000,0.00,0.00,15.43,0.489,0.695,1.217,0.695,0.693,0.350,0.550,-0.552,-0.850
2026-05-11 15:57:22.803447,INSPECTING,19.974,1.000,0.00,0.00,5.69,0.524,0.811,2.159,0.814,0.811,0.350,-0.550,0.552,0.850
2026-05-11 15:57:23.127736,INSPECTING,20.044,1.000,0.00,0.00,-4.05,0.524,0.811,2.159,0.814,0.811,0.350,-0.550,0.552,0.850
2026-05-11 15:57:23.393519,INSPECTING,20.130,1.000,0.00,0.00,-16.23,0.524,0.811,2.159,0.814,0.811,0.350,-0.550,0.552,0.850
2026-05-11 15:57:23.606200,INSPECTING,20.198,1.000,0.00,0.00,-6.49,0.524,0.811,2.159,0.814,0.811,0.350,-0.550,0.552,0.850
2026-05-11 15:57:23.773873,INSPECTING,20.251,1.000,0.00,0.00,0.82,0.524,0.811,2.159,0.814,0.811,0.350,-0.550,-0.552,-0.850
2026-05-11 15:57:24.149457,TURNING,20.354,1.000,0.00,0.00,15.43,0.242,0.306,0.416,0.304,0.308,0.000,0.000,0.000,0.000
2026-05-11 15:57:24.349076,TURNING,20.451,1.000,0.00,0.00,27.12,0.227,0.277,0.443,0.278,0.277,0.000,0.000,0.000,0.800
2026-05-11 15:57:24.544449,TURNING,20.553,1.000,0.00,0.00,23.48,0.227,0.277,0.443,0.278,0.277,0.000,0.000,0.000,0.800
2026-05-11 15:57:24.744097,TURNING,20.553,1.000,0.00,0.00,32.65,0.267,0.227,0.267,0.227,0.227,0.000,0.000,0.000,0.800
2026-05-11 15:57:24.976948,TURNING,20.553,1.000,0.00,0.00,41.81,0.392,0.227,0.227,0.227,0.227,0.000,0.000,0.000,0.800
2026-05-11 15:57:25.220692,TURNING,20.553,1.000,0.00,0.00,50.98,0.259,0.227,0.227,0.241,0.227,0.000,0.000,0.000,0.800
2026-05-11 15:57:25.424078,TURNING,20.553,1.000,0.00,0.00,60.15,0.857,0.227,0.262,0.227,0.227,0.000,0.000,0.000,0.800
2026-05-11 15:57:25.629686,TURNING,20.553,1.000,0.00,0.00,69.31,0.227,0.687,0.379,0.484,0.487,0.000,0.000,0.000,0.800
2026-05-11 15:57:25.833895,TURNING,20.553,1.000,0.00,0.00,78.48,0.236,0.298,0.308,0.776,0.227,0.000,0.000,0.000,0.800
2026-05-11 15:57:26.044809,TURNING,20.553,1.000,0.00,0.00,87.65,0.750,0.242,0.745,1.515,0.230,0.000,0.000,0.000,0.800
2026-05-11 15:57:26.268987,TURNING,20.553,1.000,0.00,0.00,96.82,0.227,0.245,0.244,10.000,0.239,0.000,0.000,0.000,0.800
2026-05-11 15:57:26.443461,TURNING,20.553,1.000,0.00,0.00,105.98,0.255,0.227,0.241,0.227,0.227,0.000,0.000,0.000,0.800
2026-05-11 15:57:26.672557,TURNING,20.553,1.000,0.00,0.00,115.15,0.275,0.227,0.227,0.227,0.227,0.000,0.000,0.000,0.800
2026-05-11 15:57:26.902148,TURNING,20.553,1.000,0.00,0.00,124.32,0.275,0.227,0.227,0.227,0.227,0.000,0.000,0.000,0.800
2026-05-11 15:57:27.110223,TURNING,20.553,1.000,0.00,0.00,133.49,0.492,0.329,0.235,0.329,0.317,0.000,0.000,0.000,0.800
2026-05-11 15:57:27.302208,TURNING,20.553,1.000,0.00,0.00,142.65,0.492,0.329,0.235,0.329,0.317,0.000,0.000,0.000,0.800
2026-05-11 15:57:27.552060,TURNING,20.553,1.000,0.00,0.00,151.82,0.492,0.329,0.235,0.329,0.317,0.000,0.000,0.000,0.761
2026-05-11 15:57:27.758734,TURNING,20.553,1.000,0.00,0.00,160.74,0.492,0.329,0.235,0.329,0.317,0.000,0.000,0.000,0.605
2026-05-11 15:57:27.970267,TURNING,20.553,1.000,0.00,0.00,168.08,0.492,0.329,0.235,0.329,0.317,0.000,0.000,0.000,0.477
2026-05-11 15:57:28.176235,TURNING,20.553,1.000,0.00,0.00,173.77,0.492,0.329,0.235,0.329,0.317,0.000,0.000,0.000,0.378
2026-05-11 15:57:28.413513,TURNING,20.553,1.000,0.00,0.00,178.31,0.492,0.329,0.235,0.329,0.317,0.000,0.000,0.000,0.300
2026-05-11 15:57:28.606062,TURNING,20.553,1.000,0.00,-0.00,-178.06,0.492,0.329,0.235,0.329,0.317,0.000,0.000,0.000,0.300
2026-05-11 15:57:28.816894,TURNING,20.553,1.000,0.00,-0.00,-174.63,0.492,0.329,0.235,0.329,0.317,0.000,0.000,0.000,0.300
2026-05-11 15:57:29.023204,TURNING,20.553,1.000,0.00,-0.00,-171.19,1.876,2.692,1.536,2.724,2.487,0.000,0.000,0.000,0.300
2026-05-11 15:57:29.232368,RETURNING,20.553,1.000,0.00,-0.00,-167.75,1.876,2.692,1.536,2.724,2.487,0.500,0.017,0.000,0.094
2026-05-11 15:57:29.471124,RETURNING,20.490,1.000,0.00,-0.00,-166.88,0.535,2.409,3.632,2.409,2.384,0.500,0.002,0.000,-0.600
2026-05-11 15:57:29.696101,RETURNING,20.392,1.000,0.00,-0.00,-170.17,0.535,2.409,3.632,2.409,2.384,0.500,0.002,0.000,-0.600
2026-05-11 15:57:29.886535,RETURNING,20.293,1.000,0.00,-0.00,-177.05,0.535,2.409,3.632,2.409,2.384,0.500,0.002,0.000,-0.600
2026-05-11 15:57:30.081608,RETURNING,20.193,1.000,0.00,0.00,176.08,0.535,2.409,3.632,2.409,2.384,0.500,0.002,0.000,-0.600
2026-05-11 15:57:30.283481,RETURNING,20.094,1.000,0.00,0.00,169.20,1.990,3.134,1.271,3.178,2.460,0.500,0.046,0.000,0.227
2026-05-11 15:57:30.493063,RETURNING,19.996,1.000,0.00,0.00,168.49,1.990,3.134,1.271,3.178,2.460,0.500,0.046,0.000,0.227
2026-05-11 15:57:31.131607,RETURNING,19.922,1.000,0.00,0.00,170.44,1.990,3.134,1.271,3.178,2.460,0.500,0.046,0.000,0.227
2026-05-11 15:57:31.313847,RETURNING,19.749,1.000,0.00,0.00,175.00,1.990,3.134,1.271,3.178,2.460,0.500,0.046,0.000,0.227
2026-05-11 15:57:32.048073,RETURNING,19.649,1.000,0.00,0.00,177.60,1.990,3.134,1.271,3.178,2.460,0.500,0.046,0.000,0.227
2026-05-11 15:57:32.252915,RETURNING,19.549,1.000,0.00,-0.00,-179.79,1.990,3.134,1.271,3.178,2.460,0.500,0.046,0.000,0.227
2026-05-11 15:57:32.459006,RETURNING,19.449,1.000,0.00,-0.00,-177.19,1.600,2.434,3.467,2.434,2.359,0.500,0.007,0.000,-0.269
2026-05-11 15:57:32.692207,RETURNING,19.349,1.000,0.00,-0.00,-177.71,1.600,2.434,3.467,2.434,2.359,0.500,0.007,0.000,-0.269
2026-05-11 15:57:32.909003,RETURNING,19.249,1.000,0.00,0.00,179.19,1.467,2.243,3.092,2.243,2.243,0.500,0.000,0.000,-0.287
2026-05-11 15:57:33.115619,RETURNING,19.149,1.000,0.00,0.00,175.91,1.505,2.266,3.269,2.266,2.266,0.500,0.000,0.000,-0.287
2026-05-11 15:57:33.367803,RETURNING,19.050,1.000,0.00,0.00,172.63,1.670,2.359,3.751,2.359,2.311,0.500,0.004,0.000,-0.266
2026-05-11 15:57:33.567821,RETURNING,18.951,1.000,0.00,0.00,169.51,1.670,2.359,3.751,2.359,2.311,0.500,0.004,0.000,-0.266
2026-05-11 15:57:33.777599,RETURNING,18.853,1.000,0.00,0.00,166.46,1.670,2.359,3.751,2.359,2.311,0.500,0.004,0.000,-0.266
2026-05-11 15:57:33.978486,RETURNING,18.756,1.000,0.00,0.00,163.42,1.670,2.359,3.751,2.359,2.311,0.500,0.004,0.000,-0.266
2026-05-11 15:57:34.183898,RETURNING,18.661,1.000,0.00,0.00,160.37,1.670,2.359,3.751,2.359,2.311,0.500,0.004,0.000,-0.266
2026-05-11 15:57:34.403759,RETURNING,18.568,1.000,0.00,0.00,157.33,1.670,2.359,3.751,2.359,2.311,0.500,0.004,0.000,-0.266
2026-05-11 15:57:34.628881,RETURNING,18.477,1.000,0.00,0.00,154.28,1.670,2.359,3.751,2.359,2.311,0.500,0.004,0.000,-0.266
2026-05-11 15:57:34.836405,RETURNING,18.388,1.000,0.00,0.00,151.24,1.670,2.359,3.751,2.359,2.311,0.500,0.004,0.000,-0.266
2026-05-11 15:57:35.028162,RETURNING,18.301,1.000,0.00,0.00,148.20,1.670,2.359,3.751,2.359,2.311,0.500,0.004,0.000,-0.266
2026-05-11 15:57:35.255299,RETURNING,18.218,1.000,0.00,0.00,145.15,1.670,2.359,3.751,2.359,2.311,0.500,0.004,0.000,-0.266
2026-05-11 15:57:35.442569,RETURNING,18.137,1.000,0.00,0.00,142.11,1.670,2.359,3.751,2.359,2.311,0.500,0.004,0.000,-0.266
2026-05-11 15:57:35.663859,RETURNING,18.059,1.000,0.00,0.00,139.06,1.670,2.359,3.751,2.359,2.311,0.500,0.004,0.000,-0.266
2026-05-11 15:57:35.864356,RETURNING,17.985,1.000,0.00,0.00,136.02,1.670,2.359,3.751,2.359,2.311,0.500,0.004,0.000,-0.266
2026-05-11 15:57:36.052528,RETURNING,17.915,1.000,0.00,0.00,133.47,4.576,1.505,0.829,1.467,1.515,0.489,-0.011,0.000,0.600
2026-05-11 15:57:36.291787,RETURNING,17.844,1.000,0.00,0.00,140.34,4.576,1.505,0.829,1.467,1.515,0.489,-0.011,0.000,0.600
2026-05-11 15:57:36.487207,RETURNING,17.766,1.000,0.00,0.00,147.22,4.576,1.505,0.829,1.467,1.515,0.489,-0.011,0.000,0.600
2026-05-11 15:57:36.716496,RETURNING,17.681,1.000,0.00,0.00,154.09,4.576,1.505,0.829,1.467,1.515,0.489,-0.011,0.000,0.600
2026-05-11 15:57:36.918010,RETURNING,17.591,1.000,0.00,0.00,160.97,4.576,1.505,0.829,1.467,1.515,0.489,-0.011,0.000,0.600
2026-05-11 15:57:37.142833,RETURNING,17.497,1.000,0.00,0.00,167.84,4.576,1.505,0.829,1.467,1.515,0.489,-0.011,0.000,0.600
2026-05-11 15:57:37.314994,RETURNING,17.400,1.000,0.00,0.00,174.72,4.576,1.505,0.829,1.467,1.515,0.489,-0.011,0.000,0.600
2026-05-11 15:57:37.555518,RETURNING,17.303,1.000,0.00,-0.00,-178.40,4.576,1.505,0.829,1.467,1.515,0.489,-0.011,0.000,0.600
2026-05-11 15:57:37.760523,RETURNING,17.205,1.000,0.00,-0.00,-171.53,4.576,1.505,0.829,1.467,1.515,0.489,-0.011,0.000,0.600
2026-05-11 15:57:37.996909,RETURNING,17.110,1.000,0.00,-0.00,-164.65,4.576,1.505,0.829,1.467,1.515,0.489,-0.011,0.000,0.600
2026-05-11 15:57:38.208436,RETURNING,17.017,1.000,0.00,-0.00,-157.78,4.576,1.505,0.829,1.467,1.515,0.489,-0.011,0.000,0.600
2026-05-11 15:57:38.458993,RETURNING,16.929,1.000,0.00,-0.00,-150.90,0.698,0.795,0.919,0.795,0.795,0.265,0.000,0.000,-0.276
2026-05-11 15:57:38.632366,RETURNING,16.862,1.000,0.00,-0.00,-148.53,0.677,0.748,0.851,0.748,0.748,0.249,0.000,0.000,-0.241
2026-05-11 15:57:38.839441,RETURNING,16.819,1.000,0.00,-0.00,-151.28,0.582,0.650,0.733,0.650,0.646,0.215,0.004,0.000,-0.283
2026-05-11 15:57:39.168434,RETURNING,16.761,1.000,0.00,-0.00,-155.91,0.515,0.591,0.693,0.593,0.593,0.197,0.000,0.000,-0.399
2026-05-11 15:57:39.374141,RETURNING,16.723,1.000,0.00,-0.00,-160.03,0.503,0.582,0.685,0.581,0.581,0.194,0.000,0.000,-0.423
2026-05-11 15:57:39.616439,RETURNING,16.687,1.000,0.00,-0.00,-164.92,0.477,0.564,0.679,0.562,0.562,0.187,0.000,0.000,-0.500
2026-05-11 15:57:39.818831,RETURNING,16.650,1.000,0.00,-0.00,-170.71,0.456,0.550,0.693,0.549,0.550,0.183,-0.002,0.000,-0.600
2026-05-11 15:57:40.055005,RETURNING,16.614,1.000,0.00,-0.00,-177.58,0.456,0.550,0.693,0.549,0.550,0.183,-0.002,0.000,-0.600
2026-05-11 15:57:40.227169,RETURNING,16.577,1.000,0.00,0.00,175.54,0.456,0.550,0.693,0.549,0.550,0.183,-0.002,0.000,-0.600
2026-05-11 15:57:40.449591,RETURNING,16.541,1.000,0.00,0.00,168.67,0.456,0.550,0.693,0.549,0.550,0.183,-0.002,0.000,-0.600
2026-05-11 15:57:40.677801,RETURNING,16.506,1.000,0.00,0.00,161.79,0.456,0.550,0.693,0.549,0.550,0.183,-0.002,0.000,-0.600
2026-05-11 15:57:40.893829,RETURNING,16.471,1.000,0.00,0.00,154.92,0.456,0.550,0.693,0.549,0.550,0.183,-0.002,0.000,-0.600
2026-05-11 15:57:41.079656,RETURNING,16.439,1.000,0.00,0.00,148.04,0.456,0.550,0.693,0.549,0.550,0.183,-0.002,0.000,-0.600
2026-05-11 15:57:41.327313,RETURNING,16.409,1.000,0.00,0.00,141.17,0.456,0.550,0.693,0.549,0.550,0.183,-0.002,0.000,-0.600
2026-05-11 15:57:41.514237,RETURNING,16.382,1.000,0.00,0.00,134.29,0.456,0.550,0.693,0.549,0.550,0.183,-0.002,0.000,-0.600
2026-05-11 15:57:41.734529,RETURNING,16.358,1.000,0.00,0.00,127.41,0.456,0.550,0.693,0.549,0.550,0.183,-0.002,0.000,-0.600
2026-05-11 15:57:41.947194,RETURNING,16.337,1.000,0.00,0.00,120.54,0.456,0.550,0.693,0.549,0.550,0.183,-0.002,0.000,-0.600
2026-05-11 15:57:42.138204,RETURNING,16.321,1.000,0.00,0.00,113.66,0.456,0.550,0.693,0.549,0.550,0.183,-0.002,0.000,-0.600
2026-05-11 15:57:42.336755,RETURNING,16.308,1.000,0.00,0.00,106.79,0.456,0.550,0.693,0.549,0.550,0.183,-0.002,0.000,-0.600
2026-05-11 15:57:42.552828,RETURNING,16.299,1.000,0.00,0.00,99.91,2.896,1.448,1.122,1.515,1.525,0.483,-0.002,0.000,0.437
2026-05-11 15:57:42.769091,RETURNING,16.287,1.000,0.00,0.00,100.76,2.630,1.448,1.084,1.439,1.439,0.480,0.000,0.000,0.434
2026-05-11 15:57:42.995414,RETURNING,16.266,1.000,0.00,0.00,105.73,2.757,1.404,1.040,1.395,1.412,0.465,-0.004,0.000,0.479
2026-05-11 15:57:43.195645,RETURNING,16.237,1.000,0.00,0.00,110.94,3.178,1.412,1.045,1.404,1.421,0.468,-0.004,0.000,0.514
2026-05-11 15:57:43.392725,RETURNING,16.200,1.000,0.00,0.00,116.77,3.178,1.412,1.045,1.404,1.421,0.468,-0.004,0.000,0.514
2026-05-11 15:57:43.587253,RETURNING,16.154,1.000,0.00,0.00,122.66,5.581,2.288,1.138,2.288,2.288,0.500,0.000,0.000,0.559
2026-05-11 15:57:43.814917,RETURNING,16.097,1.000,0.00,0.00,128.89,5.581,2.288,1.138,2.288,2.288,0.500,0.000,0.000,0.559
2026-05-11 15:57:44.023095,RETURNING,16.030,1.000,0.00,0.00,135.30,5.581,2.288,1.138,2.288,2.288,0.500,0.000,0.000,0.559
2026-05-11 15:57:44.248026,RETURNING,15.956,1.000,0.00,0.00,141.71,5.581,2.288,1.138,2.288,2.288,0.500,0.000,0.000,0.559
2026-05-11 15:57:44.479910,RETURNING,15.874,1.000,0.00,0.00,148.12,5.581,2.288,1.138,2.288,2.288,0.500,0.000,0.000,0.559
2026-05-11 15:57:44.627127,RETURNING,15.787,1.000,0.00,0.00,154.53,5.581,2.288,1.138,2.288,2.288,0.500,0.000,0.000,0.559
2026-05-11 15:57:44.889140,RETURNING,15.695,1.000,0.00,0.00,160.94,1.747,2.934,4.974,2.896,2.434,0.500,0.033,0.000,-0.297
2026-05-11 15:57:45.062373,RETURNING,15.599,1.000,0.00,0.00,161.93,1.623,2.790,5.321,2.790,2.460,0.500,0.024,0.000,-0.343
2026-05-11 15:57:45.295257,RETURNING,15.505,1.000,0.00,0.00,158.00,1.623,2.790,5.321,2.790,2.460,0.500,0.024,0.000,-0.343
2026-05-11 15:57:45.497150,RETURNING,15.414,1.000,0.00,0.00,154.07,1.611,2.630,5.581,2.661,2.434,0.500,0.017,0.000,-0.353
2026-05-11 15:57:45.709801,RETURNING,15.325,1.000,0.00,0.00,150.02,1.611,2.630,5.581,2.661,2.434,0.500,0.017,0.000,-0.353
2026-05-11 15:57:45.948670,RETURNING,15.240,1.000,0.00,0.00,145.98,1.611,2.630,5.581,2.661,2.434,0.500,0.017,0.000,-0.353
2026-05-11 15:57:46.175043,RETURNING,15.140,1.000,0.00,0.00,140.92,1.611,2.630,5.581,2.661,2.434,0.500,0.017,0.000,-0.353
2026-05-11 15:57:46.352286,RETURNING,15.082,1.000,0.00,0.00,137.88,1.611,2.630,5.581,2.661,2.434,0.500,0.017,0.000,-0.353
2026-05-11 15:57:46.571974,RETURNING,15.010,1.000,0.00,0.00,133.84,1.611,2.630,5.581,2.661,2.434,0.500,0.017,0.000,-0.353
2026-05-11 15:57:46.767838,RETURNING,14.944,1.000,0.00,0.00,129.79,6.356,4.400,2.243,4.487,2.460,0.500,0.092,0.000,0.231
2026-05-11 15:57:46.973407,RETURNING,14.878,1.000,0.00,0.00,132.10,6.356,4.400,2.243,4.487,2.460,0.500,0.092,0.000,0.231
2026-05-11 15:57:47.188717,RETURNING,14.810,1.000,0.00,0.00,134.75,6.356,4.400,2.243,4.487,2.460,0.500,0.092,0.000,0.231
2026-05-11 15:57:47.408843,RETURNING,14.738,1.000,0.00,0.00,137.39,6.356,4.400,2.243,4.487,2.460,0.500,0.092,0.000,0.231
2026-05-11 15:57:47.604121,RETURNING,14.663,1.000,0.00,0.00,140.03,6.356,4.400,2.243,4.487,2.460,0.500,0.092,0.000,0.231
2026-05-11 15:57:47.798865,RETURNING,14.585,1.000,0.00,0.00,142.68,3.878,5.085,2.860,3.415,2.460,0.500,0.057,0.000,0.073
2026-05-11 15:57:48.032608,RETURNING,14.505,1.000,0.00,0.00,144.05,3.051,5.321,2.896,3.316,2.460,0.500,0.052,0.000,0.014
2026-05-11 15:57:48.252537,RETURNING,14.424,1.000,0.00,0.00,144.18,2.934,5.321,2.934,3.269,2.409,0.500,0.055,0.000,0.000
2026-05-11 15:57:48.455930,RETURNING,14.342,1.000,0.00,0.00,144.18,2.972,5.720,2.972,3.178,2.434,0.500,0.048,0.000,0.000
2026-05-11 15:57:48.650936,RETURNING,14.261,1.000,0.00,0.00,144.18,2.972,5.720,2.972,3.178,2.434,0.500,0.048,0.000,0.000
2026-05-11 15:57:48.866809,RETURNING,14.180,1.000,0.00,0.00,144.18,2.972,5.720,2.972,3.178,2.434,0.500,0.048,0.000,0.000
2026-05-11 15:57:49.081452,RETURNING,14.099,1.000,0.00,0.00,144.18,2.972,5.720,2.972,3.178,2.434,0.500,0.048,0.000,0.000
2026-05-11 15:57:49.333936,RETURNING,14.018,1.000,0.00,0.00,144.23,4.014,5.321,2.896,2.724,2.460,0.500,0.020,0.000,0.077
2026-05-11 15:57:49.544528,RETURNING,13.937,1.000,0.00,0.00,145.11,4.160,5.200,2.896,2.661,2.266,0.500,0.033,0.000,0.084
2026-05-11 15:57:49.728183,RETURNING,13.854,1.000,0.00,0.00,146.07,4.160,5.200,2.896,2.661,2.266,0.500,0.033,0.000,0.084
2026-05-11 15:57:49.970857,RETURNING,13.771,1.000,0.00,0.00,147.03,4.160,5.200,2.896,2.661,2.266,0.500,0.033,0.000,0.084
2026-05-11 15:57:50.146012,RETURNING,13.686,1.000,0.00,0.00,147.99,4.160,5.200,2.896,2.661,2.266,0.500,0.033,0.000,0.084
2026-05-11 15:57:50.383260,RETURNING,13.601,1.000,0.00,0.00,148.82,3.134,6.356,3.092,2.243,2.460,0.500,-0.020,0.000,0.003
2026-05-11 15:57:50.637269,RETURNING,13.516,1.000,0.00,0.00,148.87,3.134,7.151,3.134,2.138,2.487,0.500,-0.033,0.000,0.000
2026-05-11 15:57:50.845545,RETURNING,13.430,1.000,0.00,0.00,148.87,3.134,7.151,3.011,2.099,2.460,0.500,-0.035,0.000,0.010
2026-05-11 15:57:51.028449,RETURNING,13.344,1.000,0.00,0.00,148.99,3.134,7.151,3.011,2.099,2.460,0.500,-0.035,0.000,0.010
2026-05-11 15:57:51.238050,RETURNING,13.259,1.000,0.00,0.00,149.11,3.467,7.151,2.896,1.876,2.460,0.500,-0.063,0.000,0.045
2026-05-11 15:57:51.448119,RETURNING,13.173,1.000,0.00,0.00,149.49,3.467,7.151,2.972,1.774,2.409,0.500,-0.074,0.000,0.038
2026-05-11 15:57:51.662996,RETURNING,13.086,1.000,0.00,0.00,149.96,3.467,6.934,2.972,1.708,2.460,0.500,-0.090,0.000,0.038
2026-05-11 15:57:51.875899,RETURNING,13.000,1.000,0.00,0.00,150.40,3.467,6.934,2.972,1.708,2.460,0.500,-0.090,0.000,0.038
2026-05-11 15:57:52.075159,RETURNING,12.913,1.000,0.00,0.00,150.84,3.365,7.151,3.011,1.670,2.222,0.500,-0.074,0.000,0.028
2026-05-11 15:57:52.296426,RETURNING,12.825,1.000,0.00,0.00,151.16,3.269,6.934,3.178,3.632,2.080,0.500,0.103,0.000,0.007
2026-05-11 15:57:52.507981,RETURNING,12.737,1.000,0.00,0.00,151.35,3.223,7.151,3.178,3.751,2.409,0.500,0.074,0.000,0.003
2026-05-11 15:57:52.749127,RETURNING,12.650,1.000,0.00,0.00,151.39,3.223,7.151,3.178,3.751,2.409,0.500,0.074,0.000,0.003
2026-05-11 15:57:52.956534,RETURNING,12.562,1.000,0.00,0.00,151.43,3.316,7.151,3.178,3.575,2.384,0.500,0.070,0.000,0.010
2026-05-11 15:57:53.172797,RETURNING,12.474,1.000,0.00,0.00,151.55,3.269,6.934,3.134,3.365,2.514,0.500,0.050,0.000,0.010
2026-05-11 15:57:53.377642,RETURNING,12.386,1.000,0.00,0.00,151.67,3.269,6.934,3.134,3.365,2.514,0.500,0.050,0.000,0.010
2026-05-11 15:57:53.602610,RETURNING,12.298,1.000,0.00,0.00,151.79,3.269,6.934,3.134,3.365,2.514,0.500,0.050,0.000,0.010
2026-05-11 15:57:53.794104,RETURNING,12.210,1.000,0.00,0.00,151.91,3.223,7.151,3.011,3.134,2.434,0.500,0.046,0.000,0.017
2026-05-11 15:57:53.994858,RETURNING,12.121,1.000,0.00,0.00,152.12,3.223,7.151,3.011,3.134,2.434,0.500,0.046,0.000,0.017
2026-05-11 15:57:54.223433,RETURNING,12.033,1.000,0.00,0.00,152.29,3.092,6.934,3.092,2.896,2.487,0.500,0.028,0.000,0.000
2026-05-11 15:57:54.431367,RETURNING,11.944,1.000,0.00,0.00,152.29,3.134,6.538,3.178,2.790,2.434,0.500,0.026,0.000,-0.003
2026-05-11 15:57:54.657987,RETURNING,11.856,1.000,0.00,0.00,152.26,3.134,6.538,3.178,2.790,2.434,0.500,0.026,0.000,-0.003
2026-05-11 15:57:54.867935,RETURNING,11.767,1.000,0.00,0.00,152.22,3.134,6.538,3.178,2.790,2.434,0.500,0.026,0.000,-0.003
2026-05-11 15:57:55.089141,RETURNING,11.679,1.000,0.00,0.00,152.16,3.092,6.934,3.316,2.661,2.460,0.500,0.015,0.000,-0.017
2026-05-11 15:57:55.282727,RETURNING,11.591,1.000,0.00,0.00,151.96,3.092,6.934,3.316,2.661,2.460,0.500,0.015,0.000,-0.017
2026-05-11 15:57:55.503468,RETURNING,11.502,1.000,0.00,0.00,151.76,3.178,6.934,3.316,2.571,2.487,0.500,0.007,0.000,-0.010
2026-05-11 15:57:55.708564,RETURNING,11.414,1.000,0.00,0.00,151.64,3.092,6.730,3.269,2.600,2.514,0.500,0.007,0.000,-0.014
2026-05-11 15:57:55.936412,RETURNING,11.326,1.000,0.00,0.00,151.48,3.092,6.022,3.316,2.542,2.487,0.500,0.004,0.000,-0.017
2026-05-11 15:57:56.138580,RETURNING,11.239,1.000,0.00,0.00,151.28,3.051,5.867,3.269,2.630,2.460,0.500,0.013,0.000,-0.017
2026-05-11 15:57:56.353823,RETURNING,11.151,1.000,0.00,0.00,151.08,3.051,5.867,3.269,2.630,2.460,0.500,0.013,0.000,-0.017
2026-05-11 15:57:56.568864,RETURNING,11.064,1.000,0.00,0.00,150.88,3.051,5.867,3.269,2.630,2.460,0.500,0.013,0.000,-0.017
2026-05-11 15:57:56.774579,RETURNING,10.976,1.000,0.00,0.00,150.68,3.051,5.867,3.269,2.630,2.460,0.500,0.013,0.000,-0.017
2026-05-11 15:57:56.973182,RETURNING,10.889,1.000,0.00,0.00,150.42,2.661,6.184,3.223,2.600,2.434,0.500,0.013,0.000,-0.052
2026-05-11 15:57:57.199199,RETURNING,10.802,1.000,0.00,0.00,149.82,2.571,6.184,3.223,2.600,2.487,0.500,0.009,0.000,-0.063
2026-05-11 15:57:57.406650,RETURNING,10.716,1.000,0.00,0.00,149.15,2.571,6.184,3.223,2.600,2.487,0.500,0.009,0.000,-0.063
2026-05-11 15:57:57.632923,RETURNING,10.631,1.000,0.00,0.00,148.43,0.340,0.340,3.051,2.630,2.409,0.113,0.017,0.000,-0.600
2026-05-11 15:57:57.839769,RETURNING,10.573,1.000,0.00,0.00,144.32,0.339,5.720,3.011,2.600,2.359,0.500,0.020,0.000,-0.600
2026-05-11 15:57:58.050173,RETURNING,10.495,1.000,0.00,0.00,138.56,0.296,4.160,2.222,2.571,2.460,0.500,0.009,0.000,-0.600
2026-05-11 15:57:58.275424,RETURNING,10.421,1.000,0.00,0.00,134.27,0.296,4.160,2.222,2.571,2.460,0.500,0.009,0.000,-0.600
2026-05-11 15:57:58.499999,RETURNING,10.355,1.000,0.00,0.00,127.39,5.867,3.467,1.891,2.159,2.460,0.500,-0.028,0.000,0.287
2026-05-11 15:57:58.682644,RETURNING,10.294,1.000,0.00,0.00,129.17,4.670,2.661,1.611,2.434,2.409,0.500,0.002,0.000,0.325
2026-05-11 15:57:58.909345,RETURNING,10.229,1.000,0.00,0.00,132.86,5.200,3.051,1.720,2.757,2.288,0.500,0.037,0.000,0.311
2026-05-11 15:57:59.114959,RETURNING,10.159,1.000,0.00,0.00,136.48,5.720,3.269,1.816,2.934,2.434,0.500,0.035,0.000,0.301
2026-05-11 15:57:59.343427,RETURNING,10.084,1.000,0.00,0.00,139.98,5.867,3.415,1.939,3.365,2.487,0.500,0.052,0.000,0.276
2026-05-11 15:57:59.543682,RETURNING,10.006,1.000,0.00,0.00,143.30,6.022,3.575,2.099,3.632,2.460,0.500,0.066,0.000,0.248
2026-05-11 15:57:59.733751,RETURNING,9.924,1.000,0.00,0.00,146.29,0.296,3.878,2.288,3.878,2.487,0.500,0.072,0.000,-0.600
2026-05-11 15:57:59.957055,RETURNING,9.841,1.000,0.00,0.00,143.79,5.720,4.160,2.460,4.160,2.460,0.500,0.083,0.000,0.185
2026-05-11 15:58:00.140298,RETURNING,9.763,1.000,0.00,0.00,141.89,6.184,3.632,2.200,3.632,2.460,0.500,0.066,0.000,0.234
2026-05-11 15:58:00.367924,RETURNING,9.683,1.000,0.00,0.00,143.14,0.276,3.415,2.119,3.467,2.460,0.500,0.059,0.000,-0.600
2026-05-11 15:58:00.605739,RETURNING,9.606,1.000,0.00,0.00,136.73,5.200,3.011,1.907,3.051,2.460,0.500,0.039,0.000,0.266
2026-05-11 15:58:00.815086,RETURNING,9.532,1.000,0.00,0.00,139.51,5.581,2.972,1.831,2.972,2.460,0.500,0.035,0.000,0.294
2026-05-11 15:58:01.017844,RETURNING,9.454,1.000,0.00,0.00,142.84,5.867,3.134,2.043,3.178,2.460,0.500,0.046,0.000,0.255
2026-05-11 15:58:01.250905,RETURNING,9.373,1.000,0.00,0.00,145.92,6.022,3.316,2.099,3.365,2.434,0.500,0.057,0.000,0.248
2026-05-11 15:58:01.431652,RETURNING,9.289,1.000,0.00,0.00,148.82,5.720,3.751,2.119,3.814,2.359,0.500,0.081,0.000,0.238
2026-05-11 15:58:02.219593,RETURNING,9.202,1.000,0.00,0.00,151.56,5.867,4.014,2.222,4.014,2.460,0.500,0.079,0.000,0.224
2026-05-11 15:58:03.062843,RETURNING,9.113,1.000,0.00,0.00,154.12,5.720,4.400,2.311,4.400,2.311,0.500,0.103,0.000,0.206
2026-05-11 15:58:03.203031,RETURNING,9.023,1.000,0.00,0.00,156.53,4.576,4.868,2.514,4.868,2.384,0.500,0.107,0.000,0.143
2026-05-11 15:58:03.377277,RETURNING,8.883,1.000,0.00,0.00,159.77,4.576,4.868,2.514,4.868,2.384,0.500,0.107,0.000,0.143
2026-05-11 15:58:03.593771,RETURNING,8.789,1.000,0.00,0.00,161.42,4.576,4.868,2.514,4.868,2.384,0.500,0.107,0.000,0.143
2026-05-11 15:58:03.800403,RETURNING,8.694,1.000,0.00,0.00,162.99,3.269,5.448,3.011,5.321,2.460,0.500,0.109,0.000,0.021
2026-05-11 15:58:04.019269,RETURNING,8.598,1.000,0.00,0.00,163.23,3.011,5.720,3.092,5.720,2.434,0.500,0.118,0.000,-0.007
2026-05-11 15:58:04.222744,RETURNING,8.503,1.000,0.00,0.00,163.29,3.011,5.720,3.092,5.581,2.487,0.500,0.111,0.000,-0.007
2026-05-11 15:58:04.428240,RETURNING,8.407,1.000,0.00,0.00,163.21,3.051,5.720,3.092,5.448,2.460,0.500,0.111,0.000,-0.003
2026-05-11 15:58:04.636355,RETURNING,8.311,1.000,0.00,0.00,163.17,3.051,5.720,3.092,5.448,2.460,0.500,0.111,0.000,-0.003
2026-05-11 15:58:04.861188,RETURNING,8.215,1.000,0.00,0.00,163.15,3.269,6.022,3.051,5.581,2.487,0.500,0.111,0.000,0.017
2026-05-11 15:58:05.060156,RETURNING,8.120,1.000,0.00,0.00,163.35,3.415,6.022,3.011,5.581,2.460,0.500,0.114,0.000,0.031
2026-05-11 15:58:05.266514,RETURNING,8.024,1.000,0.00,0.00,163.70,3.415,6.022,3.011,5.581,2.460,0.500,0.114,0.000,0.031
2026-05-11 15:58:05.485403,RETURNING,7.928,1.000,0.00,0.00,164.06,3.365,5.867,3.011,5.581,2.409,0.500,0.118,0.000,0.028
2026-05-11 15:58:05.674068,RETURNING,7.831,1.000,0.00,0.00,164.42,3.415,5.720,3.051,5.448,2.243,0.500,0.131,0.000,0.028
2026-05-11 15:58:05.878327,RETURNING,7.735,1.000,0.00,0.00,164.75,3.316,5.720,2.972,5.581,2.434,0.500,0.116,0.000,0.028
2026-05-11 15:58:06.092343,RETURNING,7.638,1.000,0.00,0.00,165.08,3.316,5.581,3.011,5.448,2.460,0.500,0.111,0.000,0.024
2026-05-11 15:58:06.314704,RETURNING,7.542,1.000,0.00,0.00,165.37,3.316,5.448,3.011,5.448,2.266,0.500,0.129,0.000,0.024
2026-05-11 15:58:06.546076,RETURNING,7.445,1.000,0.00,0.00,165.65,3.316,5.448,3.011,5.448,2.266,0.500,0.129,0.000,0.024
2026-05-11 15:58:06.767666,RETURNING,7.348,1.000,0.00,0.00,165.93,3.316,4.086,3.092,4.868,2.542,0.500,0.094,0.000,0.017
2026-05-11 15:58:06.980227,RETURNING,7.251,1.000,0.00,0.00,166.13,3.269,4.086,3.092,4.576,2.487,0.500,0.092,0.000,0.014
2026-05-11 15:58:07.165847,RETURNING,7.154,1.000,0.00,0.00,166.31,3.269,0.256,3.092,0.256,2.487,0.085,-0.400,0.000,0.014
2026-05-11 15:58:07.357873,RETURNING,7.101,1.000,0.00,0.00,166.47,3.223,3.223,3.051,4.576,2.460,0.500,0.094,0.000,0.014
2026-05-11 15:58:07.583243,RETURNING,7.024,1.000,0.00,0.00,166.64,3.223,4.086,3.011,4.670,2.460,0.500,0.096,0.000,0.017
2026-05-11 15:58:07.785575,RETURNING,6.927,1.000,0.00,0.00,166.86,3.178,4.086,2.934,4.160,2.487,0.500,0.081,0.000,0.021
2026-05-11 15:58:08.031010,RETURNING,6.829,1.000,0.00,0.00,167.12,3.134,4.086,2.860,4.400,2.487,0.500,0.087,0.000,0.024
2026-05-11 15:58:08.215509,RETURNING,6.736,1.000,0.00,0.00,167.40,3.134,4.317,2.825,4.160,2.487,0.500,0.081,0.000,0.028
2026-05-11 15:58:08.435255,RETURNING,6.675,1.000,0.00,0.00,167.70,3.051,4.086,2.825,4.317,2.311,0.500,0.101,0.000,0.021
2026-05-11 15:58:08.610590,RETURNING,6.577,1.000,0.00,0.00,167.94,3.011,4.086,2.896,4.237,2.460,0.500,0.085,0.000,0.010
2026-05-11 15:58:08.828675,RETURNING,6.479,1.000,0.00,0.00,168.10,3.011,4.160,2.896,4.086,2.384,0.500,0.087,0.000,0.010
2026-05-11 15:58:09.053446,RETURNING,6.382,1.000,0.00,0.00,168.21,3.011,4.086,2.934,4.317,2.460,0.500,0.087,0.000,0.007
2026-05-11 15:58:09.246846,RETURNING,6.284,1.000,0.00,0.00,168.29,2.972,4.086,2.896,4.160,2.460,0.500,0.083,0.000,0.007
2026-05-11 15:58:09.493136,RETURNING,6.186,1.000,0.00,0.00,168.36,2.934,4.086,2.972,4.160,2.222,0.500,0.105,0.000,-0.003
2026-05-11 15:58:09.701400,RETURNING,6.088,1.000,0.00,0.00,168.34,2.934,4.086,3.011,4.086,2.571,0.500,0.072,0.000,-0.007
2026-05-11 15:58:09.903464,RETURNING,5.990,1.000,0.00,0.00,168.28,2.934,4.086,3.011,4.086,2.384,0.500,0.087,0.000,-0.007
2026-05-11 15:58:10.091500,RETURNING,5.892,1.000,0.00,0.00,168.19,2.896,4.086,3.051,4.086,2.359,0.500,0.090,0.000,-0.014
2026-05-11 15:58:10.310763,RETURNING,5.794,1.000,0.00,0.00,168.04,2.934,4.014,3.011,3.691,2.487,0.500,0.066,0.000,-0.007
2026-05-11 15:58:10.531700,RETURNING,5.696,1.000,0.00,0.00,167.94,2.934,3.814,2.972,3.467,2.434,0.500,0.061,0.000,-0.003
2026-05-11 15:58:10.718241,RETURNING,5.598,1.000,0.00,0.00,167.86,2.934,3.632,3.011,3.632,2.434,0.500,0.068,0.000,-0.007
2026-05-11 15:58:10.950243,RETURNING,5.501,1.000,0.00,0.00,167.79,2.934,3.178,3.051,3.415,2.460,0.500,0.057,0.000,-0.010
2026-05-11 15:58:11.151412,RETURNING,5.403,1.000,0.00,0.00,167.67,2.934,3.415,3.051,3.316,2.487,0.500,0.050,0.000,-0.010
2026-05-11 15:58:11.372692,RETURNING,5.305,1.000,0.00,0.00,167.55,2.934,3.365,3.051,3.316,2.460,0.500,0.052,0.000,-0.010
2026-05-11 15:58:11.565104,RETURNING,5.208,1.000,0.00,0.00,167.43,2.934,3.316,3.092,3.316,2.460,0.500,0.052,0.000,-0.014
2026-05-11 15:58:11.771520,RETURNING,5.110,1.000,0.00,0.00,167.24,2.896,3.365,3.092,3.223,2.434,0.500,0.050,0.000,-0.017
2026-05-11 15:58:11.980681,RETURNING,5.013,1.000,0.00,0.00,167.04,2.934,3.269,3.134,3.092,2.359,0.500,0.050,0.000,-0.017
2026-05-11 15:58:12.207159,RETURNING,4.915,1.000,0.00,0.00,166.81,2.972,3.223,3.092,3.092,2.434,0.500,0.044,0.000,-0.010
2026-05-11 15:58:12.392010,RETURNING,4.818,1.000,0.00,0.00,166.69,3.011,3.092,3.269,2.896,2.288,0.500,0.046,0.000,-0.021
2026-05-11 15:58:12.598004,RETURNING,4.721,1.000,0.00,0.00,166.44,2.860,2.972,3.178,2.724,2.080,0.500,0.057,0.000,-0.028
2026-05-11 15:58:12.809608,RETURNING,4.623,1.000,0.00,0.00,165.97,2.600,2.860,3.269,2.790,2.409,0.500,0.028,0.000,-0.063
2026-05-11 15:58:13.006772,RETURNING,4.527,1.000,0.00,0.00,165.37,2.692,2.825,3.223,2.724,2.630,0.500,0.007,0.000,-0.049
2026-05-11 15:58:13.221231,RETURNING,4.430,1.000,0.00,0.00,164.81,2.600,2.757,3.092,2.724,2.487,0.500,0.017,0.000,-0.049
2026-05-11 15:58:13.440241,RETURNING,4.334,1.000,0.00,0.00,164.26,2.600,2.600,3.011,2.600,2.487,0.500,0.009,0.000,-0.042
2026-05-11 15:58:13.637842,RETURNING,4.237,1.000,0.00,0.00,163.81,2.487,2.487,2.972,2.434,1.308,0.436,0.177,0.000,-0.052
2026-05-11 15:58:13.854673,RETURNING,4.148,1.000,0.00,0.00,163.25,0.605,2.384,2.896,2.359,2.384,0.500,-0.002,0.000,-0.600
2026-05-11 15:58:14.039354,RETURNING,4.052,1.000,0.00,0.00,159.76,2.243,2.311,2.692,2.311,2.311,0.500,0.000,0.000,-0.059
2026-05-11 15:58:14.262625,RETURNING,3.959,1.000,0.00,0.00,158.76,2.119,2.359,2.514,2.359,2.359,0.500,0.000,0.000,-0.059
2026-05-11 15:58:14.439876,RETURNING,3.866,1.000,0.00,0.00,158.14,2.119,2.359,2.514,2.359,2.359,0.500,0.000,0.000,-0.059
2026-05-11 15:58:14.661807,RETURNING,3.773,1.000,0.00,0.00,157.15,1.907,2.222,2.409,2.243,2.222,0.500,0.002,0.000,-0.087
2026-05-11 15:58:14.857778,RETURNING,3.686,1.000,0.00,0.00,153.51,1.733,0.317,2.099,10.000,2.460,0.106,0.153,0.000,-0.080
2026-05-11 15:58:15.087690,RETURNING,3.658,1.000,0.00,0.00,152.61,1.695,10.000,2.025,10.000,2.460,0.500,0.153,0.000,-0.077
2026-05-11 15:58:15.269668,RETURNING,3.569,1.000,0.00,0.00,151.71,1.589,10.000,1.973,10.000,0.946,0.315,0.400,0.000,-0.098
2026-05-11 15:58:15.496530,RETURNING,3.503,1.000,0.00,0.00,150.67,0.524,10.000,1.939,10.000,1.040,0.347,0.400,0.000,-0.600
2026-05-11 15:58:15.679127,RETURNING,3.432,1.000,0.00,0.00,146.35,0.568,0.568,1.708,3.092,1.167,0.189,0.267,0.000,-0.600
2026-05-11 15:58:15.920422,RETURNING,3.387,1.000,0.00,0.00,141.78,1.578,2.692,1.505,2.692,2.460,0.500,0.017,0.000,0.024
2026-05-11 15:58:16.101483,RETURNING,3.311,1.000,0.00,0.00,138.37,10.000,2.179,1.338,2.200,2.159,0.500,0.004,0.000,0.518
2026-05-11 15:58:16.320139,RETURNING,3.236,1.000,0.00,0.00,144.04,10.000,2.288,1.354,2.311,2.335,0.500,-0.002,0.000,0.511
2026-05-11 15:58:16.516342,RETURNING,3.172,1.000,0.00,0.00,149.89,10.000,0.568,1.658,2.600,2.119,0.189,0.044,0.000,0.402
2026-05-11 15:58:16.709873,RETURNING,3.108,1.000,0.00,0.00,155.01,1.362,10.000,1.760,10.000,0.978,0.326,0.400,0.000,-0.133
2026-05-11 15:58:16.956573,RETURNING,3.036,1.000,0.00,0.00,153.92,1.285,10.000,1.816,10.000,2.119,0.500,0.186,0.000,-0.182
2026-05-11 15:58:17.121566,RETURNING,2.947,1.000,0.00,0.00,151.76,1.237,10.000,0.507,10.000,2.119,0.500,0.186,0.000,0.600
2026-05-11 15:58:17.331110,RETURNING,2.859,1.000,0.00,0.00,155.48,10.000,10.000,1.733,10.000,2.061,0.500,0.193,0.000,0.382
2026-05-11 15:58:17.525794,RETURNING,2.767,1.000,0.00,0.00,157.82,10.000,10.000,1.845,10.000,1.923,0.500,0.210,0.000,0.354
2026-05-11 15:58:17.778051,RETURNING,2.675,1.000,0.00,0.00,159.36,10.000,10.000,1.939,10.000,2.384,0.500,0.160,0.000,0.333
2026-05-11 15:58:17.973012,RETURNING,2.556,1.000,0.00,0.00,164.26,0.912,10.000,10.000,10.000,0.234,0.078,0.400,0.000,-0.600
2026-05-11 15:58:18.161585,RETURNING,2.512,1.000,0.00,0.00,159.83,0.348,0.347,9.534,10.000,0.255,0.085,0.400,0.000,-0.600
2026-05-11 15:58:18.354745,RETURNING,2.471,1.000,0.00,0.00,152.95,0.317,10.000,1.733,10.000,2.790,0.500,0.129,0.000,-0.600
2026-05-11 15:58:18.584140,RETURNING,2.394,1.000,0.00,0.00,147.85,0.593,10.000,1.439,10.000,1.774,0.500,0.232,0.000,-0.600
2026-05-11 15:58:18.745748,RETURNING,2.344,1.000,0.00,0.00,147.47,10.000,0.568,0.568,10.000,1.682,0.189,0.247,0.000,0.600
2026-05-11 15:58:18.995420,RETURNING,2.294,1.000,0.00,0.00,149.53,10.000,10.000,1.421,10.000,1.760,0.500,0.234,0.000,0.483
2026-05-11 15:58:19.169668,RETURNING,2.208,1.000,0.00,0.00,155.31,10.000,10.000,1.578,10.000,3.178,0.500,0.107,0.000,0.427
2026-05-11 15:58:19.387243,RETURNING,2.117,1.000,0.00,0.00,158.78,10.000,10.000,10.000,10.000,2.934,0.500,0.120,0.000,0.000
2026-05-11 15:58:19.598327,RETURNING,2.024,1.000,0.00,0.00,160.64,10.000,10.000,0.242,10.000,0.269,0.090,0.400,0.000,0.600
2026-05-11 15:58:19.791548,RETURNING,1.982,1.000,0.00,0.00,159.60,0.265,0.395,10.000,10.000,2.542,0.132,0.147,0.000,-0.600
2026-05-11 15:58:19.992253,RETURNING,1.927,1.000,0.00,0.00,153.07,10.000,10.000,10.000,10.000,3.223,0.500,0.105,0.000,0.000
2026-05-11 15:58:20.233764,RETURNING,1.844,1.000,0.00,0.00,150.26,10.000,10.000,1.387,10.000,2.200,0.500,0.177,0.000,0.497
2026-05-11 15:58:20.438996,RETURNING,1.736,1.000,0.00,0.00,156.04,0.331,10.000,10.000,10.000,1.144,0.381,0.387,0.000,-0.600
2026-05-11 15:58:20.647782,RETURNING,1.695,1.000,0.00,0.00,153.63,0.490,0.489,10.000,10.000,2.409,0.163,0.158,0.000,-0.600
2026-05-11 15:58:20.849983,RETURNING,1.667,1.000,0.00,0.00,146.76,0.384,10.000,10.000,10.000,1.476,0.492,0.289,0.000,-0.600
2026-05-11 15:58:21.042834,RETURNING,1.611,1.000,0.00,0.00,139.91,10.000,10.000,1.133,10.000,2.542,0.500,0.147,0.000,0.600
2026-05-11 15:58:21.258691,RETURNING,1.538,1.000,0.00,0.00,140.82,10.000,10.000,1.050,10.000,2.487,0.500,0.151,0.000,0.600
2026-05-11 15:58:21.488040,RETURNING,1.476,1.000,0.00,0.00,144.89,10.000,10.000,0.946,10.000,2.311,0.500,0.166,0.000,0.600
2026-05-11 15:58:21.679647,RETURNING,1.392,1.000,0.00,0.00,151.77,10.000,10.000,10.000,10.000,1.939,0.500,0.208,0.000,0.000
2026-05-11 15:58:21.921631,RETURNING,1.303,1.000,0.00,0.00,152.11,10.000,10.000,10.000,10.000,2.359,0.500,0.162,0.000,0.000
2026-05-11 15:58:22.098899,RETURNING,1.239,1.000,0.00,0.00,149.36,10.000,10.000,10.000,10.000,2.200,0.500,0.177,0.000,0.000
2026-05-11 15:58:22.313572,RETURNING,1.175,1.000,0.00,0.00,149.36,10.000,10.000,10.000,10.000,1.816,0.500,0.225,0.000,0.000
2026-05-11 15:58:22.527245,RETURNING,1.068,1.000,0.00,0.00,149.36,10.000,0.384,10.000,10.000,2.288,0.128,0.169,0.000,0.000
2026-05-11 15:58:22.740584,RETURNING,1.012,1.000,0.00,0.00,145.92,0.646,10.000,10.000,10.000,1.788,0.500,0.230,0.000,-0.600
2026-05-11 15:58:22.913659,RETURNING,0.935,1.000,0.00,0.00,139.39,0.713,10.000,10.000,10.000,1.956,0.500,0.206,0.000,-0.600
2026-05-11 15:58:23.129179,RETURNING,0.863,1.000,0.00,0.00,132.86,10.000,10.000,10.000,10.000,10.000,0.500,0.000,0.000,0.000
2026-05-11 15:58:23.331527,RETURNING,0.796,1.000,0.00,0.00,132.89,0.832,0.835,0.789,10.000,10.000,0.278,0.000,0.000,0.052
2026-05-11 15:58:23.537888,RETURNING,0.758,1.000,0.00,0.00,133.46,0.546,10.000,10.000,10.000,10.000,0.500,0.000,0.000,-0.600
2026-05-11 15:58:23.767050,RETURNING,0.705,1.000,0.00,0.00,130.36,10.000,10.000,10.000,10.000,10.000,0.500,0.000,0.000,0.000
2026-05-11 15:58:23.966007,RETURNING,0.620,1.000,0.00,0.00,134.15,10.000,10.000,10.000,10.000,10.000,0.500,0.000,0.000,0.000
2026-05-11 15:58:24.177790,RETURNING,0.568,1.000,0.00,0.00,134.15,0.546,10.000,10.000,10.000,10.000,0.500,0.000,0.000,-0.600
2026-05-11 15:58:24.354404,RETURNING,0.499,1.000,0.00,0.00,131.40,0.546,10.000,10.000,10.000,10.000,0.500,0.000,0.000,-0.600
2026-05-11 15:58:24.576475,RETURNING,0.434,1.000,0.00,0.00,127.96,10.000,10.000,0.748,10.000,10.000,0.500,0.000,0.000,0.600
2026-05-11 15:58:24.785233,RETURNING,0.371,1.000,0.00,0.00,131.40,10.000,10.000,0.750,10.000,10.000,0.500,0.000,0.000,0.600
2026-05-11 15:58:24.986911,RETURNING,0.304,1.000,0.00,0.00,134.83,10.000,0.829,0.829,10.000,10.000,0.276,0.000,0.000,0.600
2026-05-11 15:58:25.267391,RETURNING,0.259,1.000,0.00,0.00,140.68,0.786,10.000,10.000,10.000,10.000,0.500,0.000,0.000,-0.600
2026-05-11 15:58:25.458342,RETURNING,0.228,1.000,0.00,0.00,141.02,10.000,10.000,10.000,10.000,10.000,0.500,0.000,0.000,0.000
2026-05-11 15:58:25.627819,RETURNING,0.117,1.000,0.00,0.00,136.98,0.781,0.786,10.000,10.000,10.000,0.262,0.000,0.000,-0.600
2026-05-11 15:58:25.759343,COMPLETED,0.078,1.000,0.00,0.00,134.58,0.526,10.000,10.000,10.000,10.000,0.000,0.000,0.000,0.000
2026-05-11 15:58:25.959076,COMPLETED,0.076,1.000,0.00,0.00,134.23,10.000,10.000,10.000,10.000,10.000,0.000,0.000,0.000,0.000
2026-05-11 15:58:26.194242,COMPLETED,0.076,1.000,0.00,0.00,134.23,10.000,10.000,10.000,10.000,10.000,0.000,0.000,0.000,0.000
2026-05-11 15:58:26.386625,COMPLETED,0.076,1.000,0.00,0.00,134.23,10.000,10.000,10.000,10.000,10.000,0.000,0.000,0.000,0.000
2026-05-11 15:58:26.586930,COMPLETED,0.076,1.000,0.00,0.00,134.23,10.000,10.000,10.000,10.000,10.000,0.000,0.000,0.000,0.000
2026-05-11 15:58:26.796358,COMPLETED,0.076,1.000,0.00,0.00,134.23,10.000,10.000,10.000,10.000,10.000,0.000,0.000,0.000,0.000
2026-05-11 15:58:26.993864,COMPLETED,0.076,1.000,0.00,0.00,134.23,10.000,10.000,10.000,10.000,10.000,0.000,0.000,0.000,0.000
2026-05-11 15:58:27.202402,COMPLETED,0.076,1.000,0.00,0.00,134.23,10.000,10.000,10.000,10.000,10.000,0.000,0.000,0.000,0.000
2026-05-11 15:58:27.409800,COMPLETED,0.076,1.000,0.00,0.00,134.23,10.000,10.000,10.000,10.000,10.000,0.000,0.000,0.000,0.000
2026-05-11 15:58:27.622050,COMPLETED,0.076,1.000,0.00,0.00,134.23,10.000,10.000,10.000,10.000,10.000,0.000,0.000,0.000,0.000
2026-05-11 15:58:27.933237,COMPLETED,0.076,1.000,0.00,0.00,134.23,10.000,10.000,10.000,10.000,10.000,0.000,0.000,0.000,0.000
