timestamp,state,x,y,z,roll_deg,pitch_deg,yaw_deg,dist_left,dist_center,dist_right,dist_top,dist_bottom,dtof_alert,collision_event,best_dir,max_space,cmd_vx,cmd_vz,cmd_yaw
22:34:17.528,SEARCHING,0.000,0.000,0.000,0.00,0.00,0.00,10.000,10.000,10.000,10.000,10.000,0,0,SEARCHING,0.000,0.526,0.000,0.000
22:34:18.897,SEARCHING,0.042,0.000,1.000,0.00,0.00,0.00,10.000,10.000,10.000,10.000,10.000,0,0,SEARCHING,0.000,0.734,0.000,0.000
22:34:19.099,SEARCHING,0.193,0.000,1.000,0.00,0.00,0.07,7.787,5.226,2.548,5.232,3.728,0,0,SEARCHING,0.000,0.784,0.028,0.078
22:34:19.299,SEARCHING,0.288,0.001,1.012,0.00,0.00,1.41,7.196,4.354,1.138,4.323,2.615,0,0,SEARCHING,0.000,0.796,0.125,0.368
22:34:19.500,SEARCHING,0.383,0.005,1.042,0.00,0.00,4.82,6.267,4.428,1.018,4.407,2.523,0,0,SEARCHING,0.000,0.799,0.180,0.587
22:34:19.701,SEARCHING,0.479,0.016,1.080,0.00,0.00,9.01,3.268,4.776,2.294,4.737,2.599,0,0,SEARCHING,0.000,0.800,0.200,0.458
22:34:19.901,SEARCHING,0.573,0.033,1.120,0.00,0.00,10.74,2.140,5.532,3.015,5.142,2.659,0,0,SEARCHING,0.000,0.800,0.210,0.073
22:34:20.101,SEARCHING,0.667,0.051,1.162,0.00,0.00,10.59,1.964,5.907,3.130,5.150,2.815,0,0,SEARCHING,0.000,0.800,0.204,-0.088
22:34:20.303,SEARCHING,0.762,0.068,1.202,0.00,0.00,9.77,3.067,5.574,3.067,5.012,2.955,0,0,SEARCHING,0.000,0.800,0.183,-0.092
22:34:20.503,SEARCHING,0.857,0.084,1.237,0.00,0.00,9.54,4.233,5.215,2.999,4.931,3.050,0,0,SEARCHING,0.000,0.800,0.163,0.023
22:34:20.704,SEARCHING,0.951,0.100,1.269,0.00,0.00,9.89,4.381,5.264,2.977,4.876,3.127,0,0,SEARCHING,0.000,0.800,0.147,0.069
22:34:20.904,SEARCHING,1.046,0.117,1.297,0.00,0.00,10.42,4.331,5.643,2.939,4.862,3.223,0,0,SEARCHING,0.000,0.800,0.133,0.083
22:34:21.104,SEARCHING,1.140,0.135,1.323,0.00,0.00,11.01,4.258,5.887,2.946,4.945,3.261,0,0,SEARCHING,0.000,0.800,0.127,0.085
22:34:21.305,SEARCHING,1.234,0.153,1.348,0.00,0.00,11.58,4.172,6.249,2.937,5.045,3.332,0,0,SEARCHING,0.000,0.800,0.125,0.082
22:34:21.506,SEARCHING,1.328,0.173,1.373,0.00,0.00,12.13,4.075,6.539,2.927,5.019,3.394,0,0,SEARCHING,0.000,0.800,0.120,0.079
22:34:21.706,SEARCHING,1.422,0.194,1.397,0.00,0.00,12.66,3.945,6.714,2.933,4.963,3.424,0,0,SEARCHING,0.000,0.800,0.115,0.074
22:34:21.907,SEARCHING,1.516,0.215,1.419,0.00,0.00,13.15,3.867,7.073,2.913,4.923,3.494,0,0,SEARCHING,0.000,0.800,0.105,0.070
22:34:22.107,SEARCHING,1.609,0.237,1.439,0.00,0.00,13.63,3.801,7.054,2.911,4.896,3.529,0,0,SEARCHING,0.000,0.800,0.098,0.068
22:34:22.308,SEARCHING,1.702,0.260,1.458,0.00,0.00,14.08,3.711,7.182,2.906,4.841,3.605,0,0,SEARCHING,0.000,0.800,0.091,0.063
22:34:22.509,SEARCHING,1.795,0.284,1.476,0.00,0.00,14.50,3.693,7.089,2.924,4.809,3.650,0,0,SEARCHING,0.000,0.800,0.084,0.059
22:34:22.709,SEARCHING,1.888,0.308,1.492,0.00,0.00,14.90,3.648,7.078,2.902,4.737,3.681,0,0,SEARCHING,0.000,0.800,0.078,0.057
22:34:22.909,SEARCHING,1.981,0.333,1.507,0.00,0.00,15.29,3.592,7.077,2.879,4.671,3.743,0,0,SEARCHING,0.000,0.800,0.069,0.056
22:34:23.110,SEARCHING,2.073,0.359,1.521,0.00,0.00,15.67,3.530,6.996,2.855,4.634,3.750,0,0,SEARCHING,0.000,0.800,0.063,0.055
22:34:23.311,SEARCHING,2.166,0.385,1.533,0.00,0.00,16.04,3.498,6.754,2.866,4.626,3.770,0,0,SEARCHING,0.000,0.800,0.061,0.052
22:34:23.511,SEARCHING,2.258,0.411,1.545,0.00,0.00,16.39,3.451,6.648,2.850,4.562,3.805,0,0,SEARCHING,0.000,0.800,0.056,0.050
22:34:23.712,SEARCHING,2.350,0.439,1.556,0.00,0.00,16.72,3.407,6.624,2.859,4.509,3.674,0,0,SEARCHING,0.000,0.800,0.057,0.048
22:34:23.913,SEARCHING,2.442,0.467,1.565,0.00,0.00,17.04,3.372,6.679,2.853,4.521,3.854,0,0,SEARCHING,0.000,0.800,0.020,0.045
22:34:24.113,SEARCHING,2.564,0.505,1.567,0.00,0.00,17.44,3.325,6.598,2.852,4.510,3.859,0,0,SEARCHING,0.000,0.800,0.005,0.042
22:34:24.313,SEARCHING,2.716,0.553,1.567,0.00,0.00,17.91,3.310,6.632,2.940,4.545,3.896,0,0,SEARCHING,0.000,0.800,0.001,0.036
22:34:24.514,SEARCHING,2.869,0.603,1.567,0.00,0.00,18.29,3.246,6.549,3.253,4.573,3.885,0,0,SEARCHING,0.000,0.800,0.000,0.018
22:34:24.714,SEARCHING,3.020,0.653,1.567,0.00,0.00,18.41,3.163,6.446,3.396,4.576,3.914,0,0,SEARCHING,0.000,0.800,0.000,-0.006
22:34:24.915,SEARCHING,3.172,0.704,1.567,0.00,0.00,18.30,3.164,6.261,3.441,4.576,3.912,0,0,SEARCHING,0.000,0.800,0.000,-0.017
22:34:25.116,SEARCHING,3.324,0.754,1.567,0.00,0.00,18.09,3.152,6.125,3.484,4.576,3.894,0,0,SEARCHING,0.000,0.800,0.000,-0.022
22:34:25.316,SEARCHING,3.476,0.803,1.567,0.00,0.00,17.83,3.162,6.019,3.513,4.576,3.871,0,0,SEARCHING,0.000,0.800,0.000,-0.024
22:34:25.516,SEARCHING,3.598,0.842,1.569,0.00,0.00,17.63,3.310,5.847,3.484,4.576,3.835,0,0,SEARCHING,0.000,0.800,0.036,-0.018
22:34:25.717,SEARCHING,3.690,0.871,1.575,0.00,0.00,17.52,3.348,5.714,3.498,4.570,3.920,0,0,SEARCHING,0.000,0.800,0.014,-0.013
22:34:25.918,SEARCHING,3.812,0.909,1.576,0.00,0.00,17.41,3.385,5.589,3.524,4.556,3.863,0,0,SEARCHING,0.000,0.800,0.003,-0.011
22:34:26.118,SEARCHING,3.965,0.957,1.576,0.00,0.00,17.29,3.384,5.433,3.474,4.541,3.901,0,0,SEARCHING,0.000,0.800,0.001,-0.008
22:34:26.319,SEARCHING,4.117,1.005,1.576,0.00,0.00,17.20,3.344,5.305,3.468,4.552,3.882,0,0,SEARCHING,0.000,0.800,0.000,-0.007
22:34:26.519,SEARCHING,4.270,1.052,1.576,0.00,0.00,17.12,3.324,5.162,3.406,4.515,3.938,0,0,SEARCHING,0.000,0.800,0.000,-0.007
22:34:26.719,SEARCHING,4.423,1.099,1.576,0.00,0.00,17.05,3.306,5.094,3.326,4.536,3.949,0,0,SEARCHING,0.000,0.800,0.000,-0.004
22:34:26.920,SEARCHING,4.576,1.146,1.576,0.00,0.00,17.01,3.280,4.996,3.286,4.572,3.916,0,0,SEARCHING,0.000,0.800,0.000,-0.002
22:34:27.120,SEARCHING,4.729,1.192,1.576,0.00,0.00,17.00,3.325,4.858,3.230,4.576,3.901,0,0,SEARCHING,0.000,0.800,0.000,0.002
22:34:27.321,SEARCHING,4.882,1.239,1.576,0.00,0.00,17.04,3.317,4.765,3.212,4.576,3.863,0,0,SEARCHING,0.000,0.800,0.000,0.007
22:34:27.523,SEARCHING,5.035,1.286,1.576,0.00,0.00,17.12,3.292,4.633,3.199,4.517,3.831,0,0,SEARCHING,0.000,0.800,0.000,0.007
22:34:27.722,SEARCHING,5.188,1.333,1.576,0.00,0.00,17.20,3.299,4.515,3.220,4.454,3.928,0,0,SEARCHING,0.000,0.800,0.000,0.007
22:34:27.922,SEARCHING,5.341,1.381,1.576,0.00,0.00,17.27,3.248,4.431,3.253,4.378,3.930,0,0,SEARCHING,0.000,0.800,0.000,0.003
22:34:28.123,SEARCHING,5.494,1.428,1.576,0.00,0.00,17.30,3.265,4.386,3.259,4.341,3.996,0,0,SEARCHING,0.000,0.800,0.000,0.002
22:34:28.324,SEARCHING,5.646,1.476,1.576,0.00,0.00,17.32,3.265,4.297,3.197,4.308,3.961,0,0,SEARCHING,0.000,0.800,0.000,0.002
22:34:28.525,SEARCHING,5.799,1.524,1.576,0.00,0.00,17.37,3.288,4.190,3.020,4.251,3.972,0,0,SEARCHING,0.000,0.800,0.000,0.013
22:34:28.726,SEARCHING,5.952,1.572,1.576,0.00,0.00,17.55,3.243,4.060,2.871,4.118,3.928,0,0,SEARCHING,0.000,0.800,0.000,0.024
22:34:28.926,SEARCHING,6.104,1.620,1.576,0.00,0.00,17.86,3.192,3.921,2.732,3.954,3.884,0,0,SEARCHING,0.000,0.800,0.000,0.035
22:34:29.127,SEARCHING,6.256,1.670,1.576,0.00,0.00,18.29,3.042,3.767,2.571,3.815,3.784,0,0,SEARCHING,0.000,0.800,0.000,0.043
22:34:29.327,SEARCHING,6.408,1.721,1.576,0.00,0.00,18.79,2.812,3.618,2.424,3.623,3.628,0,0,SEARCHING,0.000,0.800,0.000,0.045
22:34:29.528,SEARCHING,6.559,1.773,1.576,0.00,0.00,19.32,2.754,3.468,2.326,3.479,3.485,0,0,SEARCHING,0.000,0.800,0.000,0.050
22:34:29.729,SEARCHING,6.710,1.826,1.576,0.00,0.00,19.88,2.611,3.321,2.395,3.327,3.311,0,0,SEARCHING,0.000,0.800,0.000,0.041
22:34:29.929,SEARCHING,6.860,1.881,1.576,0.00,0.00,20.28,2.449,3.115,2.623,3.137,3.135,0,0,SEARCHING,0.000,0.800,0.000,0.009
22:34:30.129,SEARCHING,7.010,1.937,1.576,0.00,0.00,20.25,2.317,2.997,2.850,3.019,3.021,0,0,SEARCHING,0.000,0.800,0.000,-0.035
22:34:30.330,SEARCHING,7.161,1.992,1.576,0.00,0.00,19.71,2.137,2.929,3.029,2.954,2.950,0,0,SEARCHING,0.000,0.800,0.000,-0.080
22:34:30.531,SEARCHING,7.312,2.045,1.576,0.00,0.00,18.69,1.982,2.933,2.979,2.947,2.935,0,0,SEARCHING,0.000,0.800,0.000,-0.113
22:34:30.731,SEARCHING,7.464,2.094,1.576,0.00,0.00,17.30,1.808,3.016,2.847,3.022,3.018,0,0,SEARCHING,0.000,0.800,0.000,-0.143
22:34:30.932,SEARCHING,7.617,2.140,1.576,0.00,0.00,15.59,1.686,3.135,2.623,3.113,3.100,0,0,SEARCHING,0.000,0.800,0.000,-0.163
22:34:31.132,SEARCHING,7.772,2.181,1.576,0.00,0.00,13.73,1.680,3.472,2.436,3.235,3.229,0,0,SEARCHING,0.000,0.800,0.000,-0.158
22:34:31.333,SEARCHING,7.928,2.216,1.576,0.00,0.00,11.99,1.720,6.090,2.273,3.304,3.594,0,0,SEARCHING,0.000,0.800,0.000,-0.131
22:34:31.534,SEARCHING,8.053,2.242,1.574,0.00,0.00,10.86,1.758,6.745,2.173,3.191,3.895,0,0,SEARCHING,0.000,0.800,-0.041,-0.103
22:34:31.733,SEARCHING,8.148,2.260,1.564,0.00,0.00,10.22,1.796,6.765,2.131,3.074,3.888,0,0,SEARCHING,0.000,0.800,-0.067,-0.082
22:34:31.934,SEARCHING,8.242,2.276,1.549,0.00,0.00,9.70,1.805,6.568,2.091,2.958,3.821,0,0,SEARCHING,0.000,0.800,-0.084,-0.069
22:34:32.135,SEARCHING,8.337,2.292,1.531,0.00,0.00,9.26,1.810,6.478,2.058,2.875,3.799,0,0,SEARCHING,0.000,0.800,-0.095,-0.060
22:34:32.337,SEARCHING,8.432,2.307,1.512,0.00,0.00,8.89,1.841,6.346,2.039,2.794,3.760,0,0,SEARCHING,0.000,0.800,-0.104,-0.049
22:34:32.538,SEARCHING,8.527,2.322,1.490,0.00,0.00,8.58,1.846,6.217,2.042,2.728,3.721,0,0,SEARCHING,0.000,0.800,-0.112,-0.043
22:34:32.737,SEARCHING,8.621,2.336,1.467,0.00,0.00,8.29,1.849,6.093,2.021,2.657,3.679,0,0,SEARCHING,0.000,0.800,-0.119,-0.040
22:34:32.938,SEARCHING,8.717,2.350,1.443,0.00,0.00,8.03,1.874,5.921,1.972,2.635,3.602,0,0,SEARCHING,0.000,0.800,-0.122,-0.032
22:34:33.139,SEARCHING,8.812,2.363,1.419,0.00,0.00,7.84,1.846,5.752,1.935,2.650,3.549,0,0,SEARCHING,0.000,0.800,-0.118,-0.023
22:34:33.339,SEARCHING,8.907,2.376,1.396,0.00,0.00,7.69,1.855,5.553,1.917,2.765,3.450,0,0,SEARCHING,0.000,0.800,-0.104,-0.020
22:34:33.539,SEARCHING,9.002,2.389,1.380,0.00,0.00,7.59,1.832,5.492,3.380,4.356,3.427,0,0,SEARCHING,0.000,0.800,-0.011,-0.068
22:34:33.741,SEARCHING,9.097,2.401,1.384,0.00,0.00,6.63,1.851,5.493,3.350,4.874,3.427,0,0,SEARCHING,0.000,0.800,0.070,-0.178
22:34:33.941,SEARCHING,9.193,2.411,1.401,0.00,0.00,5.57,4.372,5.547,4.006,5.029,3.454,0,0,SEARCHING,0.000,0.800,0.099,-0.082
22:34:34.142,SEARCHING,9.288,2.420,1.422,0.00,0.00,5.38,5.031,5.588,4.031,4.981,3.500,0,0,SEARCHING,0.000,0.800,0.104,0.008
22:34:34.342,SEARCHING,9.384,2.429,1.442,0.00,0.00,5.53,4.995,5.438,4.080,4.943,3.540,0,0,SEARCHING,0.000,0.800,0.099,0.030
22:34:34.542,SEARCHING,9.479,2.439,1.462,0.00,0.00,5.76,4.897,5.397,4.029,4.811,3.606,0,0,SEARCHING,0.000,0.800,0.091,0.035
22:34:34.744,SEARCHING,9.575,2.448,1.479,0.00,0.00,6.00,4.833,5.402,3.935,4.805,3.678,0,0,SEARCHING,0.000,0.800,0.082,0.037
22:34:34.943,SEARCHING,9.670,2.459,1.495,0.00,0.00,6.26,4.768,5.385,3.888,4.771,3.726,0,0,SEARCHING,0.000,0.800,0.075,0.037
22:34:35.145,SEARCHING,9.766,2.469,1.510,0.00,0.00,6.53,4.662,5.275,3.790,4.773,3.592,0,0,SEARCHING,0.000,0.800,0.077,0.040
22:34:35.345,SEARCHING,9.861,2.480,1.526,0.00,0.00,6.80,4.668,5.241,3.771,4.704,3.523,0,0,SEARCHING,0.000,0.800,0.084,0.040
22:34:35.545,SEARCHING,9.956,2.492,1.543,0.00,0.00,7.07,4.299,5.188,3.823,4.625,3.301,0,0,SEARCHING,0.000,0.800,0.093,0.034
22:34:35.746,SEARCHING,10.051,2.504,1.563,0.00,0.00,7.27,4.304,5.055,3.641,4.601,3.187,0,0,SEARCHING,0.000,0.800,0.108,0.029
22:34:35.947,SEARCHING,10.147,2.516,1.585,0.00,0.00,7.46,4.134,5.068,3.836,4.579,3.042,0,0,SEARCHING,0.000,0.800,0.122,0.021
22:34:36.148,SEARCHING,10.242,2.529,1.610,0.00,0.00,7.59,4.294,5.002,3.873,4.511,2.973,0,0,SEARCHING,0.000,0.800,0.134,0.019
22:34:36.347,SEARCHING,10.337,2.542,1.638,0.00,0.00,7.72,4.052,4.946,3.878,4.489,2.823,0,0,SEARCHING,0.000,0.800,0.152,0.016
22:34:36.548,SEARCHING,10.432,2.555,1.670,0.00,0.00,7.80,4.058,4.934,3.929,4.390,2.815,0,0,SEARCHING,0.000,0.800,0.157,0.009
22:34:36.750,SEARCHING,10.527,2.568,1.701,0.00,0.00,7.86,4.030,4.876,3.947,4.309,2.832,0,0,SEARCHING,0.000,0.800,0.149,0.007
22:34:36.949,SEARCHING,10.622,2.581,1.730,0.00,0.00,7.89,3.950,4.780,3.981,4.256,2.793,0,0,SEARCHING,0.000,0.800,0.147,0.003
22:34:37.150,SEARCHING,10.717,2.594,1.760,0.00,0.00,7.89,3.819,4.695,3.949,4.187,2.714,0,0,SEARCHING,0.000,0.800,0.151,-0.003
22:34:37.351,SEARCHING,10.813,2.607,1.790,0.00,0.00,7.85,3.754,4.703,3.946,4.124,2.682,0,0,SEARCHING,0.000,0.800,0.155,-0.008
22:34:39.075,SEARCHING,10.908,2.620,1.821,0.00,0.00,7.79,3.651,4.648,3.955,4.005,2.678,0,0,SEARCHING,0.000,0.800,0.153,-0.013
22:34:39.276,SEARCHING,11.003,2.633,1.851,0.00,0.00,7.68,3.591,4.598,3.870,3.922,2.680,0,0,SEARCHING,0.000,0.800,0.146,-0.016
22:34:39.476,SEARCHING,11.098,2.646,1.880,0.00,0.00,7.57,3.552,4.579,3.747,3.817,2.736,0,0,SEARCHING,0.000,0.800,0.134,-0.015
22:34:39.677,SEARCHING,11.193,2.658,1.905,0.00,0.00,7.46,3.501,4.537,3.649,3.771,2.812,0,0,SEARCHING,0.000,0.800,0.118,-0.015
22:34:39.878,SEARCHING,11.288,2.671,1.928,0.00,0.00,7.38,3.475,4.436,3.617,3.710,2.878,0,0,SEARCHING,0.000,0.800,0.104,-0.011
22:34:40.079,SEARCHING,11.383,2.683,1.948,0.00,0.00,7.31,3.447,4.405,3.601,3.675,2.927,0,0,SEARCHING,0.000,0.800,0.091,-0.009
22:34:40.278,SEARCHING,11.479,2.695,1.965,0.00,0.00,7.26,3.454,4.334,3.420,3.620,2.939,0,0,SEARCHING,0.000,0.800,0.081,-0.004
22:34:40.478,SEARCHING,11.574,2.707,1.981,0.00,0.00,7.25,3.437,4.263,3.438,3.583,3.031,0,0,SEARCHING,0.000,0.800,0.070,-0.001
22:34:40.679,SEARCHING,11.669,2.720,1.994,0.00,0.00,7.26,3.524,4.240,3.347,3.560,3.076,0,0,SEARCHING,0.000,0.800,0.060,0.006
22:34:40.880,SEARCHING,11.764,2.732,2.004,0.00,0.00,7.32,3.601,4.220,3.313,3.511,3.102,0,0,SEARCHING,0.000,0.800,0.020,0.013
22:34:41.081,SEARCHING,11.891,2.748,2.005,0.00,0.00,7.46,3.628,4.151,3.205,3.493,3.083,0,0,SEARCHING,0.000,0.800,0.005,0.021
22:34:41.283,SEARCHING,12.050,2.769,2.005,0.00,0.00,7.73,3.692,4.068,3.133,3.495,3.141,0,0,SEARCHING,0.000,0.800,0.001,0.031
22:34:41.482,SEARCHING,12.208,2.791,2.005,0.00,0.00,8.13,3.735,4.057,2.939,3.497,3.282,0,0,SEARCHING,0.000,0.800,0.000,0.046
22:34:41.683,SEARCHING,12.367,2.814,2.005,0.00,0.00,8.70,3.718,4.109,2.800,3.515,3.762,0,0,SEARCHING,0.000,0.800,0.000,0.062
22:34:41.882,SEARCHING,12.525,2.840,2.005,0.00,0.00,9.44,3.593,4.133,2.648,3.508,3.958,0,0,SEARCHING,0.000,0.800,0.000,0.072
22:34:42.084,SEARCHING,12.682,2.867,2.005,0.00,0.00,10.31,3.485,4.131,2.469,3.508,4.049,0,0,SEARCHING,0.000,0.800,0.000,0.085
22:34:42.284,SEARCHING,12.840,2.897,2.005,0.00,0.00,11.33,3.404,4.153,2.314,3.504,4.049,0,0,SEARCHING,0.000,0.800,0.000,0.101
22:34:42.485,SEARCHING,12.996,2.930,2.005,0.00,0.00,12.53,3.284,4.120,2.174,3.478,4.069,0,0,SEARCHING,0.000,0.800,-0.015,0.116
22:34:42.686,SEARCHING,13.090,2.951,2.000,0.00,0.00,13.34,3.182,4.163,2.187,3.509,4.140,0,0,SEARCHING,0.000,0.800,-0.043,0.117
22:34:42.885,SEARCHING,13.183,2.974,1.990,0.00,0.00,14.13,3.090,4.234,2.190,3.516,4.158,0,0,SEARCHING,0.000,0.800,-0.050,0.112
22:34:43.086,SEARCHING,13.276,2.998,1.980,0.00,0.00,14.86,2.977,4.278,2.233,3.555,4.216,0,0,SEARCHING,0.000,0.800,-0.052,0.100
22:34:43.287,SEARCHING,13.369,3.023,1.969,0.00,0.00,15.50,2.906,4.265,2.282,3.558,4.276,0,0,SEARCHING,0.000,0.800,-0.054,0.084
22:34:43.487,SEARCHING,13.461,3.049,1.959,0.00,0.00,16.04,2.842,4.318,2.290,3.617,4.280,0,0,SEARCHING,0.000,0.800,-0.054,0.075
22:34:43.688,SEARCHING,13.553,3.075,1.948,0.00,0.00,16.53,2.810,4.385,2.361,3.643,4.286,0,0,SEARCHING,0.000,0.800,-0.036,0.065
22:34:43.888,SEARCHING,13.645,3.103,1.943,0.00,0.00,16.93,2.764,4.441,2.377,3.685,4.285,0,0,SEARCHING,0.000,0.800,-0.009,0.053
22:34:44.089,SEARCHING,13.798,3.150,1.943,0.00,0.00,17.52,2.750,4.442,2.432,3.690,4.304,0,0,SEARCHING,0.000,0.800,-0.002,0.044
22:34:44.289,SEARCHING,13.950,3.199,1.943,0.00,0.00,18.00,2.701,4.477,2.461,3.691,4.316,0,0,SEARCHING,0.000,0.800,-0.000,0.035
22:34:44.489,SEARCHING,14.102,3.249,1.943,0.00,0.00,18.37,2.584,4.651,2.462,3.646,4.283,0,0,SEARCHING,0.000,0.800,-0.000,0.024
22:34:44.690,SEARCHING,14.254,3.300,1.943,0.00,0.00,18.62,2.546,5.017,2.420,3.654,4.243,0,0,SEARCHING,0.000,0.800,-0.000,0.018
22:34:44.891,SEARCHING,14.406,3.351,1.943,0.00,0.00,19.07,7.411,5.545,2.361,3.635,4.227,0,0,SEARCHING,0.000,0.800,-0.000,0.132
22:34:45.092,SEARCHING,14.526,3.394,1.942,0.00,0.00,20.54,9.648,6.505,2.353,3.645,4.392,0,0,SEARCHING,0.000,0.800,-0.035,0.222
22:34:45.292,SEARCHING,14.616,3.429,1.933,0.00,0.00,22.05,3.249,7.059,2.369,3.634,4.544,0,0,SEARCHING,0.000,0.800,-0.056,0.171
22:34:45.492,SEARCHING,14.704,3.466,1.921,0.00,0.00,23.00,5.587,7.209,2.438,3.662,4.572,0,0,SEARCHING,0.000,0.800,-0.064,0.147
22:34:45.693,SEARCHING,14.793,3.504,1.908,0.00,0.00,24.04,2.716,7.361,2.461,3.673,4.551,0,0,SEARCHING,0.000,0.800,-0.064,0.109
22:34:45.893,SEARCHING,14.880,3.543,1.895,0.00,0.00,24.43,2.121,7.404,2.479,3.713,4.507,0,0,SEARCHING,0.000,0.800,-0.060,0.002
22:34:46.094,SEARCHING,14.967,3.583,1.884,0.00,0.00,24.60,4.961,7.384,2.491,3.802,4.489,0,0,SEARCHING,0.000,0.800,-0.038,0.093
22:34:46.294,SEARCHING,15.055,3.623,1.879,0.00,0.00,25.35,3.056,7.455,2.496,3.799,4.465,0,0,SEARCHING,0.000,0.800,-0.009,0.092
22:34:46.495,SEARCHING,15.199,3.693,1.879,0.00,0.00,26.25,2.730,7.569,2.551,3.817,4.446,0,0,SEARCHING,0.000,0.800,-0.002,0.045
22:34:46.696,SEARCHING,15.342,3.764,1.879,0.00,0.00,26.82,6.197,7.487,2.567,3.770,4.447,0,0,SEARCHING,0.000,0.800,-0.001,0.099
22:34:46.896,SEARCHING,15.484,3.838,1.879,0.00,0.00,28.23,6.775,8.169,2.615,3.808,4.463,0,0,SEARCHING,0.000,0.800,-0.000,0.170
22:34:47.097,SEARCHING,15.624,3.916,1.879,0.00,0.00,30.24,3.948,8.997,3.777,3.787,4.552,0,0,SEARCHING,0.000,0.800,-0.016,0.131
22:34:47.298,SEARCHING,15.706,3.964,1.874,0.00,0.00,30.54,2.589,9.388,4.846,3.764,4.572,0,0,SEARCHING,0.000,0.800,-0.045,-0.048
22:34:47.498,SEARCHING,15.789,4.013,1.864,0.00,0.00,30.03,5.832,9.391,4.989,3.817,4.517,0,0,SEARCHING,0.000,0.800,-0.035,-0.040
22:34:47.699,SEARCHING,15.872,4.061,1.859,0.00,0.00,29.99,6.901,9.328,4.960,3.871,4.503,0,0,SEARCHING,0.000,0.800,-0.008,0.020
22:34:47.899,SEARCHING,16.011,4.141,1.859,0.00,0.00,30.29,7.051,9.219,4.973,3.851,4.489,0,0,SEARCHING,0.000,0.800,-0.002,0.040
22:34:48.099,SEARCHING,16.149,4.222,1.859,0.00,0.00,30.78,6.974,9.322,4.969,3.848,4.456,0,0,SEARCHING,0.000,0.800,-0.000,0.046
22:34:48.301,SEARCHING,16.286,4.305,1.859,0.00,0.00,31.30,6.939,9.371,4.936,3.849,4.382,0,0,SEARCHING,0.000,0.800,-0.000,0.046
22:34:48.500,SEARCHING,16.422,4.388,1.859,0.00,0.00,31.83,6.765,9.416,4.830,3.837,4.215,0,0,SEARCHING,0.000,0.800,-0.000,0.046
22:34:48.701,SEARCHING,16.558,4.473,1.859,0.00,0.00,32.37,6.636,9.692,4.785,3.887,4.074,0,0,SEARCHING,0.000,0.800,-0.000,0.047
22:34:48.902,SEARCHING,16.693,4.560,1.859,0.00,0.00,32.90,6.549,9.764,4.790,3.815,3.906,0,0,SEARCHING,0.000,0.800,-0.000,0.046
22:34:49.102,SEARCHING,16.827,4.647,1.859,0.00,0.00,33.42,6.401,9.927,4.770,3.831,3.718,0,0,SEARCHING,0.000,0.800,-0.000,0.044
22:34:49.303,SEARCHING,16.960,4.736,1.859,0.00,0.00,33.92,6.146,9.954,4.767,3.879,3.613,0,0,SEARCHING,0.000,0.800,-0.000,0.041
22:34:49.505,SEARCHING,17.092,4.825,1.859,0.00,0.00,34.38,6.220,9.965,4.767,3.878,3.507,0,0,SEARCHING,0.000,0.800,-0.000,0.039
22:34:49.703,SEARCHING,17.224,4.916,1.859,0.00,0.00,34.82,6.026,9.985,4.851,3.851,3.370,0,0,SEARCHING,0.000,0.800,-0.000,0.035
22:34:49.904,SEARCHING,17.355,5.008,1.859,0.00,0.00,35.22,5.967,9.998,4.777,3.833,3.306,0,0,SEARCHING,0.000,0.800,-0.000,0.034
22:34:50.105,SEARCHING,17.459,5.082,1.862,0.00,0.00,35.53,5.779,10.000,4.779,3.844,3.230,0,0,SEARCHING,0.000,0.800,0.039,0.031
22:34:50.305,SEARCHING,17.537,5.138,1.871,0.00,0.00,35.74,5.740,10.000,4.781,3.824,3.160,0,0,SEARCHING,0.000,0.800,0.056,0.029
22:34:50.506,SEARCHING,17.615,5.194,1.883,0.00,0.00,35.93,5.699,10.000,4.843,3.818,3.134,0,0,SEARCHING,0.000,0.800,0.065,0.028
22:34:50.706,SEARCHING,17.693,5.251,1.896,0.00,0.00,36.11,5.626,10.000,4.844,3.759,3.107,0,0,SEARCHING,0.000,0.800,0.067,0.025
22:34:50.907,SEARCHING,17.770,5.307,1.909,0.00,0.00,36.28,5.667,10.000,4.866,3.746,3.073,0,0,SEARCHING,0.000,0.800,0.067,0.024
22:34:51.108,SEARCHING,17.848,5.364,1.923,0.00,0.00,36.44,5.601,10.000,4.868,3.694,3.065,0,0,SEARCHING,0.000,0.800,0.067,0.023
22:34:51.311,SEARCHING,17.925,5.421,1.934,0.00,0.00,36.59,5.549,10.000,4.938,3.642,3.822,0,0,SEARCHING,0.000,0.800,0.023,0.020
22:34:51.510,SEARCHING,18.002,5.479,1.937,0.00,0.00,36.72,5.489,10.000,4.970,3.609,4.388,0,0,SEARCHING,0.000,0.800,-0.012,0.017
22:34:51.711,SEARCHING,18.079,5.536,1.931,0.00,0.00,36.82,5.444,10.000,5.083,3.638,4.628,0,0,SEARCHING,0.000,0.800,-0.053,0.013
22:34:51.911,SEARCHING,18.156,5.594,1.919,0.00,0.00,36.90,5.364,10.000,5.187,3.622,4.687,0,0,SEARCHING,0.000,0.800,-0.071,0.009
22:34:52.112,SEARCHING,18.232,5.651,1.904,0.00,0.00,36.95,5.381,10.000,5.235,3.701,4.672,0,0,SEARCHING,0.000,0.800,-0.070,0.006
22:34:52.312,SEARCHING,18.309,5.709,1.890,0.00,0.00,36.98,5.300,10.000,5.204,3.729,4.609,0,0,SEARCHING,0.000,0.800,-0.065,0.004
22:34:52.512,SEARCHING,18.386,5.767,1.878,0.00,0.00,37.00,5.355,10.000,5.201,3.753,4.609,0,0,SEARCHING,0.000,0.800,-0.061,0.004
22:34:52.714,SEARCHING,18.462,5.825,1.866,0.00,0.00,37.03,5.365,10.000,5.280,3.810,4.590,0,0,SEARCHING,0.000,0.800,-0.057,0.004
22:34:52.914,SEARCHING,18.539,5.882,1.855,0.00,0.00,37.05,5.312,10.000,5.240,3.784,4.513,0,0,SEARCHING,0.000,0.800,-0.053,0.003
22:34:53.114,SEARCHING,18.616,5.940,1.846,0.00,0.00,37.06,5.280,10.000,5.211,3.844,4.530,0,0,SEARCHING,0.000,0.800,-0.018,0.002
22:34:53.315,SEARCHING,18.718,6.017,1.845,0.00,0.00,37.08,5.258,9.989,5.262,3.869,4.492,0,0,SEARCHING,0.000,0.800,-0.004,0.001
22:34:53.515,SEARCHING,18.845,6.114,1.845,0.00,0.00,37.09,5.268,9.999,5.352,3.880,4.475,0,0,SEARCHING,0.000,0.800,-0.001,-0.001
22:34:53.716,SEARCHING,18.973,6.210,1.845,0.00,0.00,37.07,5.251,9.987,5.358,3.847,4.517,0,0,SEARCHING,0.000,0.800,-0.000,-0.002
22:34:53.917,SEARCHING,19.101,6.307,1.845,0.00,0.00,37.04,5.238,9.913,5.296,3.886,4.524,0,0,SEARCHING,0.000,0.800,-0.000,-0.003
22:34:54.117,SEARCHING,19.228,6.403,1.845,0.00,0.00,37.02,5.205,9.944,5.243,3.876,4.491,0,0,SEARCHING,0.000,0.800,-0.000,-0.002
22:34:54.317,SEARCHING,19.356,6.500,1.845,0.00,0.00,37.01,5.275,9.861,5.208,3.878,4.494,0,0,SEARCHING,0.000,0.800,-0.000,0.000
22:34:54.518,SEARCHING,19.484,6.596,1.845,0.00,0.00,37.02,5.309,9.626,5.107,3.889,4.474,0,0,SEARCHING,0.000,0.800,-0.000,0.003
22:34:54.717,SEARCHING,19.612,6.692,1.845,0.00,0.00,37.07,5.561,9.545,5.064,3.891,4.544,0,0,SEARCHING,0.000,0.800,-0.000,0.009
22:34:54.920,SEARCHING,19.739,6.789,1.845,0.00,0.00,37.20,5.733,9.199,4.929,3.897,4.573,0,0,SEARCHING,0.000,0.800,-0.000,0.018
22:34:55.120,SEARCHING,19.867,6.886,1.845,0.00,0.00,37.41,5.608,8.961,4.914,3.891,4.576,0,0,SEARCHING,0.000,0.800,-0.000,0.020
22:34:55.319,SEARCHING,19.994,6.983,1.845,0.00,0.00,37.64,5.720,8.873,4.921,3.895,4.576,0,0,SEARCHING,0.000,0.800,-0.000,0.022
22:34:55.520,SEARCHING,20.120,7.081,1.845,0.00,0.00,37.90,5.606,8.809,4.897,3.890,4.624,0,0,SEARCHING,0.000,0.800,-0.000,0.022
22:34:55.721,SEARCHING,20.246,7.180,1.845,0.00,0.00,38.15,5.606,8.531,4.878,3.889,4.582,0,0,SEARCHING,0.000,0.800,-0.000,0.021
22:34:55.921,SEARCHING,20.372,7.279,1.845,0.00,0.00,38.39,5.526,8.481,4.877,3.874,4.577,0,0,SEARCHING,0.000,0.800,-0.000,0.021
22:34:56.122,SEARCHING,20.497,7.378,1.845,0.00,0.00,38.63,5.335,8.245,4.892,3.912,4.521,0,0,SEARCHING,0.000,0.800,-0.000,0.018
22:34:56.323,SEARCHING,20.622,7.478,1.845,0.00,0.00,38.82,5.263,8.181,4.916,3.891,4.536,0,0,SEARCHING,0.000,0.800,-0.000,0.013
22:34:56.523,SEARCHING,20.746,7.579,1.845,0.00,0.00,38.95,5.178,7.959,4.913,3.909,4.585,0,0,SEARCHING,0.000,0.800,-0.000,0.010
22:34:56.724,SEARCHING,20.871,7.680,1.845,0.00,0.00,39.06,5.081,7.898,4.885,3.877,4.597,0,0,SEARCHING,0.000,0.800,-0.000,0.008
22:34:56.925,SEARCHING,20.995,7.780,1.845,0.00,0.00,39.15,4.995,7.691,4.912,3.878,4.560,0,0,SEARCHING,0.000,0.800,-0.000,0.006
22:34:57.125,SEARCHING,21.119,7.881,1.845,0.00,0.00,39.20,4.929,7.635,4.954,3.878,4.574,0,0,SEARCHING,0.000,0.800,-0.000,0.001
22:34:57.326,SEARCHING,21.243,7.983,1.845,0.00,0.00,39.20,4.845,7.466,5.070,3.865,4.552,0,0,SEARCHING,0.000,0.800,-0.000,-0.003
22:34:57.526,SEARCHING,21.367,8.084,1.845,0.00,0.00,39.13,4.837,7.391,5.878,3.851,4.540,0,0,SEARCHING,0.000,0.800,-0.000,-0.018
22:34:57.727,SEARCHING,21.491,8.184,1.845,0.00,0.00,38.83,4.775,7.231,8.249,3.885,4.568,0,0,SEARCHING,0.000,0.800,-0.000,-0.051
22:34:57.927,SEARCHING,21.616,8.284,1.845,0.00,0.00,38.19,4.789,7.335,8.241,3.883,4.571,0,0,SEARCHING,0.000,0.800,-0.000,-0.066
22:34:58.127,SEARCHING,21.743,8.382,1.845,0.00,0.00,37.43,4.826,7.348,8.195,3.904,4.556,0,0,SEARCHING,0.000,0.800,-0.000,-0.068
22:34:58.328,SEARCHING,21.870,8.479,1.845,0.00,0.00,36.65,4.858,7.503,7.997,3.884,4.524,0,0,SEARCHING,0.000,0.800,-0.000,-0.066
22:34:58.530,SEARCHING,21.999,8.574,1.845,0.00,0.00,35.90,4.894,7.600,7.917,3.891,4.566,0,0,SEARCHING,0.000,0.800,-0.000,-0.064
22:34:58.730,SEARCHING,22.129,8.667,1.845,0.00,0.00,35.17,4.922,7.606,7.786,3.883,4.603,0,0,SEARCHING,0.000,0.800,-0.000,-0.061
22:34:58.931,SEARCHING,22.261,8.758,1.845,0.00,0.00,34.48,4.978,7.661,7.654,3.879,4.588,0,0,SEARCHING,0.000,0.800,-0.000,-0.058
22:34:59.131,SEARCHING,22.393,8.848,1.845,0.00,0.00,33.82,5.032,7.813,7.538,3.869,4.625,0,0,SEARCHING,0.000,0.800,-0.015,-0.055
22:34:59.332,SEARCHING,22.473,8.901,1.839,0.00,0.00,33.45,4.966,7.796,7.400,3.881,4.645,0,0,SEARCHING,0.000,0.800,-0.042,-0.053
22:34:59.532,SEARCHING,22.553,8.954,1.832,0.00,0.00,33.08,4.861,7.800,7.409,3.903,4.589,0,0,SEARCHING,0.000,0.800,-0.015,-0.055
22:34:59.733,SEARCHING,22.661,9.023,1.831,0.00,0.00,32.57,4.837,7.707,7.302,3.952,4.578,0,0,SEARCHING,0.000,0.800,-0.004,-0.056
22:34:59.934,SEARCHING,22.796,9.109,1.831,0.00,0.00,31.93,4.755,7.637,7.249,3.977,4.577,0,0,SEARCHING,0.000,0.800,-0.001,-0.057
22:35:00.134,SEARCHING,22.932,9.193,1.831,0.00,0.00,31.28,4.751,7.411,7.231,3.930,4.576,0,0,SEARCHING,0.000,0.800,-0.000,-0.057
22:35:00.334,SEARCHING,23.069,9.275,1.831,0.00,0.00,30.62,4.701,7.150,7.039,3.955,4.549,0,0,SEARCHING,0.000,0.800,-0.000,-0.057
22:35:00.536,SEARCHING,23.207,9.356,1.831,0.00,0.00,29.98,4.745,6.982,6.946,3.946,4.560,0,0,SEARCHING,0.000,0.800,-0.000,-0.055
22:35:00.735,SEARCHING,23.346,9.435,1.831,0.00,0.00,29.35,4.686,6.857,6.874,3.945,4.565,0,0,SEARCHING,0.000,0.800,-0.000,-0.054
22:35:00.937,SEARCHING,23.486,9.513,1.831,0.00,0.00,28.73,4.721,6.687,6.808,3.884,4.555,0,0,SEARCHING,0.000,0.800,-0.000,-0.053
22:35:01.136,SEARCHING,23.627,9.589,1.831,0.00,0.00,28.13,4.676,6.569,6.593,3.908,4.534,0,0,SEARCHING,0.000,0.800,-0.000,-0.051
22:35:01.337,SEARCHING,23.768,9.664,1.831,0.00,0.00,27.55,4.651,6.430,6.544,3.892,4.524,0,0,SEARCHING,0.000,0.800,-0.000,-0.050
22:35:01.537,SEARCHING,23.911,9.737,1.831,0.00,0.00,26.98,4.668,6.414,6.427,3.893,4.534,0,0,SEARCHING,0.000,0.800,-0.000,-0.048
22:35:01.738,SEARCHING,24.053,9.809,1.831,0.00,0.00,26.43,4.733,6.238,6.364,3.914,4.511,0,0,SEARCHING,0.000,0.800,-0.000,-0.046
22:35:01.939,SEARCHING,24.197,9.880,1.831,0.00,0.00,25.92,4.830,6.099,6.205,3.891,4.494,0,0,SEARCHING,0.000,0.800,-0.000,-0.041
22:35:02.140,SEARCHING,24.341,9.949,1.831,0.00,0.00,25.46,4.851,6.001,6.112,3.896,4.487,0,0,SEARCHING,0.000,0.800,-0.000,-0.037
22:35:02.340,SEARCHING,24.486,10.018,1.831,0.00,0.00,25.06,4.987,5.692,6.032,3.943,4.481,0,0,SEARCHING,0.000,0.800,-0.000,-0.031
22:35:02.541,SEARCHING,24.631,10.085,1.831,0.00,0.00,24.72,4.976,5.554,5.873,3.926,4.486,0,0,SEARCHING,0.000,0.800,-0.000,-0.027
22:35:02.741,SEARCHING,24.776,10.152,1.831,0.00,0.00,24.42,4.974,5.470,5.853,3.928,4.487,0,0,SEARCHING,0.000,0.800,-0.000,-0.025
22:35:02.942,SEARCHING,24.922,10.217,1.831,0.00,0.00,24.14,4.974,5.415,5.686,3.873,4.503,0,0,SEARCHING,0.000,0.800,-0.000,-0.022
22:35:03.142,SEARCHING,25.068,10.282,1.831,0.00,0.00,23.89,4.920,5.351,5.563,3.845,4.476,0,0,SEARCHING,0.000,0.800,-0.000,-0.020
22:35:03.343,SEARCHING,25.215,10.347,1.831,0.00,0.00,23.67,4.947,5.251,5.506,3.930,4.487,0,0,SEARCHING,0.000,0.800,-0.000,-0.018
22:35:03.545,SEARCHING,25.362,10.411,1.831,0.00,0.00,23.47,4.991,5.455,5.436,3.910,4.506,0,0,SEARCHING,0.000,0.800,-0.000,-0.015
22:35:03.744,SEARCHING,25.508,10.475,1.831,0.00,0.00,23.31,4.977,7.558,5.392,3.915,4.503,0,0,SEARCHING,0.000,0.800,-0.000,-0.013
22:35:03.945,SEARCHING,25.655,10.538,1.831,0.00,0.00,23.16,4.939,8.548,5.327,3.938,4.470,0,0,SEARCHING,0.000,0.800,-0.000,-0.012
22:35:04.146,SEARCHING,25.803,10.600,1.831,0.00,0.00,23.03,4.949,9.199,5.303,3.824,4.499,0,0,SEARCHING,0.000,0.800,-0.000,-0.011
22:35:04.346,SEARCHING,25.920,10.650,1.829,0.00,0.00,22.93,4.943,9.253,5.213,3.692,4.515,0,0,SEARCHING,0.000,0.800,-0.037,-0.010
22:35:04.546,SEARCHING,26.009,10.688,1.820,0.00,0.00,22.87,4.989,9.415,5.283,3.596,4.490,0,0,SEARCHING,0.000,0.800,-0.057,-0.010
22:35:04.748,SEARCHING,26.097,10.725,1.808,0.00,0.00,22.80,5.010,9.464,5.192,3.513,4.487,0,0,SEARCHING,0.000,0.800,-0.068,-0.007
22:35:04.947,SEARCHING,26.186,10.762,1.793,0.00,0.00,22.76,4.951,9.292,5.165,3.418,4.478,0,0,SEARCHING,0.000,0.800,-0.076,-0.007
22:35:05.149,SEARCHING,26.274,10.799,1.778,0.00,0.00,22.71,4.993,9.197,5.164,3.324,4.409,0,0,SEARCHING,0.000,0.800,-0.084,-0.006
22:35:05.348,SEARCHING,26.363,10.836,1.760,0.00,0.00,22.68,5.049,9.158,5.137,3.232,4.359,0,0,SEARCHING,0.000,0.800,-0.091,-0.004
22:35:05.549,SEARCHING,26.451,10.873,1.742,0.00,0.00,22.66,5.011,9.153,5.187,3.132,4.322,0,0,SEARCHING,0.000,0.800,-0.099,-0.004
22:35:05.749,SEARCHING,26.540,10.910,1.721,0.00,0.00,22.63,5.060,8.916,5.166,3.023,4.298,0,0,SEARCHING,0.000,0.800,-0.110,-0.004
22:35:05.951,SEARCHING,26.629,10.947,1.698,0.00,0.00,22.60,5.051,8.814,5.196,2.942,4.269,0,0,SEARCHING,0.000,0.800,-0.120,-0.004
22:35:06.152,SEARCHING,26.717,10.984,1.674,0.00,0.00,22.58,5.041,8.657,5.106,2.847,4.194,0,0,SEARCHING,0.000,0.800,-0.129,-0.003
22:35:06.352,SEARCHING,26.806,11.021,1.647,0.00,0.00,22.56,5.052,8.604,5.140,2.765,4.142,0,0,SEARCHING,0.000,0.800,-0.138,-0.003
22:35:06.551,SEARCHING,26.895,11.058,1.619,0.00,0.00,22.54,5.095,8.490,5.066,2.675,4.056,0,0,SEARCHING,0.000,0.800,-0.146,-0.001
22:35:06.751,SEARCHING,26.983,11.095,1.589,0.00,0.00,22.54,5.228,8.477,5.050,2.566,3.965,0,0,SEARCHING,0.000,0.800,-0.157,0.002
22:35:06.952,SEARCHING,27.072,11.131,1.557,0.00,0.00,22.57,5.218,8.340,5.041,2.477,3.907,0,0,SEARCHING,0.000,0.800,-0.169,0.005
22:35:07.154,SEARCHING,27.161,11.168,1.522,0.00,0.00,22.61,5.312,8.192,4.977,2.435,3.828,0,0,SEARCHING,0.000,0.800,-0.177,0.008
22:35:07.354,SEARCHING,27.249,11.205,1.487,0.00,0.00,22.68,5.362,8.174,4.943,2.498,3.738,0,0,SEARCHING,0.000,0.800,-0.169,0.011
22:35:07.555,SEARCHING,27.338,11.242,1.458,0.00,0.00,22.76,5.363,8.172,4.867,3.893,3.630,0,0,SEARCHING,0.000,0.800,-0.079,0.014
22:35:07.755,SEARCHING,27.426,11.280,1.449,0.00,0.00,22.87,5.366,8.084,4.807,4.594,3.597,0,0,SEARCHING,0.000,0.800,0.021,0.016
22:35:07.956,SEARCHING,27.515,11.317,1.458,0.00,0.00,22.98,5.362,7.834,4.846,4.829,3.578,0,0,SEARCHING,0.000,0.800,0.068,0.016
22:35:08.156,SEARCHING,27.603,11.354,1.472,0.00,0.00,23.09,5.371,7.884,4.776,4.802,3.635,0,0,SEARCHING,0.000,0.800,0.079,0.017
22:35:08.357,SEARCHING,27.691,11.392,1.488,0.00,0.00,23.22,5.354,7.690,4.783,4.757,3.673,0,0,SEARCHING,0.000,0.800,0.077,0.018
22:35:08.557,SEARCHING,27.779,11.430,1.504,0.00,0.00,23.34,5.339,7.648,4.769,4.766,3.706,0,0,SEARCHING,0.000,0.800,0.075,0.017
22:35:08.759,SEARCHING,27.868,11.468,1.518,0.00,0.00,23.46,5.361,7.630,4.757,4.707,3.752,0,0,SEARCHING,0.000,0.800,0.069,0.018
22:35:08.959,SEARCHING,27.956,11.507,1.532,0.00,0.00,23.59,5.272,7.410,4.761,4.669,3.793,0,0,SEARCHING,0.000,0.800,0.063,0.018
22:35:09.158,SEARCHING,28.044,11.545,1.544,0.00,0.00,23.70,5.241,7.315,4.766,4.675,3.811,0,0,SEARCHING,0.000,0.800,0.060,0.016
22:35:09.359,SEARCHING,28.131,11.584,1.556,0.00,0.00,23.81,5.225,7.205,4.762,4.664,3.848,0,0,SEARCHING,0.000,0.800,0.056,0.015
22:35:09.560,SEARCHING,28.219,11.623,1.565,0.00,0.00,23.92,5.197,7.157,4.720,4.564,3.883,0,0,SEARCHING,0.000,0.800,0.019,0.015
22:35:09.761,SEARCHING,28.336,11.675,1.566,0.00,0.00,24.06,5.200,7.074,4.747,4.535,3.938,0,0,SEARCHING,0.000,0.800,0.005,0.015
22:35:09.961,SEARCHING,28.482,11.740,1.566,0.00,0.00,24.23,5.200,6.961,4.765,4.538,3.903,0,0,SEARCHING,0.000,0.800,0.001,0.014
22:35:10.162,SEARCHING,28.628,11.806,1.566,0.00,0.00,24.39,5.200,6.778,4.731,4.505,3.940,0,0,SEARCHING,0.000,0.800,0.000,0.015
22:35:10.362,SEARCHING,28.774,11.872,1.566,0.00,0.00,24.56,5.149,6.736,4.737,4.597,3.900,0,0,SEARCHING,0.000,0.800,0.000,0.014
22:35:10.562,SEARCHING,28.919,11.939,1.566,0.00,0.00,24.73,5.118,6.561,4.707,4.553,3.891,0,0,SEARCHING,0.000,0.800,0.000,0.014
22:35:10.763,SEARCHING,29.064,12.006,1.566,0.00,0.00,24.88,5.056,6.421,4.748,4.593,3.915,0,0,SEARCHING,0.000,0.800,0.000,0.012
22:35:10.964,SEARCHING,29.209,12.073,1.566,0.00,0.00,25.02,5.081,6.301,4.810,4.540,3.892,0,0,SEARCHING,0.000,0.800,0.000,0.010
22:35:11.165,SEARCHING,29.354,12.141,1.566,0.00,0.00,25.13,5.028,6.149,4.856,4.572,3.905,0,0,SEARCHING,0.000,0.800,0.000,0.008
22:35:12.894,SEARCHING,29.499,12.209,1.566,0.00,0.00,25.22,5.037,6.045,4.994,4.504,3.891,0,0,SEARCHING,0.000,0.800,0.000,0.004
22:35:13.095,SEARCHING,29.644,12.277,1.566,0.00,0.00,25.25,5.005,5.844,4.993,4.514,3.896,0,0,SEARCHING,0.000,0.800,0.000,0.001
22:35:13.295,SEARCHING,29.789,12.346,1.566,0.00,0.00,25.27,5.017,5.711,4.966,4.566,3.883,0,0,SEARCHING,0.000,0.800,0.000,0.001
22:35:13.496,SEARCHING,29.933,12.414,1.566,0.00,0.00,25.29,4.999,5.535,4.996,4.556,3.799,0,0,SEARCHING,0.000,0.800,0.016,0.001
22:35:13.696,SEARCHING,30.020,12.455,1.571,0.00,0.00,25.29,5.010,5.420,5.008,4.561,3.869,0,0,SEARCHING,0.000,0.800,0.027,0.001
22:35:13.897,SEARCHING,30.107,12.496,1.575,0.00,0.00,25.30,5.065,5.333,5.001,4.529,3.891,0,0,SEARCHING,0.000,0.800,0.007,0.001
22:35:14.098,SEARCHING,30.252,12.564,1.575,0.00,0.00,25.32,5.082,5.181,5.006,4.553,3.890,0,0,SEARCHING,0.000,0.800,0.002,0.002
22:35:14.299,SEARCHING,30.396,12.633,1.575,0.00,0.00,25.34,5.018,5.024,4.978,4.553,3.882,0,0,SEARCHING,0.000,0.800,0.000,0.002
22:35:14.499,SEARCHING,30.541,12.701,1.575,0.00,0.00,25.36,4.979,4.847,4.804,4.535,3.865,0,0,SEARCHING,0.000,0.800,0.000,0.003
22:35:14.698,SEARCHING,30.685,12.770,1.575,0.00,0.00,25.40,4.860,4.702,4.658,4.545,3.879,0,0,SEARCHING,0.000,0.800,0.000,0.006
22:35:14.900,SEARCHING,30.830,12.839,1.575,0.00,0.00,25.48,4.714,4.569,4.546,4.557,3.882,0,0,SEARCHING,0.000,0.800,0.000,0.007
22:35:15.100,SEARCHING,30.974,12.908,1.575,0.00,0.00,25.55,4.577,4.483,4.403,4.474,3.911,0,0,SEARCHING,0.000,0.800,0.000,0.007
22:35:15.301,SEARCHING,31.118,12.977,1.575,0.00,0.00,25.63,4.453,4.355,4.275,4.322,3.956,0,0,SEARCHING,0.000,0.800,0.000,0.007
22:35:15.501,SEARCHING,31.263,13.046,1.575,0.00,0.00,25.71,4.314,4.212,4.125,4.213,3.946,0,0,SEARCHING,0.000,0.800,0.000,0.008
22:35:15.702,SEARCHING,31.407,13.115,1.575,0.00,0.00,25.80,4.165,4.045,3.941,4.059,3.911,0,0,SEARCHING,0.000,0.800,0.000,0.010
22:35:15.902,SEARCHING,31.551,13.185,1.575,0.00,0.00,25.92,4.000,3.887,3.790,3.882,3.836,0,0,SEARCHING,0.000,0.800,0.000,0.011
22:35:16.103,SEARCHING,31.695,13.255,1.575,0.00,0.00,26.05,3.835,3.730,3.664,3.730,3.708,0,0,SEARCHING,0.000,0.800,0.000,0.011
22:35:16.304,SEARCHING,31.838,13.326,1.575,0.00,0.00,26.17,3.667,3.584,3.517,3.584,3.581,0,0,SEARCHING,0.000,0.800,0.000,0.010
22:35:16.504,SEARCHING,31.982,13.396,1.575,0.00,0.00,26.28,3.528,3.434,3.382,3.457,3.453,0,0,SEARCHING,0.000,0.800,0.000,0.009
22:35:16.705,SEARCHING,32.125,13.467,1.575,0.00,0.00,26.39,3.387,3.301,3.231,3.315,3.314,0,0,SEARCHING,0.000,0.800,0.000,0.011
22:35:16.905,SEARCHING,32.269,13.539,1.575,0.00,0.00,26.51,3.232,3.157,3.075,3.143,3.142,0,0,SEARCHING,0.000,0.800,0.000,0.012
22:35:17.105,SEARCHING,32.412,13.610,1.575,0.00,0.00,26.65,3.059,2.985,2.905,2.986,2.972,0,0,SEARCHING,0.000,0.800,0.000,0.013
22:35:17.306,SEARCHING,32.555,13.682,1.575,0.00,0.00,26.80,2.898,2.836,2.757,2.843,2.842,0,0,SEARCHING,0.000,0.800,0.000,0.013
22:35:17.507,SEARCHING,32.697,13.754,1.575,0.00,0.00,26.96,2.763,2.688,2.607,2.690,2.693,0,0,SEARCHING,0.000,0.800,0.000,0.015
22:35:17.709,SEARCHING,32.840,13.827,1.575,0.00,0.00,27.14,2.592,2.524,2.445,2.524,2.525,0,0,SEARCHING,0.000,0.800,0.000,0.018
22:35:17.908,SEARCHING,32.982,13.900,1.575,0.00,0.00,27.34,2.433,2.369,2.303,2.369,2.369,0,0,SEARCHING,0.000,0.800,0.000,0.018
22:35:18.108,SEARCHING,33.124,13.974,1.575,0.00,0.00,27.56,2.296,2.220,2.147,2.220,2.220,0,0,SEARCHING,0.000,0.800,0.000,0.021
22:35:18.309,SEARCHING,33.266,14.048,1.575,0.00,0.00,27.80,2.127,2.054,2.001,2.060,2.061,0,0,SEARCHING,0.000,0.800,0.000,0.023
22:35:18.509,SEARCHING,33.406,14.123,1.575,0.00,0.00,28.07,1.981,1.900,1.838,1.904,1.908,0,0,SEARCHING,0.000,0.764,0.000,0.027
22:35:18.710,SEARCHING,33.537,14.193,1.575,0.00,0.00,28.39,1.823,1.759,1.695,1.753,1.758,0,0,SEARCHING,0.000,0.675,0.000,0.031
22:35:18.911,SEARCHING,33.652,14.255,1.575,0.00,0.00,28.76,1.688,1.622,1.564,1.617,1.623,0,0,SEARCHING,0.000,0.581,0.000,0.035
22:35:19.112,SEARCHING,33.749,14.309,1.575,0.00,0.00,29.17,1.573,1.507,1.451,1.509,1.507,0,0,SEARCHING,0.000,0.499,0.000,0.039
22:35:19.311,SEARCHING,33.833,14.357,1.575,0.00,0.00,29.63,1.468,1.411,1.352,1.408,1.408,0,0,SEARCHING,0.000,0.432,0.000,0.044
22:35:19.512,SEARCHING,33.906,14.398,1.575,0.00,0.00,30.15,1.387,1.321,1.264,1.321,1.322,0,0,SEARCHING,0.000,0.377,0.000,0.050
22:35:19.713,SEARCHING,33.969,14.435,1.575,0.00,0.00,30.75,1.310,1.247,1.189,1.247,1.245,0,0,SEARCHING,0.000,0.333,0.000,0.058
22:35:19.914,SEARCHING,34.024,14.468,1.575,0.00,0.00,31.44,1.246,1.181,1.122,1.179,1.179,0,0,SEARCHING,0.000,0.296,0.000,0.065
22:35:20.114,SEARCHING,34.073,14.499,1.575,0.00,0.00,32.21,1.188,1.121,1.063,1.120,1.120,0,0,SEARCHING,0.000,0.267,0.000,0.073
22:35:20.315,SEARCHING,34.117,14.527,1.575,0.00,0.00,33.08,1.138,1.070,1.009,1.070,1.071,0,0,SEARCHING,0.000,0.254,0.000,0.083
22:35:20.515,SEARCHING,34.160,14.555,1.575,0.00,0.00,34.06,1.093,1.024,0.957,1.022,1.021,0,0,SEARCHING,0.000,0.251,0.000,0.095
22:35:20.715,SEARCHING,34.201,14.583,1.575,0.00,0.00,35.19,1.050,0.975,0.908,0.975,0.976,0,0,SEARCHING,0.000,0.250,0.000,0.109
22:35:20.916,SEARCHING,34.241,14.613,1.575,0.00,0.00,36.48,1.011,0.929,0.861,0.929,0.930,0,0,SEARCHING,0.000,0.250,0.000,0.125
22:35:21.124,SEARCHING,34.281,14.643,1.575,0.00,0.00,37.97,0.975,0.891,0.821,0.893,0.892,0,0,SEARCHING,0.000,0.250,0.000,0.143
22:35:21.319,SEARCHING,34.320,14.674,1.575,0.00,0.00,39.67,0.931,0.841,0.767,0.842,0.842,0,0,SEARCHING,0.000,0.250,0.000,0.166
22:35:21.560,INSPECTING,34.358,14.707,1.575,0.00,0.00,41.64,0.897,0.799,0.723,0.799,0.801,0,0,SEARCHING,0.000,0.175,0.000,0.193
22:35:21.721,INSPECTING,34.389,14.735,1.575,0.00,0.00,44.82,0.873,0.764,0.682,0.765,0.763,0,0,INSPECT_LEFT,0.000,0.176,0.000,0.426
22:35:21.921,INSPECTING,34.413,14.760,1.575,0.00,0.00,49.93,0.882,0.751,0.653,0.750,0.751,0,0,INSPECT_LEFT,0.000,0.175,0.000,0.482
22:35:22.121,INSPECTING,34.434,14.788,1.575,0.00,0.00,55.51,0.915,0.748,0.633,0.750,0.749,0,0,INSPECT_LEFT,0.000,0.179,0.000,0.496
22:35:22.322,INSPECTING,34.453,14.819,1.575,0.00,0.00,61.20,0.977,0.761,0.623,0.758,0.759,0,0,INSPECT_LEFT,0.000,0.188,0.000,0.499
22:35:22.524,INSPECTING,34.470,14.853,1.575,0.00,0.00,66.93,1.067,0.780,0.617,0.780,0.781,0,0,INSPECT_LEFT,0.000,0.202,0.000,0.500
22:35:22.724,INSPECTING,34.484,14.892,1.575,0.00,0.00,72.65,1.188,0.815,0.620,0.814,0.815,0,0,INSPECT_LEFT,0.000,0.221,0.000,0.500
22:35:22.924,INSPECTING,34.496,14.936,1.575,0.00,0.00,78.38,1.377,0.866,0.631,0.865,0.865,0,0,INSPECT_LEFT,0.000,0.251,0.000,0.500
22:35:23.126,INSPECTING,34.504,14.988,1.575,0.00,0.00,84.11,1.696,0.943,0.648,0.941,0.939,0,0,INSPECT_LEFT,0.000,0.299,0.000,0.500
22:35:23.326,INSPECTING,34.508,15.050,1.575,0.00,0.00,89.84,1.881,1.040,0.681,1.042,1.044,0,0,INSPECT_LEFT,0.000,0.352,0.000,0.500
22:35:23.526,INSPECTING,34.505,15.122,1.575,0.00,0.00,95.57,1.832,1.190,0.722,1.187,1.191,0,0,INSPECT_LEFT,0.000,0.366,0.000,0.500
22:35:23.726,SEARCHING,34.494,15.194,1.575,0.00,0.00,101.30,1.793,1.465,0.787,1.464,1.444,0,0,INSPECT_LEFT,0.000,0.362,0.000,0.500
22:35:23.927,SEARCHING,34.476,15.266,1.575,0.00,0.00,107.20,1.772,1.808,0.903,1.806,1.805,0,0,SEARCHING,0.000,0.440,0.000,0.489
22:35:24.129,SEARCHING,34.445,15.354,1.575,0.00,0.00,112.53,1.755,1.794,1.070,1.796,1.793,0,0,SEARCHING,0.000,0.518,0.000,0.382
22:35:24.328,SEARCHING,34.401,15.449,1.575,0.00,0.00,116.51,1.713,1.722,1.256,1.720,1.720,0,0,SEARCHING,0.000,0.532,0.000,0.252
22:35:24.529,SEARCHING,34.352,15.543,1.575,0.00,0.00,119.03,1.632,1.623,1.473,1.618,1.620,0,0,SEARCHING,0.000,0.521,0.000,0.130
22:35:24.730,SEARCHING,34.301,15.633,1.575,0.00,0.00,120.26,1.551,1.531,1.464,1.527,1.522,0,0,SEARCHING,0.000,0.490,0.000,0.058
22:35:24.931,SEARCHING,34.252,15.715,1.575,0.00,0.00,120.85,1.455,1.431,1.381,1.425,1.426,0,0,SEARCHING,0.000,0.440,0.000,0.037
22:35:25.131,SEARCHING,34.208,15.788,1.575,0.00,0.00,121.25,1.370,1.340,1.300,1.337,1.333,0,0,SEARCHING,0.000,0.389,0.000,0.033
22:35:25.332,SEARCHING,34.169,15.852,1.575,0.00,0.00,121.63,1.294,1.263,1.222,1.259,1.257,0,0,SEARCHING,0.000,0.344,0.000,0.034
22:35:25.532,SEARCHING,34.134,15.909,1.575,0.00,0.00,122.02,1.223,1.193,1.158,1.188,1.189,0,0,SEARCHING,0.000,0.305,0.000,0.036
22:35:25.732,SEARCHING,34.102,15.959,1.575,0.00,0.00,122.44,1.166,1.128,1.099,1.124,1.124,0,0,SEARCHING,0.000,0.273,0.000,0.039
22:35:25.932,SEARCHING,34.073,16.004,1.575,0.00,0.00,122.90,1.111,1.074,1.043,1.069,1.072,0,0,SEARCHING,0.000,0.256,0.000,0.043
22:35:26.133,SEARCHING,34.046,16.047,1.575,0.00,0.00,123.41,1.061,1.020,0.997,1.019,1.018,0,0,SEARCHING,0.000,0.251,0.000,0.047
22:35:26.334,SEARCHING,34.018,16.088,1.575,0.00,0.00,123.96,1.014,0.969,0.948,0.965,0.967,0,0,SEARCHING,0.000,0.250,0.000,0.051
22:35:26.535,SEARCHING,33.990,16.130,1.575,0.00,0.00,124.56,0.964,0.917,0.901,0.915,0.917,0,0,SEARCHING,0.000,0.250,0.000,0.055
22:35:26.734,SEARCHING,33.961,16.171,1.575,0.00,0.00,125.20,0.919,0.868,0.855,0.869,0.868,0,0,SEARCHING,0.000,0.250,0.000,0.061
22:35:26.936,SEARCHING,33.932,16.212,1.575,0.00,0.00,125.92,0.872,0.820,0.808,0.821,0.821,0,0,SEARCHING,0.000,0.250,0.000,0.068
22:35:27.135,INSPECTING,33.903,16.251,1.575,0.00,0.00,126.86,0.825,0.773,0.761,0.773,0.774,0,0,INSPECT_LEFT,0.000,0.171,0.000,0.290
22:35:27.336,INSPECTING,33.882,16.277,1.575,0.00,0.00,130.81,0.801,0.740,0.714,0.740,0.740,0,0,INSPECT_LEFT,0.000,0.164,0.000,0.450
22:35:27.537,INSPECTING,33.860,16.301,1.575,0.00,0.00,136.11,0.803,0.719,0.661,0.720,0.719,0,0,INSPECT_LEFT,0.000,0.161,0.000,0.488
22:35:27.738,INSPECTING,33.836,16.322,1.575,0.00,0.00,141.74,0.822,0.709,0.625,0.709,0.710,0,0,INSPECT_LEFT,0.000,0.162,0.000,0.497
22:35:27.938,INSPECTING,33.810,16.341,1.575,0.00,0.00,147.45,0.848,0.708,0.608,0.708,0.708,0,0,INSPECT_LEFT,0.000,0.167,0.000,0.499
22:35:28.138,INSPECTING,33.780,16.358,1.575,0.00,0.00,153.17,0.907,0.717,0.592,0.717,0.717,0,0,INSPECT_LEFT,0.000,0.175,0.000,0.500
22:35:28.340,INSPECTING,33.748,16.373,1.575,0.00,0.00,158.90,0.984,0.734,0.586,0.734,0.735,0,0,INSPECT_LEFT,0.000,0.187,0.000,0.500
22:35:28.540,INSPECTING,33.712,16.385,1.575,0.00,0.00,164.63,1.095,0.762,0.587,0.764,0.763,0,0,INSPECT_LEFT,0.000,0.205,0.000,0.500
22:35:28.741,INSPECTING,33.671,16.394,1.575,0.00,0.00,170.36,1.254,0.808,0.598,0.807,0.809,0,0,INSPECT_LEFT,0.000,0.231,0.000,0.500
22:35:28.942,INSPECTING,33.623,16.400,1.575,0.00,0.00,176.09,1.515,0.872,0.613,0.869,0.875,0,0,INSPECT_LEFT,0.000,0.270,0.000,0.500
22:35:29.142,INSPECTING,33.566,16.401,1.575,0.00,-0.00,-178.18,1.938,0.962,0.638,0.961,0.960,0,0,INSPECT_LEFT,0.000,0.335,0.000,0.500
22:35:29.343,INSPECTING,33.496,16.396,1.575,0.00,-0.00,-172.45,2.435,1.096,0.676,1.100,1.092,0,0,INSPECT_LEFT,0.000,0.383,0.000,0.500
22:35:29.542,INSPECTING,33.420,16.382,1.575,0.00,-0.00,-166.72,7.528,1.293,0.734,1.300,1.319,0,0,INSPECT_LEFT,0.000,0.396,0.000,0.500
22:35:29.743,SEARCHING,33.345,16.361,1.575,0.00,-0.00,-160.52,9.709,1.678,0.828,1.666,1.687,0,0,SEARCHING,0.000,0.399,0.000,0.713
22:35:29.944,SEARCHING,33.265,16.326,1.575,0.00,-0.00,-152.00,8.085,2.393,1.029,2.440,2.418,0,0,SEARCHING,0.000,0.601,0.000,0.749
22:35:30.145,SEARCHING,33.154,16.256,1.575,0.00,-0.00,-143.89,7.317,8.218,1.404,3.999,3.613,0,0,SEARCHING,0.000,0.752,0.000,0.577
22:35:30.347,SEARCHING,33.035,16.160,1.575,0.00,-0.00,-137.90,6.436,8.709,1.687,4.529,3.918,0,0,SEARCHING,0.000,0.789,0.000,0.410
22:35:30.548,SEARCHING,32.922,16.050,1.575,0.00,-0.00,-133.57,6.042,8.272,3.682,4.565,3.939,0,0,SEARCHING,0.000,0.797,0.000,0.247
22:35:30.747,SEARCHING,32.814,15.932,1.575,0.00,-0.00,-131.43,5.517,7.759,9.233,4.537,3.944,0,0,SEARCHING,0.000,0.799,0.000,0.038
22:35:30.948,SEARCHING,32.709,15.812,1.575,0.00,-0.00,-131.30,5.299,7.656,9.910,4.512,3.945,0,0,SEARCHING,0.000,0.800,0.000,-0.042
22:35:31.148,SEARCHING,32.603,15.692,1.575,0.00,-0.00,-131.87,5.319,7.557,9.989,4.420,3.927,0,0,SEARCHING,0.000,0.800,0.000,-0.063
22:35:31.351,SEARCHING,32.495,15.573,1.575,0.00,-0.00,-132.62,5.214,7.420,9.999,4.269,3.887,0,0,SEARCHING,0.000,0.800,0.000,-0.070
22:35:31.551,SEARCHING,32.386,15.456,1.575,0.00,-0.00,-133.43,5.202,7.398,10.000,4.101,3.879,0,0,SEARCHING,0.000,0.800,0.000,-0.073
22:35:31.751,SEARCHING,32.275,15.341,1.575,0.00,-0.00,-134.27,5.176,7.242,9.985,3.933,3.888,0,0,SEARCHING,0.000,0.800,0.000,-0.074
22:35:31.951,SEARCHING,32.163,15.227,1.575,0.00,-0.00,-135.12,5.177,7.185,9.773,3.765,3.893,0,0,SEARCHING,0.000,0.800,0.000,-0.074
22:35:32.156,SEARCHING,32.049,15.115,1.575,0.00,-0.00,-135.97,5.126,7.105,9.413,3.679,3.939,0,0,SEARCHING,0.000,0.800,0.000,-0.073
22:35:32.357,SEARCHING,31.933,15.004,1.575,0.00,-0.00,-136.79,5.104,7.062,9.026,3.640,3.944,0,0,SEARCHING,0.000,0.800,0.000,-0.070
22:35:32.555,SEARCHING,31.816,14.896,1.575,0.00,-0.00,-137.59,5.071,6.949,8.827,3.621,3.960,0,0,SEARCHING,0.000,0.800,0.000,-0.068
22:35:32.755,SEARCHING,31.697,14.788,1.575,0.00,-0.00,-138.36,5.049,6.936,8.516,3.747,3.947,0,0,SEARCHING,0.000,0.800,0.000,-0.066
22:35:32.957,SEARCHING,31.577,14.683,1.575,0.00,-0.00,-139.11,5.049,6.950,8.291,4.332,3.945,0,0,SEARCHING,0.000,0.800,0.000,-0.063
22:35:33.157,SEARCHING,31.455,14.579,1.575,0.00,-0.00,-139.83,5.016,6.915,8.001,4.538,3.938,0,0,SEARCHING,0.000,0.800,0.000,-0.061
22:35:33.357,SEARCHING,31.332,14.476,1.575,0.00,-0.00,-140.52,5.036,6.877,7.917,4.563,3.930,0,0,SEARCHING,0.000,0.800,0.000,-0.060
22:35:33.558,SEARCHING,31.208,14.375,1.575,0.00,-0.00,-141.20,5.009,7.135,7.661,4.539,3.939,0,0,SEARCHING,0.000,0.800,0.000,-0.057
22:35:33.758,SEARCHING,31.083,14.276,1.575,0.00,-0.00,-141.84,4.978,7.718,7.521,4.493,3.944,0,0,SEARCHING,0.000,0.800,0.000,-0.055
22:35:33.959,SEARCHING,30.957,14.177,1.575,0.00,-0.00,-142.47,4.975,8.443,7.415,4.511,3.940,0,0,SEARCHING,0.000,0.800,0.000,-0.054
22:35:34.160,SEARCHING,30.829,14.080,1.575,0.00,-0.00,-143.09,4.935,9.356,7.353,4.510,3.944,0,0,SEARCHING,0.000,0.800,0.000,-0.053
22:35:34.360,SEARCHING,30.701,13.985,1.575,0.00,-0.00,-143.69,4.938,9.942,7.208,4.566,3.945,0,0,SEARCHING,0.000,0.800,0.000,-0.052
22:35:34.560,SEARCHING,30.572,13.891,1.575,0.00,-0.00,-144.29,4.938,9.978,7.157,4.510,3.949,0,0,SEARCHING,0.000,0.800,0.000,-0.051
22:35:34.760,SEARCHING,30.441,13.798,1.575,0.00,-0.00,-144.87,4.851,9.997,7.041,4.536,3.946,0,0,SEARCHING,0.000,0.800,0.000,-0.052
22:35:34.963,SEARCHING,30.310,13.707,1.575,0.00,-0.00,-145.46,4.732,10.000,6.946,4.517,3.945,0,0,SEARCHING,0.000,0.800,0.000,-0.052
22:35:35.163,SEARCHING,30.178,13.616,1.575,0.00,-0.00,-146.06,4.649,10.000,6.766,4.505,3.945,0,0,SEARCHING,0.000,0.800,0.000,-0.053
22:35:35.365,SEARCHING,30.045,13.528,1.575,0.00,-0.00,-146.68,4.566,10.000,6.636,4.502,3.945,0,0,SEARCHING,0.000,0.800,0.000,-0.054
22:35:35.565,SEARCHING,29.911,13.441,1.575,0.00,-0.00,-147.30,4.505,10.000,6.549,4.480,3.886,0,0,SEARCHING,0.000,0.800,0.000,-0.055
22:35:35.765,SEARCHING,29.776,13.355,1.575,0.00,-0.00,-147.93,4.517,10.000,6.401,4.545,3.866,0,0,SEARCHING,0.000,0.800,0.000,-0.054
22:35:35.966,SEARCHING,29.640,13.270,1.575,0.00,-0.00,-148.54,4.453,10.000,6.200,4.552,3.829,0,0,SEARCHING,0.000,0.800,0.000,-0.052
22:35:36.167,SEARCHING,29.503,13.188,1.575,0.00,-0.00,-149.13,4.326,10.000,6.137,4.508,3.900,0,0,SEARCHING,0.000,0.800,0.000,-0.053
22:35:36.367,SEARCHING,29.365,13.106,1.575,0.00,-0.00,-149.88,2.597,10.000,5.989,4.549,3.884,0,0,SEARCHING,0.000,0.800,0.000,-0.118
22:35:36.568,SEARCHING,29.226,13.027,1.575,0.00,-0.00,-151.24,4.003,10.000,5.757,4.544,3.920,0,0,SEARCHING,0.000,0.800,0.000,-0.095
22:35:36.768,SEARCHING,29.085,12.952,1.575,0.00,-0.00,-152.21,4.547,9.987,5.621,4.573,3.942,0,0,SEARCHING,0.000,0.800,0.000,-0.056
22:35:36.968,SEARCHING,28.943,12.878,1.575,0.00,-0.00,-152.75,5.309,9.996,5.372,4.540,3.945,0,0,SEARCHING,0.000,0.800,0.000,-0.023
22:35:37.169,SEARCHING,28.800,12.805,1.575,0.00,-0.00,-152.93,5.857,10.000,5.253,4.549,3.945,0,0,SEARCHING,0.000,0.800,0.000,0.002
22:35:37.373,SEARCHING,28.658,12.732,1.575,0.00,-0.00,-152.86,6.172,9.961,5.207,4.604,3.945,0,0,SEARCHING,0.000,0.800,0.000,0.016
22:35:37.571,SEARCHING,28.516,12.659,1.575,0.00,-0.00,-152.64,6.257,9.950,5.187,4.612,3.906,0,0,SEARCHING,0.000,0.800,0.000,0.024
22:35:37.772,SEARCHING,28.374,12.585,1.575,0.00,-0.00,-152.36,6.218,9.740,5.126,4.535,3.931,0,0,SEARCHING,0.000,0.800,0.000,0.027
22:35:37.972,SEARCHING,28.232,12.510,1.575,0.00,-0.00,-152.05,6.213,9.894,5.033,4.571,3.943,0,0,SEARCHING,0.000,0.800,0.000,0.028
22:35:38.173,SEARCHING,28.091,12.435,1.575,0.00,-0.00,-151.72,6.260,9.881,5.065,4.576,3.921,0,0,SEARCHING,0.000,0.800,0.000,0.030
22:35:38.373,SEARCHING,27.950,12.359,1.575,0.00,-0.00,-151.38,6.178,9.418,5.030,4.506,3.894,0,0,SEARCHING,0.000,0.800,0.000,0.030
22:35:38.574,SEARCHING,27.810,12.282,1.575,0.00,-0.00,-151.03,6.060,9.250,4.968,4.517,3.927,0,0,SEARCHING,0.000,0.800,0.000,0.030
22:35:38.775,SEARCHING,27.670,12.204,1.575,0.00,-0.00,-150.69,6.026,8.985,4.931,4.463,3.943,0,0,SEARCHING,0.000,0.800,0.000,0.030
22:35:38.974,SEARCHING,27.531,12.125,1.575,0.00,-0.00,-150.36,5.976,9.002,4.983,4.477,3.945,0,0,SEARCHING,0.000,0.800,0.000,0.027
22:35:39.176,SEARCHING,27.392,12.046,1.575,0.00,-0.00,-150.05,5.872,8.890,4.975,4.551,3.886,0,0,SEARCHING,0.000,0.800,0.000,0.026
22:35:39.376,SEARCHING,27.254,11.965,1.575,0.00,-0.00,-149.76,5.795,8.706,4.997,4.548,3.879,0,0,SEARCHING,0.000,0.800,0.000,0.024
22:35:39.577,SEARCHING,27.116,11.885,1.575,0.00,-0.00,-149.49,5.599,8.552,5.026,4.532,3.851,0,0,SEARCHING,0.000,0.800,0.000,0.020
22:35:39.778,SEARCHING,26.978,11.803,1.575,0.00,-0.00,-149.27,5.576,8.126,5.064,4.514,3.872,0,0,SEARCHING,0.000,0.800,0.000,0.017
22:35:39.978,SEARCHING,26.841,11.721,1.575,0.00,-0.00,-149.09,5.537,8.352,5.082,4.536,3.882,0,0,SEARCHING,0.000,0.800,0.000,0.014
22:35:40.178,SEARCHING,26.703,11.639,1.575,0.00,-0.00,-148.92,5.540,8.134,5.093,4.556,3.879,0,0,SEARCHING,0.000,0.800,0.000,0.014
22:35:40.380,SEARCHING,26.567,11.556,1.575,0.00,-0.00,-148.78,5.385,8.004,5.157,4.578,3.888,0,0,SEARCHING,0.000,0.800,0.000,0.010
22:35:40.580,SEARCHING,26.430,11.473,1.575,0.00,-0.00,-148.68,5.467,7.751,5.195,4.553,3.924,0,0,SEARCHING,0.000,0.800,0.000,0.007
22:35:40.780,SEARCHING,26.293,11.390,1.575,0.00,-0.00,-148.59,5.396,7.425,5.212,4.574,3.923,0,0,SEARCHING,0.000,0.800,0.000,0.006
22:35:40.980,SEARCHING,26.157,11.306,1.575,0.00,-0.00,-148.53,5.439,7.317,5.227,4.502,3.893,0,0,SEARCHING,0.000,0.800,0.000,0.004
22:35:41.181,SEARCHING,26.020,11.223,1.575,0.00,-0.00,-148.47,5.704,7.198,5.250,4.572,3.885,0,0,SEARCHING,0.000,0.800,0.000,0.008
22:35:41.383,SEARCHING,25.884,11.139,1.575,0.00,-0.00,-148.36,5.744,7.148,5.277,4.536,3.893,0,0,SEARCHING,0.000,0.800,0.000,0.012
22:35:41.583,SEARCHING,25.748,11.055,1.575,0.00,-0.00,-148.22,6.004,6.912,5.270,4.558,3.857,0,0,SEARCHING,0.000,0.800,0.000,0.014
22:35:41.784,SEARCHING,25.612,10.970,1.575,0.00,-0.00,-148.05,5.811,6.582,5.279,4.565,3.876,0,0,SEARCHING,0.000,0.800,0.000,0.016
22:35:41.984,SEARCHING,25.476,10.885,1.575,0.00,-0.00,-147.87,5.731,6.380,5.359,4.570,3.898,0,0,SEARCHING,0.000,0.800,0.000,0.012
22:35:42.184,SEARCHING,25.341,10.800,1.575,0.00,-0.00,-147.74,6.018,6.305,5.393,4.544,3.871,0,0,SEARCHING,0.000,0.800,0.000,0.012
22:35:42.385,SEARCHING,25.206,10.715,1.575,0.00,-0.00,-147.59,5.763,6.344,5.406,4.453,3.899,0,0,SEARCHING,0.000,0.800,0.000,0.011
22:35:42.586,SEARCHING,25.071,10.629,1.575,0.00,-0.00,-147.47,5.738,6.033,5.412,4.551,3.917,0,0,SEARCHING,0.000,0.800,0.000,0.010
22:35:42.785,SEARCHING,24.936,10.543,1.575,0.00,-0.00,-147.37,5.658,5.864,5.384,4.569,3.893,0,0,SEARCHING,0.000,0.800,0.000,0.008
22:35:42.987,SEARCHING,24.801,10.456,1.575,0.00,-0.00,-147.28,5.470,5.722,5.348,4.557,3.890,0,0,SEARCHING,0.000,0.800,0.000,0.006
22:35:43.188,SEARCHING,24.667,10.370,1.575,0.00,-0.00,-147.21,5.472,5.676,5.276,4.574,3.888,0,0,SEARCHING,0.000,0.800,0.000,0.005
22:35:43.387,SEARCHING,24.532,10.283,1.575,0.00,-0.00,-147.16,5.213,5.553,5.233,4.557,3.886,0,0,SEARCHING,0.000,0.800,0.000,0.001
22:35:43.590,SEARCHING,24.398,10.196,1.575,0.00,-0.00,-147.17,4.975,5.528,5.210,4.554,3.875,0,0,SEARCHING,0.000,0.800,0.000,-0.004
22:35:43.788,SEARCHING,24.263,10.109,1.575,0.00,-0.00,-147.23,4.642,5.459,5.066,4.510,3.864,0,0,SEARCHING,0.000,0.800,0.000,-0.010
22:35:43.990,SEARCHING,24.129,10.023,1.575,0.00,-0.00,-147.36,4.562,5.472,5.010,4.499,3.867,0,0,SEARCHING,0.000,0.800,0.000,-0.015
22:35:44.189,SEARCHING,23.994,9.937,1.575,0.00,-0.00,-147.54,4.532,5.604,4.978,4.534,3.877,0,0,SEARCHING,0.000,0.800,0.000,-0.016
22:35:44.391,SEARCHING,23.859,9.851,1.575,0.00,-0.00,-147.72,4.435,5.921,4.975,4.530,3.878,0,0,SEARCHING,0.000,0.800,0.000,-0.017
22:35:44.591,SEARCHING,23.723,9.766,1.575,0.00,-0.00,-147.93,4.272,6.780,4.883,4.531,3.856,0,0,SEARCHING,0.000,0.800,0.000,-0.021
22:35:44.792,SEARCHING,23.587,9.681,1.575,0.00,-0.00,-148.17,4.174,6.844,4.860,4.533,3.807,0,0,SEARCHING,0.000,0.800,0.015,-0.024
22:35:44.992,SEARCHING,23.506,9.631,1.579,0.00,-0.00,-148.36,4.027,6.884,4.785,4.512,3.822,0,0,SEARCHING,0.000,0.800,0.009,-0.029
22:35:46.570,SEARCHING,23.397,9.564,1.581,0.00,-0.00,-148.63,3.911,6.718,4.769,4.496,3.804,0,0,SEARCHING,0.000,0.800,0.020,-0.034
22:35:46.771,SEARCHING,23.315,9.514,1.585,0.00,-0.00,-148.88,3.809,6.685,4.733,4.501,3.812,0,0,SEARCHING,0.000,0.800,0.023,-0.038
22:35:46.972,SEARCHING,23.232,9.465,1.588,0.00,-0.00,-149.15,3.756,6.644,4.677,4.547,3.818,0,0,SEARCHING,0.000,0.800,0.021,-0.041
22:35:47.173,SEARCHING,23.150,9.415,1.593,0.00,-0.00,-149.44,3.726,6.496,4.595,4.503,3.814,0,0,SEARCHING,0.000,0.800,0.010,-0.041
22:35:47.373,SEARCHING,23.039,9.351,1.593,0.00,-0.00,-149.81,3.689,6.314,4.526,4.508,3.851,0,0,SEARCHING,0.000,0.800,0.002,-0.041
22:35:47.574,SEARCHING,22.901,9.271,1.593,0.00,-0.00,-150.27,3.718,6.131,4.491,4.472,3.875,0,0,SEARCHING,0.000,0.800,0.001,-0.038
22:35:47.774,SEARCHING,22.762,9.192,1.593,0.00,-0.00,-150.71,4.413,5.994,4.352,4.516,3.878,0,0,SEARCHING,0.000,0.800,0.000,-0.025
22:35:47.974,SEARCHING,22.622,9.114,1.593,0.00,-0.00,-150.88,4.877,5.924,4.321,4.475,3.878,0,0,SEARCHING,0.000,0.800,0.000,0.008
22:35:48.176,SEARCHING,22.482,9.036,1.593,0.00,-0.00,-150.73,5.140,5.634,4.308,4.485,3.859,0,0,SEARCHING,0.000,0.800,0.000,0.023
22:35:48.376,SEARCHING,22.343,8.957,1.593,0.00,-0.00,-150.44,5.196,5.439,4.304,4.532,3.819,0,0,SEARCHING,0.000,0.800,0.000,0.029
22:35:48.577,SEARCHING,22.204,8.878,1.593,0.00,-0.00,-150.10,5.096,5.321,4.304,4.529,3.814,0,0,SEARCHING,0.000,0.800,0.000,0.030
22:35:48.777,SEARCHING,22.093,8.814,1.595,0.00,-0.00,-149.83,5.097,5.186,4.312,4.539,3.814,0,0,SEARCHING,0.000,0.800,0.033,0.029
22:35:48.977,SEARCHING,22.010,8.766,1.603,0.00,-0.00,-149.64,4.976,5.099,4.380,4.539,3.809,0,0,SEARCHING,0.000,0.800,0.047,0.025
22:35:49.178,SEARCHING,21.927,8.717,1.613,0.00,-0.00,-149.49,4.879,4.993,4.429,4.536,3.827,0,0,SEARCHING,0.000,0.800,0.034,0.020
22:35:49.379,SEARCHING,21.845,8.668,1.617,0.00,-0.00,-149.36,4.816,4.907,4.460,4.562,3.818,0,0,SEARCHING,0.000,0.800,0.024,0.016
22:35:49.579,SEARCHING,21.762,8.619,1.624,0.00,-0.00,-149.26,4.785,4.861,4.458,4.546,3.792,0,0,SEARCHING,0.000,0.800,0.045,0.013
22:35:49.780,SEARCHING,21.680,8.570,1.631,0.00,-0.00,-149.18,4.749,4.790,4.519,4.511,3.844,0,0,SEARCHING,0.000,0.800,0.016,0.011
22:35:49.980,SEARCHING,21.570,8.505,1.633,0.00,-0.00,-149.09,4.663,4.668,4.501,4.490,3.874,0,0,SEARCHING,0.000,0.800,0.004,0.008
22:35:50.181,SEARCHING,21.433,8.422,1.633,0.00,-0.00,-149.01,4.562,4.514,4.536,4.448,3.855,0,0,SEARCHING,0.000,0.800,0.001,0.004
22:35:50.381,SEARCHING,21.295,8.340,1.633,0.00,-0.00,-148.98,4.552,4.310,4.519,4.267,3.833,0,0,SEARCHING,0.000,0.800,0.000,0.001
22:35:50.582,SEARCHING,21.158,8.257,1.633,0.00,-0.00,-148.96,4.481,4.187,4.395,4.171,3.803,0,0,SEARCHING,0.000,0.800,0.000,0.002
22:35:50.782,SEARCHING,21.021,8.175,1.633,0.00,-0.00,-148.92,4.486,4.043,4.174,4.016,3.777,0,0,SEARCHING,0.000,0.800,0.000,0.008
22:35:50.983,SEARCHING,20.884,8.092,1.633,0.00,-0.00,-148.80,4.487,3.870,3.887,3.857,3.741,0,0,SEARCHING,0.000,0.800,0.000,0.019
22:35:51.183,SEARCHING,20.748,8.009,1.633,0.00,-0.00,-148.54,4.491,3.694,3.681,3.686,3.682,0,0,SEARCHING,0.000,0.800,0.000,0.032
22:35:51.383,SEARCHING,20.611,7.925,1.633,0.00,-0.00,-148.15,4.392,3.554,3.529,3.561,3.545,0,0,SEARCHING,0.000,0.800,0.000,0.040
22:35:51.584,SEARCHING,20.476,7.840,1.633,0.00,-0.00,-147.67,4.348,3.470,3.388,3.471,3.468,0,0,SEARCHING,0.000,0.800,0.000,0.047
22:35:51.785,SEARCHING,20.341,7.754,1.633,0.00,-0.00,-147.11,4.289,3.385,3.232,3.389,3.345,0,0,SEARCHING,0.000,0.800,0.000,0.055
22:35:51.986,SEARCHING,20.207,7.666,1.633,0.00,-0.00,-146.45,4.227,3.356,3.047,3.342,3.274,0,0,SEARCHING,0.000,0.800,0.000,0.066
22:35:52.187,SEARCHING,20.074,7.577,1.633,0.00,-0.00,-145.67,4.052,3.412,2.882,3.359,3.269,0,0,SEARCHING,0.000,0.800,0.000,0.075
22:35:52.386,SEARCHING,19.943,7.486,1.633,0.00,-0.00,-144.79,3.904,3.600,2.747,3.597,3.500,0,0,SEARCHING,0.000,0.800,0.000,0.082
22:35:52.588,SEARCHING,19.813,7.393,1.633,0.00,-0.00,-143.83,3.783,3.626,2.265,3.645,3.502,0,0,SEARCHING,0.000,0.800,0.000,0.104
22:35:52.788,SEARCHING,19.684,7.297,1.633,0.00,-0.00,-142.55,3.663,3.554,2.348,3.582,3.461,0,0,SEARCHING,0.000,0.800,0.000,0.121
22:35:52.988,SEARCHING,19.558,7.199,1.633,0.00,-0.00,-141.15,3.501,3.581,2.210,3.465,3.400,0,0,SEARCHING,0.000,0.800,0.000,0.128
22:35:53.190,SEARCHING,19.435,7.097,1.633,0.00,-0.00,-139.66,3.342,5.369,2.052,3.793,3.379,0,0,SEARCHING,0.000,0.800,0.000,0.140
22:35:53.390,SEARCHING,19.338,7.013,1.635,0.00,-0.00,-138.33,3.215,5.655,1.913,4.329,3.382,0,0,SEARCHING,0.000,0.800,0.049,0.158
22:35:53.590,SEARCHING,19.267,6.949,1.647,0.00,-0.00,-137.20,3.085,5.412,1.904,4.388,3.349,0,0,SEARCHING,0.000,0.800,0.074,0.165
22:35:53.791,SEARCHING,19.197,6.883,1.663,0.00,-0.00,-136.10,2.987,5.169,2.024,4.398,3.325,0,0,SEARCHING,0.000,0.800,0.084,0.148
22:35:53.991,SEARCHING,19.128,6.816,1.680,0.00,-0.00,-135.19,2.884,4.965,2.237,4.331,3.303,0,0,SEARCHING,0.000,0.800,0.086,0.110
22:35:54.192,SEARCHING,19.061,6.748,1.697,0.00,-0.00,-134.57,2.816,4.813,2.417,4.261,3.287,0,0,SEARCHING,0.000,0.800,0.086,0.069
22:35:54.393,SEARCHING,18.993,6.679,1.714,0.00,-0.00,-134.18,2.749,4.707,2.446,4.239,3.334,0,0,SEARCHING,0.000,0.800,0.081,0.046
22:35:54.594,SEARCHING,18.927,6.610,1.730,0.00,-0.00,-133.89,2.723,4.648,2.396,4.179,3.360,0,0,SEARCHING,0.000,0.800,0.075,0.041
22:35:54.794,SEARCHING,18.860,6.541,1.744,0.00,-0.00,-133.61,2.676,4.558,2.340,4.170,3.373,0,0,SEARCHING,0.000,0.800,0.070,0.042
22:35:54.994,SEARCHING,18.794,6.471,1.758,0.00,-0.00,-133.32,2.611,4.429,2.274,4.139,3.408,0,0,SEARCHING,0.000,0.800,0.066,0.043
22:35:55.195,SEARCHING,18.728,6.401,1.771,0.00,-0.00,-133.01,2.541,4.349,2.160,4.117,3.441,0,0,SEARCHING,0.000,0.800,0.061,0.049
22:35:55.395,SEARCHING,18.663,6.331,1.783,0.00,-0.00,-132.64,2.489,4.237,2.028,4.082,3.464,0,0,SEARCHING,0.000,0.800,0.055,0.062
22:35:55.597,SEARCHING,18.598,6.260,1.793,0.00,-0.00,-132.42,2.447,4.121,4.675,4.086,3.482,0,0,SEARCHING,0.000,0.800,0.052,-0.048
22:35:55.798,SEARCHING,18.533,6.189,1.802,0.00,-0.00,-133.15,2.424,3.990,5.650,4.023,3.544,0,0,SEARCHING,0.000,0.800,0.018,-0.148
22:35:55.998,SEARCHING,18.445,6.097,1.803,0.00,-0.00,-134.66,2.443,4.081,5.702,4.012,3.555,0,0,SEARCHING,0.000,0.800,0.004,-0.177
22:35:56.198,SEARCHING,18.330,5.985,1.803,0.00,-0.00,-136.73,2.501,4.131,5.020,3.969,3.539,0,0,SEARCHING,0.000,0.800,0.001,-0.178
22:35:56.399,SEARCHING,18.212,5.877,1.803,0.00,-0.00,-138.66,2.576,4.369,4.202,3.958,3.426,0,0,SEARCHING,0.000,0.800,0.000,-0.141
22:35:56.600,SEARCHING,18.115,5.794,1.805,0.00,-0.00,-139.89,2.698,5.234,4.305,3.947,3.268,0,0,SEARCHING,0.000,0.800,0.039,-0.119
