timestamp,state,x,y,z,roll_deg,pitch_deg,yaw_deg,dist_left,dist_center,dist_right,dist_top,dist_bottom,dtof_alert,collision_type,best_dir,max_space,cmd_vx,cmd_vz,cmd_yaw,lap,total_hits
01:15:30.985,SEARCHING,0.000,0.000,0.000,0.00,0.00,0.00,10.000,10.000,10.000,10.000,10.000,0,NONE,SEARCHING,0.000,0.526,0.000,0.000,0,0
01:15:31.186,SEARCHING,0.116,0.000,1.000,0.00,0.00,0.00,10.000,10.000,10.000,10.000,10.000,0,NONE,SEARCHING,0.000,0.734,0.000,0.000,0,0
01:15:31.386,SEARCHING,0.268,0.000,1.000,0.00,0.00,0.00,10.000,10.000,10.000,10.000,10.000,0,NONE,SEARCHING,0.000,0.784,0.000,0.000,0,0
01:15:31.586,SEARCHING,0.426,0.000,1.000,0.00,0.00,0.00,10.000,10.000,10.000,10.000,10.000,0,NONE,SEARCHING,0.000,0.796,0.000,0.000,0,0
01:15:31.787,SEARCHING,0.586,0.000,1.000,0.00,0.00,0.00,10.000,10.000,10.000,10.000,10.000,0,NONE,SEARCHING,0.000,0.799,0.000,0.000,0,0
01:15:31.986,SEARCHING,0.746,0.000,1.000,0.00,0.00,0.00,10.000,10.000,10.000,10.000,10.000,0,NONE,SEARCHING,0.000,0.800,0.000,0.000,0,0
01:15:32.207,SEARCHING,0.906,0.000,1.000,0.00,0.00,0.00,10.000,10.000,10.000,10.000,10.000,0,NONE,SEARCHING,0.000,0.800,0.000,0.000,0,0
01:15:32.438,SEARCHING,1.066,0.000,1.000,0.00,0.00,0.00,10.000,10.000,10.000,10.000,10.000,0,NONE,SEARCHING,0.000,0.800,0.000,0.000,0,0
01:15:32.649,SEARCHING,1.226,0.000,1.000,0.00,0.00,0.00,10.000,10.000,10.000,10.000,10.000,0,NONE,SEARCHING,0.000,0.800,0.000,0.000,0,0
01:15:32.854,SEARCHING,1.386,0.000,1.000,0.00,0.00,0.00,10.000,10.000,10.000,10.000,10.000,0,NONE,SEARCHING,0.000,0.800,0.000,0.000,0,0
01:15:33.084,SEARCHING,1.546,0.000,1.000,0.00,0.00,0.00,10.000,10.000,10.000,10.000,10.000,0,NONE,SEARCHING,0.000,0.800,0.000,0.000,0,0
01:15:33.320,SEARCHING,1.706,0.000,1.000,0.00,0.00,0.00,8.077,8.390,7.858,8.339,7.516,0,NONE,SEARCHING,0.000,0.800,0.000,0.001,0,0
01:15:33.532,SEARCHING,1.866,0.000,1.000,0.00,0.00,0.02,8.077,8.390,7.858,8.339,7.516,0,NONE,SEARCHING,0.000,0.800,0.000,0.002,0,0
01:15:33.752,SEARCHING,2.026,0.000,1.000,0.00,0.00,0.05,8.077,8.390,7.858,8.339,7.516,0,NONE,SEARCHING,0.000,0.800,0.000,0.003,0,0
01:15:33.971,SEARCHING,2.186,0.000,1.000,0.00,0.00,0.08,8.077,8.390,7.858,8.339,7.516,0,NONE,SEARCHING,0.000,0.800,0.000,0.003,0,0
01:15:34.191,SEARCHING,2.346,0.001,1.000,0.00,0.00,0.11,8.077,8.390,7.858,8.339,7.516,0,NONE,SEARCHING,0.000,0.800,0.000,0.003,0,0
01:15:34.399,SEARCHING,2.506,0.001,1.000,0.00,0.00,0.14,8.077,8.390,7.858,8.339,7.516,0,NONE,SEARCHING,0.000,0.800,0.000,0.003,0,0
01:15:34.617,SEARCHING,2.666,0.001,1.000,0.00,0.00,0.17,8.077,8.390,7.858,8.339,7.516,0,NONE,SEARCHING,0.000,0.800,0.000,0.003,0,0
01:15:34.816,SEARCHING,2.826,0.002,1.000,0.00,0.00,0.20,8.077,8.390,7.858,8.339,7.516,0,NONE,SEARCHING,0.000,0.800,0.000,0.003,0,0
01:15:35.047,SEARCHING,2.986,0.002,1.000,0.00,0.00,0.23,8.077,8.390,7.858,8.339,7.516,0,NONE,SEARCHING,0.000,0.800,0.000,0.003,0,0
01:15:35.270,SEARCHING,3.146,0.003,1.000,0.00,0.00,0.27,8.077,8.390,7.858,8.339,7.516,0,NONE,SEARCHING,0.000,0.800,0.000,0.003,0,0
01:15:35.484,SEARCHING,3.306,0.004,1.000,0.00,0.00,0.30,8.077,8.390,7.858,8.339,7.516,0,NONE,SEARCHING,0.000,0.800,0.000,0.003,0,0
01:15:35.674,SEARCHING,3.466,0.005,1.000,0.00,0.00,0.33,8.077,8.390,7.858,8.339,7.516,0,NONE,SEARCHING,0.000,0.800,0.000,0.003,0,0
01:15:35.889,SEARCHING,3.626,0.006,1.000,0.00,0.00,0.36,8.077,8.390,7.858,8.339,7.516,0,NONE,SEARCHING,0.000,0.800,0.000,0.003,0,0
01:15:36.095,SEARCHING,3.786,0.007,1.000,0.00,0.00,0.39,8.077,8.390,7.858,8.339,7.516,0,NONE,SEARCHING,0.000,0.800,0.000,0.003,0,0
01:15:36.314,SEARCHING,3.946,0.008,1.000,0.00,0.00,0.42,8.077,8.390,7.858,8.339,7.516,0,NONE,SEARCHING,0.000,0.800,0.000,0.003,0,0
01:15:36.525,SEARCHING,4.106,0.009,1.000,0.00,0.00,0.46,8.077,8.390,7.858,8.339,7.516,0,NONE,SEARCHING,0.000,0.800,0.000,0.003,0,0
01:15:36.740,SEARCHING,4.266,0.010,1.000,0.00,0.00,0.49,8.077,8.390,7.858,8.339,7.516,0,NONE,SEARCHING,0.000,0.800,0.000,0.003,0,0
01:15:36.973,SEARCHING,4.425,0.012,1.000,0.00,0.00,0.52,8.077,8.390,7.858,8.339,7.516,0,NONE,SEARCHING,0.000,0.800,0.000,0.003,0,0
01:15:37.174,SEARCHING,4.585,0.013,1.000,0.00,0.00,0.55,8.077,8.390,7.858,8.339,7.516,0,NONE,SEARCHING,0.000,0.800,0.000,0.003,0,0
01:15:37.394,SEARCHING,4.745,0.015,1.000,0.00,0.00,0.58,8.077,8.390,7.858,8.339,7.516,0,NONE,SEARCHING,0.000,0.800,0.000,0.003,0,0
01:15:37.602,SEARCHING,4.905,0.017,1.000,0.00,0.00,0.61,8.077,8.390,7.858,8.339,7.516,0,NONE,SEARCHING,0.000,0.800,0.000,0.003,0,0
01:15:37.810,SEARCHING,5.065,0.018,1.000,0.00,0.00,0.65,8.077,8.390,7.858,8.339,7.516,0,NONE,SEARCHING,0.000,0.800,0.000,0.003,0,0
01:15:38.020,SEARCHING,5.225,0.020,1.000,0.00,0.00,0.68,8.077,8.390,7.858,8.339,7.516,0,NONE,SEARCHING,0.000,0.800,0.000,0.003,0,0
01:15:38.233,SEARCHING,5.385,0.022,1.000,0.00,0.00,0.71,8.077,8.390,7.858,8.339,7.516,0,NONE,SEARCHING,0.000,0.800,0.000,0.003,0,0
01:15:38.455,SEARCHING,5.545,0.024,1.000,0.00,0.00,0.74,8.077,8.390,7.858,8.339,7.516,0,NONE,SEARCHING,0.000,0.800,0.000,0.003,0,0
01:15:38.665,SEARCHING,5.705,0.026,1.000,0.00,0.00,0.77,8.077,8.390,7.858,8.339,7.516,0,NONE,SEARCHING,0.000,0.800,0.000,0.003,0,0
01:15:38.878,SEARCHING,5.865,0.028,1.000,0.00,0.00,0.80,8.077,8.390,7.858,8.339,7.516,0,NONE,SEARCHING,0.000,0.800,0.000,0.003,0,0
01:15:39.101,SEARCHING,6.025,0.031,1.000,0.00,0.00,0.85,6.931,6.863,6.365,6.836,5.952,0,NONE,SEARCHING,0.000,0.800,0.000,0.008,0,0
01:15:39.305,SEARCHING,6.185,0.033,1.000,0.00,0.00,0.95,6.931,6.863,6.365,6.836,5.952,0,NONE,SEARCHING,0.000,0.800,0.000,0.010,0,0
01:15:39.525,SEARCHING,6.345,0.036,1.000,0.00,0.00,1.06,6.931,6.863,6.365,6.836,5.952,0,NONE,SEARCHING,0.000,0.800,0.000,0.010,0,0
01:15:39.740,SEARCHING,6.505,0.039,1.000,0.00,0.00,1.20,5.972,5.712,5.198,5.693,4.715,0,NONE,SEARCHING,0.000,0.800,0.000,0.017,0,0
01:15:39.959,SEARCHING,6.665,0.043,1.000,0.00,0.00,1.41,5.972,5.712,5.198,5.693,4.715,0,NONE,SEARCHING,0.000,0.800,0.000,0.019,0,0
01:15:40.167,SEARCHING,6.825,0.047,1.000,0.00,0.00,1.63,5.972,5.712,5.198,5.693,4.715,0,NONE,SEARCHING,0.000,0.800,0.000,0.020,0,0
01:15:40.374,SEARCHING,6.985,0.052,1.000,0.00,0.00,1.86,5.972,5.712,5.198,5.693,4.715,0,NONE,SEARCHING,0.000,0.800,0.000,0.020,0,0
01:15:40.585,SEARCHING,7.145,0.057,1.000,0.00,0.00,2.09,5.972,5.712,5.198,5.693,4.715,0,NONE,SEARCHING,0.000,0.800,0.000,0.020,0,0
01:15:40.798,SEARCHING,7.305,0.063,1.000,0.00,0.00,2.31,5.972,5.712,5.198,5.693,4.715,0,NONE,SEARCHING,0.000,0.800,0.000,0.020,0,0
01:15:41.020,SEARCHING,7.465,0.070,1.000,0.00,0.00,2.54,5.972,5.712,5.198,5.693,4.715,0,NONE,SEARCHING,0.000,0.800,0.000,0.020,0,0
01:15:41.213,SEARCHING,7.625,0.077,1.000,0.00,0.00,2.77,5.972,5.712,5.198,5.693,4.715,0,NONE,SEARCHING,0.000,0.800,0.000,0.020,0,0
01:15:41.438,SEARCHING,7.784,0.086,1.000,0.00,0.00,3.00,5.972,5.712,5.198,5.693,4.715,0,NONE,SEARCHING,0.000,0.800,0.000,0.020,0,0
01:15:41.648,SEARCHING,7.944,0.094,1.000,0.00,0.00,3.23,5.972,5.712,5.198,5.693,4.715,0,NONE,SEARCHING,0.000,0.800,0.000,0.020,0,0
01:15:41.867,SEARCHING,8.104,0.103,1.000,0.00,0.00,3.46,5.972,5.712,5.198,5.693,4.715,0,NONE,SEARCHING,0.000,0.800,0.000,0.020,0,0
01:15:42.092,SEARCHING,8.264,0.113,1.000,0.00,0.00,3.69,5.972,5.712,5.198,5.693,4.715,0,NONE,SEARCHING,0.000,0.800,0.000,0.020,0,0
01:15:42.312,SEARCHING,8.423,0.124,1.000,0.00,0.00,3.92,5.972,5.712,5.198,5.693,4.715,0,NONE,SEARCHING,0.000,0.800,0.000,0.020,0,0
01:15:42.528,SEARCHING,8.583,0.135,1.000,0.00,0.00,4.14,5.972,5.712,5.198,5.693,4.715,0,NONE,SEARCHING,0.000,0.800,0.000,0.020,0,0
01:15:42.726,SEARCHING,8.742,0.147,1.000,0.00,0.00,4.37,5.972,5.712,5.198,5.693,4.715,0,NONE,SEARCHING,0.000,0.800,0.000,0.020,0,0
01:15:42.959,SEARCHING,8.902,0.160,1.000,0.00,0.00,4.60,5.972,5.712,5.198,5.693,4.715,0,NONE,SEARCHING,0.000,0.800,0.000,0.020,0,0
01:15:43.218,SEARCHING,9.061,0.173,1.000,0.00,0.00,4.83,5.972,5.712,5.198,5.693,4.715,0,NONE,SEARCHING,0.000,0.800,0.000,0.020,0,0
01:15:43.437,SEARCHING,9.221,0.186,1.000,0.00,0.00,5.06,5.972,5.712,5.198,5.693,4.715,0,NONE,SEARCHING,0.000,0.800,0.000,0.020,0,0
01:15:43.677,SEARCHING,9.380,0.201,1.000,0.00,0.00,5.29,5.972,5.712,5.198,5.693,4.715,0,NONE,SEARCHING,0.000,0.800,0.000,0.020,0,0
01:15:43.884,SEARCHING,9.503,0.204,1.000,0.09,0.11,9.99,5.972,5.712,5.198,5.693,4.715,0,NONE,SEARCHING,0.000,0.800,0.000,0.020,0,0
01:15:44.162,SEARCHING,9.526,0.180,1.001,0.42,0.46,27.44,5.972,5.712,5.198,5.693,4.715,0,NONE,SEARCHING,0.000,0.800,0.000,0.020,0,0
01:15:44.404,SEARCHING,9.556,0.163,1.001,0.61,0.57,45.04,5.972,5.712,5.198,5.693,4.715,0,NONE,SEARCHING,0.000,0.800,0.000,0.020,0,0
01:15:44.678,SEARCHING,9.567,0.159,1.001,1.65,0.78,51.33,5.972,5.712,5.198,5.693,4.715,0,NONE,SEARCHING,0.000,0.800,0.000,0.020,0,0
01:15:44.908,SEARCHING,9.564,0.161,1.000,1.61,0.52,49.54,5.972,5.712,5.198,5.693,4.715,0,NONE,SEARCHING,0.000,0.800,0.000,0.020,0,0
01:15:45.153,SEARCHING,9.567,0.160,1.001,0.80,0.73,50.98,5.972,5.712,5.198,5.693,4.715,0,NONE,SEARCHING,0.000,0.800,0.000,0.020,0,0
01:15:45.416,SEARCHING,9.567,0.160,1.001,0.80,0.78,50.98,5.972,5.712,5.198,5.693,4.715,0,NONE,SEARCHING,0.000,0.800,0.000,0.020,0,0
01:15:45.652,SEARCHING,9.567,0.160,1.001,0.80,0.80,50.98,5.972,5.712,5.198,5.693,4.715,0,NONE,SEARCHING,0.000,0.800,0.000,0.020,0,0
01:15:45.905,SEARCHING,9.567,0.160,1.001,0.80,0.82,50.98,5.972,5.712,5.198,5.693,4.715,0,NONE,SEARCHING,0.000,0.800,0.000,0.020,0,0
01:15:46.139,SEARCHING,9.567,0.160,1.001,0.80,0.82,50.98,5.972,5.712,5.198,5.693,4.715,0,NONE,SEARCHING,0.000,0.800,0.000,0.020,0,0
01:15:46.374,SEARCHING,9.567,0.160,1.001,0.80,0.83,50.98,5.972,5.712,5.198,5.693,4.715,0,NONE,SEARCHING,0.000,0.800,0.000,0.020,0,0
01:15:46.592,SEARCHING,9.567,0.160,1.001,0.80,0.83,50.98,5.972,5.712,5.198,5.693,4.715,0,NONE,SEARCHING,0.000,0.800,0.000,0.020,0,0
01:15:46.891,SEARCHING,9.567,0.160,1.001,0.80,0.83,50.98,5.972,5.712,5.198,5.693,4.715,0,NONE,SEARCHING,0.000,0.800,0.000,0.020,0,0
01:15:47.151,SEARCHING,9.567,0.160,1.001,0.80,0.83,50.98,5.972,5.712,5.198,5.693,4.715,0,NONE,SEARCHING,0.000,0.800,0.000,0.020,0,0
01:15:47.417,SEARCHING,9.567,0.160,1.001,0.80,0.83,50.98,5.972,5.712,5.198,5.693,4.715,0,NONE,SEARCHING,0.000,0.800,0.000,0.020,0,0
01:15:47.680,SEARCHING,9.567,0.160,1.001,0.80,0.83,50.98,5.972,5.712,5.198,5.693,4.715,0,NONE,SEARCHING,0.000,0.800,0.000,0.020,0,0
01:15:47.901,SEARCHING,9.567,0.160,1.001,0.80,0.83,50.98,5.972,5.712,5.198,5.693,4.715,0,NONE,SEARCHING,0.000,0.800,0.000,0.020,0,0
01:15:48.137,SEARCHING,9.567,0.160,1.001,0.80,0.83,50.98,5.972,5.712,5.198,5.693,4.715,0,NONE,SEARCHING,0.000,0.800,0.000,0.020,0,0
01:15:48.395,SEARCHING,9.567,0.160,1.001,0.80,0.83,50.98,5.972,5.712,5.198,5.693,4.715,0,NONE,SEARCHING,0.000,0.800,0.000,0.020,0,0
01:15:48.625,SEARCHING,9.566,0.160,1.001,0.80,0.83,50.98,5.972,5.712,5.198,5.693,4.715,0,NONE,SEARCHING,0.000,0.800,0.000,0.020,0,0
01:15:48.936,SEARCHING,9.566,0.160,1.001,0.80,0.83,50.98,4.407,4.205,6.639,4.188,3.500,0,NONE,SEARCHING,0.000,0.800,0.017,-0.004,0,0
01:15:49.172,SEARCHING,9.566,0.160,1.006,0.80,0.83,50.98,4.407,4.205,6.639,4.188,3.500,0,NONE,SEARCHING,0.000,0.800,0.047,-0.047,0,0
01:15:49.410,SEARCHING,9.567,0.160,1.016,0.80,0.83,50.98,4.407,4.205,6.639,4.188,3.500,0,NONE,SEARCHING,0.000,0.800,0.054,-0.058,0,0
01:15:49.648,SEARCHING,9.567,0.160,1.027,0.80,0.82,50.98,4.407,4.205,6.639,4.188,3.500,0,NONE,SEARCHING,0.000,0.800,0.056,-0.060,0,0
01:15:49.895,SEARCHING,9.567,0.160,1.038,0.80,0.82,50.98,4.407,4.205,6.639,4.188,3.500,0,NONE,SEARCHING,0.000,0.800,0.056,-0.061,0,0
01:15:50.131,SEARCHING,9.567,0.160,1.049,0.80,0.82,50.98,4.407,4.205,6.639,4.188,3.500,0,NONE,SEARCHING,0.000,0.800,0.056,-0.061,0,0
01:15:50.369,SEARCHING,9.567,0.160,1.060,0.80,0.82,50.98,4.407,4.205,6.639,4.188,3.500,0,NONE,SEARCHING,0.000,0.800,0.056,-0.061,0,0
01:15:50.626,SEARCHING,9.567,0.160,1.072,0.80,0.82,50.98,4.407,4.205,6.639,4.188,3.500,0,NONE,SEARCHING,0.000,0.800,0.056,-0.061,0,0
01:15:50.896,SEARCHING,9.567,0.160,1.083,0.80,0.82,50.98,4.407,4.205,6.639,4.188,3.500,0,NONE,SEARCHING,0.000,0.800,0.056,-0.061,0,0
01:15:51.115,SEARCHING,9.567,0.160,1.094,0.80,0.82,50.98,4.407,4.205,6.639,4.188,3.500,0,NONE,SEARCHING,0.000,0.800,0.056,-0.061,0,0
01:15:51.378,SEARCHING,9.567,0.160,1.106,0.80,0.82,50.98,4.407,4.205,6.639,4.188,3.500,0,NONE,SEARCHING,0.000,0.800,0.056,-0.061,0,0
01:15:51.651,SEARCHING,9.567,0.160,1.117,0.80,0.82,50.98,4.407,4.205,6.639,4.188,3.500,0,NONE,SEARCHING,0.000,0.800,0.056,-0.061,0,0
01:15:51.894,SEARCHING,9.567,0.160,1.128,0.80,0.82,50.98,4.407,4.205,6.639,4.188,3.500,0,NONE,SEARCHING,0.000,0.800,0.056,-0.061,0,0
01:15:52.160,SEARCHING,9.567,0.160,1.139,0.80,0.82,50.98,4.407,4.205,6.639,4.188,3.500,0,NONE,SEARCHING,0.000,0.800,0.056,-0.061,0,0
01:15:52.393,SEARCHING,9.567,0.160,1.152,0.80,0.82,50.98,3.478,3.390,4.835,3.374,2.662,0,NONE,SEARCHING,0.000,0.800,0.082,-0.063,0,0
01:15:52.669,SEARCHING,9.567,0.160,1.169,0.80,0.82,50.98,3.478,3.390,4.835,3.374,2.662,0,NONE,SEARCHING,0.000,0.800,0.092,-0.064,0,0
01:15:52.931,SEARCHING,9.567,0.160,1.188,0.80,0.82,50.98,3.478,3.390,4.835,3.374,2.662,0,NONE,SEARCHING,0.000,0.800,0.094,-0.064,0,0
01:15:53.172,SEARCHING,9.567,0.160,1.207,0.80,0.82,50.98,3.478,3.390,4.835,3.374,2.662,0,NONE,SEARCHING,0.000,0.800,0.095,-0.065,0,0
01:15:53.409,SEARCHING,9.567,0.160,1.225,0.80,0.82,50.98,3.478,3.390,4.835,3.374,2.662,0,NONE,SEARCHING,0.000,0.800,0.095,-0.065,0,0
01:15:53.670,SEARCHING,9.567,0.160,1.245,0.80,0.82,50.98,5.251,2.819,6.385,2.807,2.092,0,NONE,SEARCHING,0.000,0.800,0.110,-0.053,0,0
01:15:53.891,SEARCHING,9.567,0.160,1.269,0.80,0.82,50.98,5.251,2.819,6.385,2.807,2.092,0,NONE,SEARCHING,0.000,0.800,0.138,-0.033,0,0
01:15:54.192,SEARCHING,9.567,0.160,1.298,0.80,0.82,50.98,4.233,2.418,4.584,2.394,1.692,0,NONE,SEARCHING,0.000,0.800,0.163,-0.025,0,0
01:15:54.439,SEARCHING,9.567,0.160,1.332,0.80,0.82,50.98,4.233,2.418,4.584,2.394,1.692,0,NONE,SEARCHING,0.000,0.800,0.197,-0.017,0,0
01:15:54.706,SEARCHING,9.567,0.160,1.373,0.80,0.83,50.98,3.621,2.110,3.329,2.122,1.421,0,NONE,SEARCHING,0.000,0.800,0.226,-0.005,0,0
01:15:54.955,SEARCHING,9.567,0.160,1.422,0.80,0.83,50.98,3.621,2.110,3.329,2.122,1.421,0,NONE,SEARCHING,0.000,0.800,0.266,0.014,0,0
01:15:55.202,SEARCHING,9.567,0.160,1.475,0.80,0.83,50.98,3.621,2.110,3.329,2.122,1.421,0,NONE,SEARCHING,0.000,0.800,0.276,0.018,0,0
01:15:55.460,SEARCHING,9.567,0.160,1.530,0.80,0.83,50.98,3.621,2.110,3.329,2.122,1.421,0,NONE,SEARCHING,0.000,0.800,0.278,0.019,0,0
01:15:55.696,SEARCHING,9.567,0.160,1.586,0.80,0.83,50.98,3.621,2.110,3.329,2.122,1.421,0,NONE,SEARCHING,0.000,0.800,0.279,0.019,0,0
01:15:55.942,SEARCHING,9.567,0.160,1.641,0.80,0.83,50.98,3.621,2.110,3.329,2.122,1.421,0,NONE,SEARCHING,0.000,0.800,0.279,0.019,0,0
01:15:56.191,SEARCHING,9.567,0.160,1.699,0.80,0.83,50.98,3.621,2.110,3.329,2.122,1.421,0,NONE,SEARCHING,0.000,0.800,0.279,0.019,0,0
01:15:56.417,SEARCHING,9.567,0.160,1.754,0.80,0.83,50.98,3.621,2.110,3.329,2.122,1.421,0,NONE,SEARCHING,0.000,0.800,0.279,0.019,0,0
01:15:56.688,SEARCHING,9.567,0.160,1.809,0.80,0.83,50.98,3.621,2.110,3.329,2.122,1.421,0,NONE,SEARCHING,0.000,0.800,0.279,0.019,0,0
01:15:58.903,SEARCHING,9.567,0.160,1.863,0.80,0.83,50.98,3.621,2.110,3.329,2.122,1.421,0,NONE,SEARCHING,0.000,0.800,0.279,0.019,0,0
01:15:59.141,SEARCHING,9.567,0.160,1.918,0.80,0.83,50.98,5.031,1.927,2.484,1.932,1.441,0,NONE,SEARCHING,0.000,0.800,0.234,0.114,0,0
01:15:59.389,SEARCHING,9.567,0.160,1.964,0.80,0.84,50.98,5.031,1.927,2.484,1.932,1.441,0,NONE,SEARCHING,0.000,0.800,0.217,0.151,0,0
01:15:59.643,SEARCHING,9.567,0.160,2.007,0.80,0.84,50.98,5.031,1.927,2.484,1.932,1.441,0,NONE,SEARCHING,0.000,0.800,0.213,0.160,0,0
01:15:59.903,SEARCHING,9.567,0.160,2.048,0.80,0.84,50.98,5.448,1.797,4.739,1.801,1.459,0,NONE,SEARCHING,0.000,0.800,0.175,0.070,0,0
01:16:00.151,SEARCHING,9.567,0.160,2.082,0.80,0.84,50.98,5.448,1.797,4.739,1.801,1.459,0,NONE,SEARCHING,0.000,0.800,0.161,0.033,0,0
01:16:00.431,SEARCHING,9.567,0.160,2.113,0.80,0.83,50.98,5.448,1.797,4.739,1.801,1.459,0,NONE,SEARCHING,0.000,0.800,0.157,0.025,0,0
01:16:00.660,SEARCHING,9.567,0.160,2.145,0.80,0.83,50.98,5.448,1.797,4.739,1.801,1.459,0,NONE,SEARCHING,0.000,0.800,0.156,0.023,0,0
01:16:00.897,SEARCHING,9.567,0.160,2.176,0.80,0.83,50.98,5.448,1.797,4.739,1.801,1.459,0,NONE,SEARCHING,0.000,0.800,0.156,0.022,0,0
01:16:01.126,SEARCHING,9.567,0.160,2.207,0.80,0.83,50.98,5.448,1.797,4.739,1.801,1.459,0,NONE,SEARCHING,0.000,0.800,0.156,0.022,0,0
01:16:01.372,SEARCHING,9.567,0.160,2.238,0.80,0.83,50.98,5.448,1.797,4.739,1.801,1.459,0,NONE,SEARCHING,0.000,0.800,0.156,0.022,0,0
01:16:01.614,SEARCHING,9.567,0.160,2.270,0.80,0.83,50.98,5.448,1.797,4.739,1.801,1.459,0,NONE,SEARCHING,0.000,0.800,0.156,0.022,0,0
01:16:01.844,SEARCHING,9.567,0.160,2.300,0.80,0.83,50.98,5.448,1.797,4.739,1.801,1.459,0,NONE,SEARCHING,0.000,0.800,0.156,0.022,0,0
01:16:02.089,SEARCHING,9.567,0.160,2.332,0.80,0.83,50.98,5.448,1.797,4.739,1.801,1.459,0,NONE,SEARCHING,0.000,0.800,0.156,0.022,0,0
01:16:02.359,SEARCHING,9.567,0.160,2.363,0.80,0.83,50.98,5.448,1.797,4.739,1.801,1.459,0,NONE,SEARCHING,0.000,0.800,0.156,0.022,0,0
01:16:02.597,SEARCHING,9.567,0.160,2.394,0.80,0.83,50.98,5.448,1.797,4.739,1.801,1.459,0,NONE,SEARCHING,0.000,0.800,0.156,0.022,0,0
01:16:02.847,SEARCHING,9.567,0.160,2.426,0.80,0.83,50.98,5.448,1.797,4.739,1.801,1.459,0,NONE,SEARCHING,0.000,0.800,0.156,0.022,0,0
01:16:03.123,SEARCHING,9.567,0.160,2.457,0.80,0.83,50.98,5.448,1.797,4.739,1.801,1.459,0,NONE,SEARCHING,0.000,0.800,0.156,0.022,0,0
01:16:03.358,SEARCHING,9.567,0.160,2.488,0.80,0.83,50.98,5.448,1.797,4.739,1.801,1.459,0,NONE,SEARCHING,0.000,0.800,0.156,0.022,0,0
01:16:03.632,SEARCHING,9.567,0.160,2.519,0.80,0.83,50.98,5.448,1.797,4.739,1.801,1.459,0,NONE,SEARCHING,0.000,0.800,0.156,0.022,0,0
01:16:03.867,SEARCHING,9.567,0.160,2.550,0.80,0.83,50.98,5.448,1.797,4.739,1.801,1.459,0,NONE,SEARCHING,0.000,0.800,0.156,0.022,0,0
01:16:04.104,SEARCHING,9.567,0.160,2.582,0.80,0.83,50.98,5.448,1.797,4.739,1.801,1.459,0,NONE,SEARCHING,0.000,0.800,0.156,0.022,0,0
01:16:04.366,SEARCHING,9.567,0.160,2.613,0.80,0.83,50.98,5.448,1.797,4.739,1.801,1.459,0,NONE,SEARCHING,0.000,0.800,0.156,0.022,0,0
01:16:04.624,SEARCHING,9.567,0.160,2.643,0.80,0.83,50.98,5.448,1.797,4.739,1.801,1.459,0,NONE,SEARCHING,0.000,0.800,0.156,0.022,0,0
01:16:04.867,SEARCHING,9.567,0.160,2.675,0.80,0.83,50.98,5.448,1.797,4.739,1.801,1.459,0,NONE,SEARCHING,0.000,0.800,0.156,0.022,0,0
01:16:05.143,SEARCHING,9.567,0.160,2.706,0.80,0.83,50.98,5.448,1.797,4.739,1.801,1.459,0,NONE,SEARCHING,0.000,0.800,0.156,0.022,0,0
01:16:05.401,SEARCHING,9.567,0.160,2.737,0.80,0.83,50.98,5.448,1.797,4.739,1.801,1.459,0,NONE,SEARCHING,0.000,0.800,0.156,0.022,0,0
01:16:05.679,SEARCHING,9.567,0.160,2.769,0.80,0.83,50.98,5.448,1.797,4.739,1.801,1.459,0,NONE,SEARCHING,0.000,0.800,0.156,0.022,0,0
01:16:05.948,SEARCHING,9.566,0.160,2.800,0.80,0.83,50.98,5.448,1.797,4.739,1.801,1.459,0,NONE,SEARCHING,0.000,0.800,0.156,0.022,0,0
01:16:06.180,SEARCHING,9.566,0.160,2.831,0.80,0.83,50.98,5.448,1.797,4.739,1.801,1.459,0,NONE,SEARCHING,0.000,0.800,0.156,0.022,0,0
01:16:06.402,SEARCHING,9.566,0.160,2.862,0.80,0.83,50.98,5.448,1.797,4.739,1.801,1.459,0,NONE,SEARCHING,0.000,0.800,0.156,0.022,0,0
01:16:06.678,SEARCHING,9.566,0.160,2.893,0.80,0.83,50.98,5.448,1.797,4.739,1.801,1.459,0,NONE,SEARCHING,0.000,0.800,0.156,0.022,0,0
01:16:06.939,SEARCHING,9.566,0.160,2.925,0.80,0.83,50.98,5.448,1.797,4.739,1.801,1.459,0,NONE,SEARCHING,0.000,0.800,0.156,0.022,0,0
01:16:07.202,SEARCHING,9.566,0.160,2.956,0.80,0.83,50.98,5.448,1.797,4.739,1.801,1.459,0,NONE,SEARCHING,0.000,0.800,0.156,0.022,0,0
01:16:07.444,SEARCHING,9.566,0.160,2.987,0.80,0.83,50.98,5.448,1.797,4.739,1.801,1.459,0,NONE,SEARCHING,0.000,0.800,0.156,0.022,0,0
01:16:07.713,SEARCHING,9.566,0.160,3.017,0.80,0.83,50.98,5.448,1.797,4.739,1.801,1.459,0,NONE,SEARCHING,0.000,0.800,0.156,0.022,0,0
01:16:07.991,SEARCHING,9.566,0.160,3.049,0.80,0.83,50.98,5.448,1.797,4.739,1.801,1.459,0,NONE,SEARCHING,0.000,0.800,0.156,0.022,0,0
01:16:08.256,SEARCHING,9.566,0.160,3.080,0.80,0.83,50.98,5.448,1.797,4.739,1.801,1.459,0,NONE,SEARCHING,0.000,0.800,0.156,0.022,0,0
01:16:08.470,SEARCHING,9.567,0.161,3.111,0.80,0.00,50.97,5.448,1.797,4.739,1.801,1.459,0,NONE,SEARCHING,0.000,0.800,0.156,0.022,0,0
01:16:08.729,SEARCHING,9.567,0.161,3.143,0.80,0.00,50.97,5.448,1.797,4.739,1.801,1.459,0,NONE,SEARCHING,0.000,0.800,0.156,0.022,0,0
01:16:09.032,SEARCHING,9.567,0.161,3.174,0.80,0.00,50.97,5.448,1.797,4.739,1.801,1.459,0,NONE,SEARCHING,0.000,0.800,0.156,0.022,0,0
01:16:09.275,SEARCHING,9.567,0.161,3.205,0.80,0.00,50.97,5.448,1.797,4.739,1.801,1.459,0,NONE,SEARCHING,0.000,0.800,0.156,0.022,0,0
01:16:09.506,SEARCHING,9.567,0.160,3.226,0.00,0.00,50.97,5.448,1.797,4.739,1.801,1.459,0,NONE,SEARCHING,0.000,0.800,0.156,0.022,0,0
01:16:09.757,SEARCHING,9.567,0.160,3.226,0.00,0.00,50.97,5.448,1.797,4.739,1.801,1.459,0,NONE,SEARCHING,0.000,0.800,0.156,0.022,0,0
01:16:10.008,SEARCHING,9.567,0.160,3.226,0.00,0.00,50.97,5.448,1.797,4.739,1.801,1.459,0,NONE,SEARCHING,0.000,0.800,0.156,0.022,0,0
01:16:10.261,SEARCHING,9.567,0.160,3.226,0.00,0.00,50.97,5.448,1.797,4.739,1.801,1.459,0,NONE,SEARCHING,0.000,0.800,0.156,0.022,0,0
01:16:10.528,SEARCHING,9.567,0.160,3.226,0.00,0.00,50.97,5.448,1.797,4.739,1.801,1.459,0,NONE,SEARCHING,0.000,0.800,0.156,0.022,0,0
01:16:10.748,SEARCHING,9.566,0.161,3.514,0.01,0.00,50.97,5.448,1.797,4.739,1.801,1.459,0,NONE,SEARCHING,0.000,0.800,0.156,0.022,0,0
01:16:10.995,SEARCHING,9.566,0.161,3.514,0.00,0.00,50.97,5.448,1.797,4.739,1.801,1.459,0,NONE,SEARCHING,0.000,0.800,0.156,0.022,0,0
01:16:11.251,SEARCHING,9.566,0.161,3.514,0.00,0.00,50.97,5.448,1.797,4.739,1.801,1.459,0,NONE,SEARCHING,0.000,0.800,0.156,0.022,0,0
01:16:11.499,SEARCHING,9.566,0.161,3.514,0.00,0.00,50.97,6.814,1.698,6.317,1.703,4.021,0,NONE,SEARCHING,0.000,0.800,-0.013,0.018,0,0
01:16:11.751,SEARCHING,9.566,0.161,3.512,0.00,0.00,50.97,6.814,1.698,6.317,1.703,4.021,0,NONE,SEARCHING,0.000,0.800,-0.312,0.011,0,0
01:16:11.990,SEARCHING,9.566,0.161,3.221,0.00,0.00,50.97,6.814,1.698,6.317,1.703,4.021,0,NONE,SEARCHING,0.000,0.800,-0.383,0.010,0,0
01:16:12.228,SEARCHING,9.566,0.161,3.222,0.00,0.00,50.97,6.814,1.698,6.317,1.703,4.021,0,NONE,SEARCHING,0.000,0.800,-0.401,0.009,0,0
01:16:12.443,SEARCHING,9.566,0.161,3.147,0.00,0.00,50.97,6.814,1.698,6.317,1.703,4.021,0,NONE,SEARCHING,0.000,0.800,-0.405,0.009,0,0
01:16:12.679,SEARCHING,9.566,0.161,3.066,0.00,0.00,50.97,6.814,1.698,6.317,1.703,4.021,0,NONE,SEARCHING,0.000,0.800,-0.406,0.009,0,0
01:16:12.917,SEARCHING,9.566,0.161,2.984,0.00,0.00,50.97,6.814,1.698,6.317,1.703,4.021,0,NONE,SEARCHING,0.000,0.800,-0.406,0.009,0,0
01:16:13.201,SEARCHING,9.566,0.161,2.905,0.00,0.00,50.97,6.814,1.698,6.317,1.703,4.021,0,NONE,SEARCHING,0.000,0.800,-0.406,0.009,0,0
01:16:13.455,SEARCHING,9.566,0.161,2.824,0.00,0.00,50.97,6.814,1.698,6.317,1.703,4.021,0,NONE,SEARCHING,0.000,0.800,-0.406,0.009,0,0
01:16:13.733,SEARCHING,9.566,0.161,2.741,0.00,0.00,50.97,5.497,1.635,7.422,1.567,3.027,0,NONE,SEARCHING,0.000,0.800,-0.395,-0.005,0,0
01:16:13.981,SEARCHING,9.566,0.161,2.664,0.00,-0.00,50.97,5.497,1.635,7.422,1.567,3.027,0,NONE,SEARCHING,0.000,0.800,-0.375,-0.030,0,0
01:16:14.222,SEARCHING,9.566,0.161,2.589,0.00,-0.00,50.97,5.497,1.635,7.422,1.567,3.027,0,NONE,SEARCHING,0.000,0.800,-0.371,-0.036,0,0
01:16:14.459,SEARCHING,9.566,0.161,2.516,0.00,-0.00,50.97,5.497,1.635,7.422,1.567,3.027,0,NONE,SEARCHING,0.000,0.800,-0.370,-0.037,0,0
01:16:14.739,SEARCHING,9.566,0.161,2.440,0.00,-0.00,50.97,5.497,1.635,7.422,1.567,3.027,0,NONE,SEARCHING,0.000,0.800,-0.369,-0.038,0,0
01:16:14.995,SEARCHING,9.566,0.161,2.367,0.00,-0.00,50.97,5.497,1.635,7.422,1.567,3.027,0,NONE,SEARCHING,0.000,0.800,-0.369,-0.038,0,0
01:16:15.255,SEARCHING,9.566,0.161,2.293,0.00,-0.00,50.97,5.497,1.635,7.422,1.567,3.027,0,NONE,SEARCHING,0.000,0.800,-0.369,-0.038,0,0
01:16:15.533,SEARCHING,9.566,0.161,2.219,0.00,-0.00,50.97,5.497,1.635,7.422,1.567,3.027,0,NONE,SEARCHING,0.000,0.800,-0.369,-0.038,0,0
01:16:15.799,SEARCHING,9.566,0.161,2.147,0.00,-0.00,50.97,5.497,1.635,7.422,1.567,3.027,0,NONE,SEARCHING,0.000,0.800,-0.369,-0.038,0,0
01:16:16.066,SEARCHING,9.566,0.161,2.072,0.00,-0.00,50.97,5.497,1.635,7.422,1.567,3.027,0,NONE,SEARCHING,0.000,0.800,-0.369,-0.038,0,0
01:16:16.312,SEARCHING,9.566,0.161,1.998,0.00,-0.00,50.97,5.497,1.635,7.422,1.567,3.027,0,NONE,SEARCHING,0.000,0.800,-0.369,-0.038,0,0
01:16:16.579,SEARCHING,9.566,0.161,1.924,0.00,-0.00,50.97,5.497,1.635,7.422,1.567,3.027,0,NONE,SEARCHING,0.000,0.800,-0.369,-0.038,0,0
01:16:16.839,SEARCHING,9.566,0.161,1.849,0.00,-0.00,50.97,5.497,1.635,7.422,1.567,3.027,0,NONE,SEARCHING,0.000,0.800,-0.369,-0.038,0,0
01:16:17.096,SEARCHING,9.566,0.161,1.776,0.00,-0.00,50.97,5.497,1.635,7.422,1.567,3.027,0,NONE,SEARCHING,0.000,0.800,-0.369,-0.038,0,0
01:16:17.353,SEARCHING,9.566,0.161,1.702,0.00,-0.00,50.97,5.497,1.635,7.422,1.567,3.027,0,NONE,SEARCHING,0.000,0.800,-0.369,-0.038,0,0
01:16:17.590,SEARCHING,9.566,0.161,1.629,0.00,-0.00,50.97,5.497,1.635,7.422,1.567,3.027,0,NONE,SEARCHING,0.000,0.800,-0.369,-0.038,0,0
01:16:17.842,SEARCHING,9.567,0.161,1.555,0.00,-0.00,50.97,5.497,1.635,7.422,1.567,3.027,0,NONE,SEARCHING,0.000,0.800,-0.369,-0.038,0,0
01:16:18.118,SEARCHING,9.567,0.161,1.481,0.00,-0.00,50.97,5.497,1.635,7.422,1.567,3.027,0,NONE,SEARCHING,0.000,0.800,-0.369,-0.038,0,0
01:16:18.352,SEARCHING,9.567,0.161,1.407,0.00,-0.00,50.97,5.497,1.635,7.422,1.567,3.027,0,NONE,SEARCHING,0.000,0.800,-0.369,-0.038,0,0
01:16:18.588,SEARCHING,9.567,0.161,1.334,0.00,-0.00,50.97,5.497,1.635,7.422,1.567,3.027,0,NONE,SEARCHING,0.000,0.800,-0.369,-0.038,0,0
01:16:18.852,SEARCHING,9.567,0.161,1.259,0.00,-0.00,50.97,5.497,1.635,7.422,1.567,3.027,0,NONE,SEARCHING,0.000,0.800,-0.369,-0.038,0,0
01:16:19.106,SEARCHING,9.567,0.161,1.187,0.00,-0.00,50.97,5.497,1.635,7.422,1.567,3.027,0,NONE,SEARCHING,0.000,0.800,-0.369,-0.038,0,0
01:16:19.361,SEARCHING,9.567,0.161,1.113,0.00,-0.00,50.97,5.497,1.635,7.422,1.567,3.027,0,NONE,SEARCHING,0.000,0.800,-0.369,-0.038,0,0
01:16:19.593,SEARCHING,9.567,0.161,1.039,0.00,-0.00,50.97,5.497,1.635,7.422,1.567,3.027,0,NONE,SEARCHING,0.000,0.800,-0.369,-0.038,0,0
01:16:19.863,SEARCHING,9.567,0.161,0.964,0.00,-0.00,50.97,5.497,1.635,7.422,1.567,3.027,0,NONE,SEARCHING,0.000,0.800,-0.369,-0.038,0,0
01:16:20.092,SEARCHING,9.567,0.161,0.891,0.00,-0.00,50.97,5.497,1.635,7.422,1.567,3.027,0,NONE,SEARCHING,0.000,0.800,-0.369,-0.038,0,0
01:16:20.330,SEARCHING,9.567,0.160,0.816,0.00,-0.00,50.97,5.497,1.635,7.422,1.567,3.027,0,NONE,SEARCHING,0.000,0.800,-0.369,-0.038,0,0
01:16:20.602,SEARCHING,9.567,0.160,0.742,0.00,-0.00,50.97,5.497,1.635,7.422,1.567,3.027,0,NONE,SEARCHING,0.000,0.800,-0.369,-0.038,0,0
01:16:20.855,SEARCHING,9.567,0.160,0.670,0.00,-0.00,50.97,5.497,1.635,7.422,1.567,3.027,0,NONE,SEARCHING,0.000,0.800,-0.369,-0.038,0,0
01:16:21.101,SEARCHING,9.567,0.160,0.594,0.00,-0.00,50.97,5.497,1.635,7.422,1.567,3.027,0,NONE,SEARCHING,0.000,0.800,-0.369,-0.038,0,0
01:16:21.346,SEARCHING,9.567,0.160,0.520,0.00,-0.00,50.97,5.497,1.635,7.422,1.567,3.027,0,NONE,SEARCHING,0.000,0.800,-0.369,-0.038,0,0
01:16:21.611,SEARCHING,9.567,0.160,0.446,0.00,-0.00,50.97,5.497,1.635,7.422,1.567,3.027,0,NONE,SEARCHING,0.000,0.800,-0.369,-0.038,0,0
01:16:21.841,SEARCHING,9.567,0.160,0.373,0.00,-0.00,50.97,5.497,1.635,7.422,1.567,3.027,0,NONE,SEARCHING,0.000,0.800,-0.369,-0.038,0,0
01:16:22.094,SEARCHING,9.567,0.160,0.301,0.00,-0.00,50.97,5.497,1.635,7.422,1.567,3.027,0,NONE,SEARCHING,0.000,0.800,-0.369,-0.038,0,0
01:16:22.370,SEARCHING,9.567,0.160,0.235,-0.00,-0.00,50.97,4.539,1.589,5.374,1.387,5.119,0,NONE,SEARCHING,0.000,0.800,-0.541,-0.031,0,0
01:16:22.619,SEARCHING,9.567,0.160,0.235,-0.00,-0.00,50.97,4.539,1.589,5.374,1.387,5.119,0,NONE,SEARCHING,0.000,0.800,-0.609,-0.028,0,0
01:16:22.948,SEARCHING,9.567,0.160,0.035,0.00,0.00,50.62,3.472,1.531,4.913,1.428,7.608,0,NONE,SEARCHING,0.000,0.781,-0.641,-0.040,0,0
01:16:23.270,SEARCHING,9.568,0.159,0.035,0.00,0.00,50.51,3.209,1.517,3.617,1.446,5.770,0,NONE,SEARCHING,0.000,0.716,-0.633,-0.035,0,0
01:16:23.587,SEARCHING,9.567,0.159,0.035,0.00,0.00,50.27,2.833,1.342,2.037,1.302,6.130,0,NONE,SEARCHING,0.000,0.551,-0.676,0.032,0,0
01:16:23.907,SEARCHING,9.568,0.159,0.035,0.00,0.00,49.88,2.651,1.196,1.322,1.007,6.301,0,NONE,SEARCHING,0.000,0.413,-0.694,0.182,0,0
01:16:24.243,SEARCHING,9.570,0.165,0.053,-0.32,-0.90,48.98,2.558,1.202,0.971,1.103,6.399,0,NONE,SEARCHING,0.000,0.299,-0.699,0.374,0,0
01:16:24.551,SEARCHING,9.562,0.167,-0.033,1.45,-0.35,44.88,2.509,1.285,0.859,1.208,4.922,0,NONE,SEARCHING,0.000,0.288,-0.700,0.545,0,0
01:16:24.875,INSPECTING,9.556,0.168,0.055,-0.16,-0.94,40.44,1.713,1.135,0.731,1.331,5.543,0,WALL,INSPECT_UP,0.000,0.000,0.255,0.000,0,1
01:16:25.182,INSPECTING,9.552,0.159,0.238,-0.05,0.38,38.54,1.552,1.076,3.531,1.176,5.815,0,WALL,INSPECT_UP,0.000,0.000,0.441,0.000,0,1
01:16:25.452,INSPECTING,9.554,0.160,0.241,-0.40,0.32,40.94,1.552,1.076,3.531,1.176,5.815,0,WALL,INSPECT_UP,0.000,0.000,0.486,0.000,0,1
01:16:25.727,INSPECTING,9.554,0.162,0.333,-0.84,0.96,42.84,1.552,1.076,3.531,1.176,5.815,0,WALL,INSPECT_UP,0.000,0.000,0.497,0.000,0,1
01:16:25.971,INSPECTING,9.556,0.163,0.430,-1.35,0.06,44.22,1.552,1.076,3.531,1.176,5.815,0,WALL,INSPECT_UP,0.000,0.000,0.499,0.000,0,1
01:16:26.213,INSPECTING,9.556,0.164,0.532,-1.74,0.80,45.35,1.552,1.076,3.531,1.176,5.815,0,WALL,INSPECT_UP,0.000,0.000,0.500,0.000,0,1
01:16:26.464,INSPECTING,9.556,0.164,0.629,-2.13,0.34,46.23,1.552,1.076,3.531,1.176,5.815,0,WALL,INSPECT_UP,0.000,0.000,0.500,0.000,0,1
01:16:26.713,INSPECTING,9.557,0.165,0.733,-2.50,0.10,46.93,1.552,1.076,3.531,1.176,5.815,0,WALL,INSPECT_UP,0.000,0.000,0.500,0.000,0,1
01:16:26.972,INSPECTING,9.557,0.165,0.832,-2.86,0.07,47.50,1.552,1.076,3.531,1.176,5.815,0,WALL,INSPECT_UP,0.000,0.000,0.500,0.000,0,1
01:16:27.245,INSPECTING,9.556,0.165,0.915,-3.24,0.02,47.02,1.552,1.076,3.531,1.176,5.815,0,WALL,INSPECT_SW_L_HI,0.000,0.000,0.000,-0.510,0,1
01:16:27.491,INSPECTING,9.551,0.166,0.915,-3.06,0.08,41.84,1.552,1.076,3.531,1.176,5.815,0,WALL,INSPECT_SW_L_HI,0.000,0.000,0.000,-0.882,0,1
01:16:27.729,INSPECTING,9.542,0.166,0.915,-2.98,0.08,35.25,1.552,1.076,3.531,1.176,5.815,0,WALL,INSPECT_SW_L_HI,0.000,0.000,0.000,-0.972,0,1
01:16:27.976,INSPECTING,9.534,0.168,0.915,-2.85,0.09,28.60,1.552,1.076,3.531,1.176,5.815,0,WALL,INSPECT_SW_L_HI,0.000,0.000,0.000,-0.993,0,1
01:16:28.264,INSPECTING,9.525,0.171,0.915,-2.74,0.11,22.19,4.087,3.753,5.471,1.555,7.070,0,WALL,INSPECT_SW_L_HI,0.000,0.000,0.000,-0.998,0,1
01:16:28.515,INSPECTING,9.516,0.175,0.915,-2.67,0.11,16.00,4.087,3.753,5.471,1.555,7.070,0,WALL,INSPECT_SW_L_HI,0.000,0.000,0.000,-1.000,0,1
01:16:28.774,INSPECTING,9.507,0.181,0.915,-2.60,0.11,10.01,4.087,3.753,5.471,1.555,7.070,0,WALL,INSPECT_SW_L_HI,0.000,0.000,0.000,-1.000,0,1
01:16:29.039,INSPECTING,9.499,0.186,0.915,-2.52,0.12,4.19,4.087,3.753,5.471,1.555,7.070,0,WALL,INSPECT_SW_L_HI,0.000,0.000,0.000,-1.000,0,1
01:16:29.262,INSPECTING,9.491,0.193,0.915,-2.45,0.13,-1.49,4.087,3.753,5.471,1.555,7.070,0,WALL,INSPECT_SW_L_HI,0.000,0.000,0.000,-1.000,0,1
01:16:29.509,INSPECTING,9.484,0.200,0.914,-2.38,0.13,-7.07,3.058,2.825,3.939,4.089,5.066,0,WALL,INSPECT_SW_L_HI,0.000,0.000,0.000,-1.000,0,1
01:16:29.737,INSPECTING,9.477,0.208,0.914,-2.29,0.18,-12.51,2.360,4.978,2.873,5.862,6.546,0,WALL,INSPECT_SW_L_HI,0.000,0.000,0.000,-1.000,0,1
01:16:29.963,INSPECTING,9.471,0.217,0.914,-2.25,0.15,-17.87,4.652,3.606,2.130,7.103,4.702,0,WALL,INSPECT_SW_L_HI,0.000,0.000,0.000,-1.000,0,1
01:16:30.199,INSPECTING,9.466,0.226,0.914,-2.20,0.15,-23.15,6.256,2.635,1.600,5.081,3.401,0,WALL,INSPECT_SW_L_HI,0.000,0.000,0.000,-1.000,0,1
01:16:30.445,INSPECTING,9.463,0.231,0.914,-2.17,0.15,-24.91,8.166,1.478,0.975,2.681,1.854,0,WALL,INSPECT_RY_HI_1,0.000,0.000,0.000,0.510,0,1
01:16:30.695,INSPECTING,9.463,0.231,0.914,-2.17,0.15,-16.98,6.271,0.911,0.674,1.502,1.096,0,WALL,INSPECT_RY_HI_1,0.000,0.000,0.000,0.882,0,1
01:16:30.922,INSPECTING,9.463,0.231,0.914,-2.16,0.15,-6.37,7.390,0.987,0.581,1.192,1.120,0,WALL,INSPECT_RY_HI_1,0.000,0.000,0.000,0.972,0,1
01:16:33.160,INSPECTING,9.463,0.231,0.914,-2.16,0.15,4.88,5.282,0.911,3.407,1.053,3.784,0,WALL,INSPECT_RY_HI_1,0.000,0.000,0.000,0.993,0,1
01:16:33.420,INSPECTING,9.463,0.231,0.914,-2.15,0.15,16.29,5.282,0.911,3.407,1.053,3.784,0,WALL,INSPECT_RY_HI_1,0.000,0.000,0.000,0.998,0,1
01:16:33.689,INSPECTING,9.463,0.231,0.914,-2.15,0.15,27.74,5.282,0.911,3.407,1.053,3.784,0,WALL,INSPECT_RY_HI_1,0.000,0.000,0.000,1.000,0,1
01:16:33.945,INSPECTING,9.463,0.231,0.914,-2.14,0.15,39.19,5.282,0.911,3.407,1.053,3.784,0,WALL,INSPECT_RY_HI_1,0.000,0.000,0.000,1.000,0,1
01:16:34.214,INSPECTING,9.463,0.231,0.914,-2.14,0.15,47.44,5.282,0.911,3.407,1.053,3.784,0,WALL,INSPECT_SW_R_HI,0.000,0.000,0.000,0.510,0,1
01:16:34.497,INSPECTING,9.463,0.231,0.914,-2.14,0.15,55.37,5.282,0.911,3.407,1.053,3.784,0,WALL,INSPECT_SW_R_HI,0.000,0.000,0.000,0.882,0,1
01:16:34.750,INSPECTING,9.464,0.223,0.914,-2.31,0.41,61.07,5.282,0.911,3.407,1.053,3.784,0,WALL,INSPECT_SW_R_HI,0.000,0.000,0.000,0.972,0,1
01:16:35.019,INSPECTING,9.464,0.214,0.914,-2.45,0.68,66.36,5.282,0.911,3.407,1.053,3.784,0,WALL,INSPECT_SW_R_HI,0.000,0.000,0.000,0.993,0,1
01:16:35.253,INSPECTING,9.465,0.206,0.915,-2.84,1.21,72.78,5.282,0.911,3.407,1.053,3.784,0,WALL,INSPECT_SW_R_HI,0.000,0.000,0.000,0.998,0,1
01:16:35.515,INSPECTING,9.465,0.206,0.915,-2.84,1.21,84.23,5.282,0.911,3.407,1.053,3.784,0,WALL,INSPECT_SW_R_HI,0.000,0.000,0.000,1.000,0,1
01:16:35.776,INSPECTING,9.465,0.206,0.915,-2.83,1.21,95.68,5.282,0.911,3.407,1.053,3.784,0,WALL,INSPECT_SW_R_HI,0.000,0.000,0.000,1.000,0,1
01:16:36.034,INSPECTING,9.465,0.206,0.915,-2.82,1.21,107.14,4.163,0.939,2.609,1.239,3.107,0,WALL,INSPECT_SW_R_HI,0.000,0.000,0.000,1.000,0,1
01:16:36.281,INSPECTING,9.465,0.206,0.915,-2.82,1.20,118.60,4.163,0.939,2.609,1.239,3.107,0,WALL,INSPECT_SW_R_HI,0.000,0.000,0.000,1.000,0,1
01:16:36.550,INSPECTING,9.465,0.206,0.915,-2.81,1.20,130.06,4.163,0.939,2.609,1.239,3.107,0,WALL,INSPECT_SW_R_HI,0.000,0.000,0.000,0.700,0,1
01:16:36.792,INSPECTING,9.465,0.206,0.915,-2.81,1.20,126.48,4.163,0.939,2.609,1.239,3.107,0,WALL,INSPECT_RY_HI_2,0.000,0.000,0.000,-0.760,0,1
01:16:37.029,INSPECTING,9.465,0.206,0.915,-2.81,1.20,116.75,3.613,1.209,2.156,1.419,2.623,0,WALL,INSPECT_RY_HI_2,0.000,0.000,0.000,-0.942,0,1
01:16:37.286,INSPECTING,9.465,0.206,0.915,-2.80,1.20,105.71,3.613,1.209,2.156,1.419,2.623,0,WALL,INSPECT_RY_HI_2,0.000,0.000,0.000,-0.986,0,1
01:16:37.525,INSPECTING,9.465,0.206,0.915,-2.80,1.19,94.35,3.613,1.209,2.156,1.419,2.623,0,WALL,INSPECT_RY_HI_2,0.000,0.000,0.000,-0.997,0,1
01:16:37.793,INSPECTING,9.465,0.206,0.915,-2.79,1.19,82.91,2.980,1.144,1.733,1.493,2.284,0,WALL,INSPECT_RY_HI_2,0.000,0.000,0.000,-0.999,0,1
01:16:38.012,INSPECTING,9.465,0.206,0.915,-2.79,1.19,74.32,2.980,1.144,1.733,1.493,2.284,0,WALL,INSPECT_RY_HI_2,0.000,0.000,0.000,-1.000,0,1
01:16:38.266,INSPECTING,9.465,0.206,0.915,-2.78,1.19,60.00,2.980,1.144,1.733,1.493,2.284,0,WALL,INSPECT_RY_HI_2,0.000,0.000,0.000,-1.000,0,1
01:16:38.493,INSPECTING,9.465,0.206,0.915,-2.77,1.18,48.54,2.980,1.144,1.733,1.493,2.284,0,WALL,INSPECT_RY_HI_2,0.000,0.000,0.000,-1.000,0,1
01:16:38.723,INSPECTING,9.555,0.163,0.912,-2.86,0.37,43.59,2.980,1.144,1.733,1.493,2.284,0,WALL,INSPECT_GO_MID,0.000,0.000,-0.255,0.000,0,1
01:16:39.009,INSPECTING,9.556,0.163,0.847,-2.62,-0.09,44.82,2.980,1.144,1.733,1.493,2.284,0,WALL,INSPECT_GO_MID,0.000,0.000,-0.441,0.000,0,1
01:16:39.300,INSPECTING,9.556,0.164,0.753,-2.22,-0.78,45.84,2.301,1.023,1.322,1.264,2.012,0,WALL,INSPECT_GO_MID,0.000,0.000,-0.486,0.000,0,1
01:16:39.548,INSPECTING,9.557,0.165,0.657,-1.83,-0.38,46.64,2.301,1.023,1.322,1.264,2.012,0,WALL,INSPECT_GO_MID,0.000,0.000,-0.497,0.000,0,1
01:16:39.769,INSPECTING,9.557,0.165,0.558,-1.49,-0.13,47.26,2.301,1.023,1.322,1.264,2.012,0,WALL,INSPECT_GO_MID,0.000,0.000,-0.499,0.000,0,1
01:16:40.018,INSPECTING,9.557,0.165,0.457,-1.15,-0.09,47.78,2.301,1.023,1.322,1.264,2.012,0,WALL,INSPECT_GO_MID,0.000,0.000,-0.500,0.000,0,1
01:16:40.291,INSPECTING,9.557,0.166,0.357,-0.85,-0.09,48.21,2.245,1.144,3.925,1.122,1.826,0,WALL,INSPECT_GO_MID,0.000,0.000,-0.500,0.000,0,1
01:16:40.532,INSPECTING,9.558,0.166,0.258,-0.56,-0.14,48.58,2.245,1.144,3.925,1.122,1.826,0,WALL,INSPECT_GO_MID,0.000,0.000,-0.500,0.000,0,1
01:16:40.783,INSPECTING,9.558,0.166,0.235,0.00,-0.01,49.03,2.245,1.144,3.925,1.122,1.826,0,WALL,INSPECT_GO_MID,0.000,0.000,-0.500,0.000,0,1
01:16:41.090,INSPECTING,9.558,0.173,0.053,1.34,-0.29,50.23,2.245,1.144,3.925,1.122,1.826,0,WALL,INSPECT_GO_MID,0.000,0.000,-0.350,0.000,0,1
01:16:41.400,INSPECTING,9.557,0.166,0.035,-0.00,0.00,50.24,2.345,1.243,5.748,1.230,1.725,0,WALL,INSPECT_SW_L_MID,0.000,0.000,0.000,-0.760,0,1
01:16:41.697,INSPECTING,9.557,0.166,0.035,-0.00,0.00,50.38,2.345,1.243,5.748,1.230,1.725,0,WALL,INSPECT_SW_L_MID,0.000,0.000,0.000,-0.942,0,1
01:16:41.989,INSPECTING,9.556,0.166,0.035,-0.00,0.00,50.52,2.345,1.243,5.748,1.230,1.725,0,WALL,INSPECT_SW_L_MID,0.000,0.000,0.000,-0.986,0,1
01:16:42.288,INSPECTING,9.556,0.167,0.035,-0.00,0.00,50.66,2.415,1.315,7.023,1.304,1.652,0,WALL,INSPECT_SW_L_MID,0.000,0.000,0.000,-0.997,0,1
01:16:42.588,INSPECTING,9.556,0.167,0.035,-0.00,0.00,50.80,2.469,1.396,8.541,1.392,3.252,0,WALL,INSPECT_SW_L_MID,0.000,0.000,0.000,-0.999,0,1
01:16:42.920,INSPECTING,9.555,0.167,0.035,-0.00,0.00,50.94,2.461,1.422,8.979,1.419,5.276,0,WALL,INSPECT_SW_L_MID,0.000,0.000,0.000,-1.000,0,1
01:16:43.227,INSPECTING,9.555,0.167,0.035,-0.00,0.00,51.07,2.502,1.440,9.285,1.436,4.140,0,WALL,INSPECT_SW_L_MID,0.000,0.000,0.000,-1.000,0,1
01:16:43.537,INSPECTING,9.555,0.168,0.035,-0.00,0.00,51.21,2.508,1.460,9.650,1.458,4.571,0,WALL,INSPECT_SW_L_MID,0.000,0.000,0.000,-1.000,0,1
01:16:43.891,INSPECTING,9.555,0.168,0.035,-0.00,0.00,51.35,2.544,1.454,9.828,1.470,2.994,0,WALL,INSPECT_SW_L_MID,0.000,0.000,0.000,-1.000,0,1
01:16:44.178,INSPECTING,9.554,0.168,0.035,-0.00,0.00,51.49,2.544,1.454,9.828,1.470,2.994,0,WALL,INSPECT_SW_L_MID,0.000,0.000,0.000,-1.000,0,1
01:16:44.490,INSPECTING,9.554,0.169,0.035,-0.00,0.00,51.62,2.499,1.461,9.880,1.474,5.096,0,WALL,INSPECT_SW_L_MID,0.000,0.000,0.000,-1.000,0,1
01:16:44.801,INSPECTING,9.554,0.169,0.035,-0.00,0.00,51.76,2.523,1.467,9.916,1.475,4.012,0,WALL,INSPECT_SW_L_MID,0.000,0.000,0.000,-1.000,0,1
01:16:45.129,INSPECTING,9.553,0.173,0.059,-1.35,-0.80,51.62,2.513,1.474,9.959,1.478,4.509,0,WALL,INSPECT_SW_L_MID,0.000,0.000,0.000,-0.700,0,1
01:16:45.470,INSPECTING,9.529,0.190,0.050,-1.60,1.79,52.55,2.496,1.476,9.971,1.478,6.156,0,WALL,INSPECT_RY_MID_1,0.000,0.000,0.000,-0.760,0,1
01:16:45.781,INSPECTING,9.516,0.204,0.040,2.87,11.03,53.24,2.509,1.474,9.986,1.479,8.116,0,WALL,INSPECT_RY_MID_1,0.000,0.000,0.000,-0.942,0,1
01:16:46.121,INSPECTING,9.479,0.233,0.010,10.97,5.10,58.52,2.514,1.462,8.019,1.458,7.288,0,WALL,INSPECT_RY_MID_1,0.000,0.000,0.000,-0.986,0,1
01:16:46.471,INSPECTING,9.456,0.244,0.063,-1.47,-0.97,54.93,2.388,1.313,6.515,1.321,3.922,0,WALL,INSPECT_RY_MID_1,0.000,0.000,0.000,-0.997,0,1
01:16:46.784,INSPECTING,9.456,0.245,0.062,-1.54,-0.95,54.47,1.936,1.112,5.503,1.379,2.390,0,WALL,INSPECT_RY_MID_1,0.000,0.000,0.000,-0.999,0,1
01:16:47.074,INSPECTING,9.454,0.245,-0.035,-0.04,0.01,55.14,2.134,1.225,6.852,1.409,2.121,0,WALL,INSPECT_RY_MID_1,0.000,0.000,0.000,-1.000,0,1
01:16:47.387,INSPECTING,9.529,0.183,0.066,0.03,0.06,54.54,2.134,1.225,6.852,1.409,2.121,0,WALL,INSPECT_RY_MID_1,0.000,0.000,0.000,-1.000,0,1
01:16:47.718,INSPECTING,9.529,0.183,0.066,0.03,0.07,54.68,2.363,1.335,6.651,1.438,4.351,0,WALL,INSPECT_RY_MID_1,0.000,0.000,0.000,-1.000,0,1
01:16:48.046,INSPECTING,9.529,0.185,-0.035,-0.49,-0.12,54.61,2.438,1.379,7.656,1.448,3.488,0,WALL,INSPECT_RY_MID_1,0.000,0.000,0.000,-1.000,0,1
01:16:48.385,INSPECTING,9.557,0.174,0.014,5.26,8.24,57.71,2.798,1.444,9.196,1.442,3.958,0,WALL,INSPECT_RY_MID_1,0.000,0.000,0.000,-1.000,0,1
01:16:48.797,INSPECTING,9.548,0.167,-0.035,-0.02,0.04,53.43,2.117,1.192,9.437,1.423,5.771,0,WALL,INSPECT_RY_MID_1,0.000,0.000,0.000,-1.000,0,1
01:16:49.113,INSPECTING,9.544,0.179,0.064,-0.93,-0.81,52.82,2.302,1.336,9.724,1.439,5.371,0,WALL,INSPECT_RY_MID_1,0.000,0.000,0.000,-1.000,0,1
01:16:49.439,INSPECTING,9.528,0.191,0.056,-0.69,1.70,52.16,2.529,1.404,9.865,1.442,3.388,0,WALL,INSPECT_RY_MID_1,0.000,0.000,0.000,-0.700,0,1
01:16:49.785,INSPECTING,9.503,0.209,-0.035,-0.99,0.02,53.20,2.663,1.429,7.299,1.449,2.815,0,WALL,INSPECT_SW_R_MID,0.000,0.000,0.000,0.760,0,1
01:16:50.103,INSPECTING,9.550,0.172,0.053,-1.16,1.76,52.53,2.591,1.443,5.286,1.383,2.413,0,WALL,INSPECT_SW_R_MID,0.000,0.000,0.000,0.942,0,1
01:16:50.436,INSPECTING,9.536,0.187,0.061,-1.26,-0.76,51.78,2.731,1.466,7.690,1.437,1.937,0,WALL,INSPECT_SW_R_MID,0.000,0.000,0.000,0.986,0,1
01:16:50.780,INSPECTING,9.546,0.185,0.039,7.83,2.71,53.15,2.615,1.463,6.853,1.447,4.255,0,WALL,INSPECT_SW_R_MID,0.000,0.000,0.000,0.997,0,1
01:16:51.092,INSPECTING,9.556,0.179,0.052,-3.91,-8.31,50.60,3.103,1.467,8.458,1.430,7.185,0,WALL,INSPECT_SW_R_MID,0.000,0.000,0.000,0.999,0,1
01:16:51.430,INSPECTING,9.558,0.167,-0.035,0.00,0.00,50.49,2.730,1.475,9.471,1.453,4.684,0,WALL,INSPECT_SW_R_MID,0.000,0.000,0.000,1.000,0,1
01:16:51.772,INSPECTING,9.556,0.169,0.066,0.04,0.06,50.34,2.608,1.472,9.741,1.464,4.840,0,WALL,INSPECT_SW_R_MID,0.000,0.000,0.000,1.000,0,1
