timestamp,state,x,y,z,roll_deg,pitch_deg,yaw_deg,dist_left,dist_center,dist_right,dist_top,dist_bottom,dtof_alert,collision_type,best_dir,max_space,cmd_vx,cmd_vz,cmd_yaw,lap,total_hits
14:43:08.388,SEARCHING,0.000,0.000,0.000,0.00,0.00,0.00,10.000,10.000,10.000,10.000,10.000,0,NONE,SEARCHING,0.000,0.526,0.000,0.000,0,0
14:43:08.589,SEARCHING,0.116,0.000,1.000,0.00,0.00,0.00,10.000,10.000,10.000,10.000,10.000,0,NONE,SEARCHING,0.000,0.734,0.000,0.000,0,0
14:43:08.789,SEARCHING,0.268,0.000,1.000,0.00,0.00,0.00,10.000,10.000,10.000,10.000,10.000,0,NONE,SEARCHING,0.000,0.784,0.000,0.000,0,0
14:43:08.989,SEARCHING,0.426,0.000,1.000,0.00,0.00,0.00,10.000,10.000,10.000,10.000,10.000,0,NONE,SEARCHING,0.000,0.796,0.000,0.000,0,0
14:43:09.190,SEARCHING,0.586,0.000,1.000,0.00,0.00,0.00,10.000,10.000,10.000,10.000,10.000,0,NONE,SEARCHING,0.000,0.799,0.000,0.000,0,0
14:43:09.390,SEARCHING,0.746,0.000,1.000,0.00,0.00,0.00,10.000,10.000,10.000,10.000,10.000,0,NONE,SEARCHING,0.000,0.800,0.000,0.000,0,0
14:43:09.604,SEARCHING,0.906,0.000,1.000,0.00,0.00,0.00,10.000,10.000,10.000,10.000,10.000,0,NONE,SEARCHING,0.000,0.800,0.000,0.000,0,0
14:43:09.827,SEARCHING,1.066,0.000,1.000,0.00,0.00,0.00,10.000,10.000,10.000,10.000,10.000,0,NONE,SEARCHING,0.000,0.800,0.000,0.000,0,0
14:43:10.035,SEARCHING,1.226,0.000,1.000,0.00,0.00,0.00,10.000,10.000,10.000,10.000,10.000,0,NONE,SEARCHING,0.000,0.800,0.000,0.000,0,0
14:43:10.257,SEARCHING,1.386,0.000,1.000,0.00,0.00,0.00,10.000,10.000,10.000,10.000,10.000,0,NONE,SEARCHING,0.000,0.800,0.000,0.000,0,0
14:43:10.462,SEARCHING,1.546,0.000,1.000,0.00,0.00,0.00,10.000,10.000,10.000,10.000,10.000,0,NONE,SEARCHING,0.000,0.800,0.000,0.000,0,0
14:43:10.669,SEARCHING,1.706,0.000,1.000,0.00,0.00,0.00,10.000,10.000,10.000,10.000,10.000,0,NONE,SEARCHING,0.000,0.800,0.000,0.000,0,0
14:43:10.885,SEARCHING,1.866,0.000,1.000,0.00,0.00,0.00,10.000,10.000,10.000,10.000,10.000,0,NONE,SEARCHING,0.000,0.800,0.000,0.000,0,0
14:43:11.100,SEARCHING,2.026,0.000,1.000,0.00,0.00,0.00,10.000,10.000,10.000,10.000,10.000,0,NONE,SEARCHING,0.000,0.800,0.000,0.000,0,0
14:43:11.324,SEARCHING,2.186,0.000,1.000,0.00,0.00,0.00,10.000,10.000,10.000,10.000,10.000,0,NONE,SEARCHING,0.000,0.800,0.000,0.000,0,0
14:43:11.541,SEARCHING,2.346,0.000,1.000,0.00,0.00,0.00,10.000,10.000,10.000,10.000,10.000,0,NONE,SEARCHING,0.000,0.800,0.000,0.000,0,0
14:43:11.747,SEARCHING,2.506,0.000,1.000,0.00,0.00,0.00,10.000,10.000,10.000,10.000,10.000,0,NONE,SEARCHING,0.000,0.800,0.000,0.000,0,0
14:43:11.990,SEARCHING,2.666,0.000,1.000,0.00,0.00,0.00,10.000,10.000,10.000,10.000,10.000,0,NONE,SEARCHING,0.000,0.800,0.000,0.000,0,0
14:43:12.194,SEARCHING,2.826,0.000,1.000,0.00,0.00,0.00,10.000,10.000,10.000,10.000,10.000,0,NONE,SEARCHING,0.000,0.800,0.000,0.000,0,0
14:43:12.410,SEARCHING,2.986,0.000,1.000,0.00,0.00,0.00,10.000,10.000,10.000,10.000,10.000,0,NONE,SEARCHING,0.000,0.800,0.000,0.000,0,0
14:43:12.622,SEARCHING,3.146,0.000,1.000,0.00,0.00,0.00,10.000,10.000,10.000,10.000,10.000,0,NONE,SEARCHING,0.000,0.800,0.000,0.000,0,0
14:43:12.827,SEARCHING,3.306,0.000,1.000,0.00,0.00,0.00,10.000,10.000,10.000,10.000,10.000,0,NONE,SEARCHING,0.000,0.800,0.000,0.000,0,0
14:43:13.065,SEARCHING,3.466,0.000,1.000,0.00,0.00,0.00,7.617,7.908,8.339,7.908,7.513,0,NONE,SEARCHING,0.000,0.800,0.000,-0.003,0,0
14:43:13.313,SEARCHING,3.626,-0.000,1.000,0.00,0.00,-0.06,7.617,7.908,8.339,7.908,7.513,0,NONE,SEARCHING,0.000,0.800,0.000,-0.008,0,0
14:43:13.509,SEARCHING,3.786,-0.000,1.000,0.00,0.00,-0.15,7.617,7.908,8.339,7.908,7.513,0,NONE,SEARCHING,0.000,0.800,0.000,-0.009,0,0
14:43:13.732,SEARCHING,3.946,-0.001,1.000,0.00,0.00,-0.28,5.913,6.407,7.006,6.407,5.777,0,NONE,SEARCHING,0.000,0.800,0.000,-0.017,0,0
14:43:13.936,SEARCHING,4.106,-0.002,1.000,0.00,0.00,-0.49,5.913,6.407,7.006,6.407,5.777,0,NONE,SEARCHING,0.000,0.800,0.000,-0.020,0,0
14:43:14.163,SEARCHING,4.266,-0.004,1.000,0.00,0.00,-0.73,4.678,5.293,5.950,5.275,4.572,0,NONE,SEARCHING,0.000,0.800,0.000,-0.026,0,0
14:43:14.382,SEARCHING,4.425,-0.006,1.000,0.00,0.00,-1.07,4.678,5.293,5.950,5.275,4.572,0,NONE,SEARCHING,0.000,0.800,0.000,-0.034,0,0
14:43:14.589,SEARCHING,4.585,-0.010,1.000,0.00,0.00,-1.47,4.678,5.293,5.950,5.275,4.572,0,NONE,SEARCHING,0.000,0.800,0.000,-0.036,0,0
14:43:14.811,SEARCHING,4.745,-0.014,1.000,0.00,0.00,-1.88,4.678,5.293,5.950,5.275,4.572,0,NONE,SEARCHING,0.000,0.800,0.000,-0.036,0,0
14:43:15.016,SEARCHING,4.905,-0.020,1.000,0.00,0.00,-2.30,4.678,5.293,5.950,5.275,4.572,0,NONE,SEARCHING,0.000,0.800,0.000,-0.037,0,0
14:43:15.227,SEARCHING,5.065,-0.027,1.000,0.00,0.00,-2.72,4.678,5.293,5.950,5.275,4.572,0,NONE,SEARCHING,0.000,0.800,0.000,-0.037,0,0
14:43:15.444,SEARCHING,5.225,-0.035,1.000,0.00,0.00,-3.14,4.678,5.293,5.950,5.275,4.572,0,NONE,SEARCHING,0.000,0.800,0.000,-0.037,0,0
14:43:15.658,SEARCHING,5.385,-0.044,1.000,0.00,0.00,-3.59,3.721,4.366,4.893,4.350,3.719,0,NONE,SEARCHING,0.000,0.800,0.000,-0.046,0,0
14:43:15.878,SEARCHING,5.544,-0.055,1.000,0.00,0.00,-4.14,3.721,4.366,4.893,4.350,3.719,0,NONE,SEARCHING,0.000,0.800,0.000,-0.050,0,0
14:43:16.089,SEARCHING,5.704,-0.067,1.000,0.00,0.00,-4.73,3.721,4.366,4.893,4.350,3.719,0,NONE,SEARCHING,0.000,0.800,0.000,-0.051,0,0
14:43:16.308,SEARCHING,5.863,-0.081,1.000,0.00,0.00,-5.31,3.721,4.366,4.893,4.350,3.719,0,NONE,SEARCHING,0.000,0.800,0.000,-0.051,0,0
14:43:16.517,SEARCHING,6.022,-0.097,1.000,0.00,0.00,-5.93,3.019,3.545,3.979,3.533,3.091,0,NONE,SEARCHING,0.000,0.800,0.000,-0.060,0,0
14:43:16.735,SEARCHING,6.182,-0.114,1.000,0.00,0.00,-6.66,2.525,2.915,3.285,2.906,2.596,0,NONE,SEARCHING,0.000,0.800,0.000,-0.069,0,0
14:43:16.933,SEARCHING,6.340,-0.134,1.000,0.00,0.00,-7.47,2.525,2.915,3.285,2.906,2.596,0,NONE,SEARCHING,0.000,0.800,0.000,-0.072,0,0
14:43:17.163,SEARCHING,6.499,-0.155,1.000,0.00,0.00,-8.30,2.217,2.338,2.666,2.330,2.114,0,NONE,SEARCHING,0.000,0.800,0.016,-0.069,0,0
14:43:17.358,SEARCHING,6.625,-0.175,1.005,0.00,0.00,-8.90,2.217,2.338,2.666,2.330,2.114,0,NONE,SEARCHING,0.000,0.800,0.044,-0.063,0,0
14:43:17.572,SEARCHING,6.752,-0.195,1.015,0.00,0.00,-9.46,2.217,2.338,2.666,2.330,2.114,0,NONE,SEARCHING,0.000,0.800,0.050,-0.061,0,0
14:43:17.791,SEARCHING,6.878,-0.216,1.025,0.00,0.00,-10.02,2.217,2.338,2.666,2.330,2.114,0,NONE,SEARCHING,0.000,0.800,0.052,-0.061,0,0
14:43:18.023,SEARCHING,7.004,-0.239,1.036,0.00,0.00,-10.58,2.217,2.338,2.666,2.330,2.114,0,NONE,SEARCHING,0.000,0.800,0.052,-0.061,0,0
14:43:18.236,SEARCHING,7.122,-0.262,1.047,0.00,0.00,-11.19,1.674,1.767,2.044,1.761,1.609,0,NONE,SEARCHING,0.000,0.676,0.060,-0.078,0,0
14:43:18.455,SEARCHING,7.223,-0.282,1.059,0.00,0.00,-11.94,1.674,1.767,2.044,1.761,1.609,0,NONE,SEARCHING,0.000,0.627,0.063,-0.084,0,0
14:43:18.675,SEARCHING,7.320,-0.304,1.071,0.00,0.00,-12.72,1.674,1.767,2.044,1.761,1.609,0,NONE,SEARCHING,0.000,0.615,0.064,-0.086,0,0
14:43:18.893,SEARCHING,7.416,-0.326,1.084,0.00,0.00,-13.51,1.674,1.767,2.044,1.761,1.609,0,NONE,SEARCHING,0.000,0.612,0.064,-0.086,0,0
14:43:19.134,SEARCHING,7.447,-0.359,1.097,0.07,0.03,1.48,1.674,1.767,2.044,1.761,1.609,0,NONE,SEARCHING,0.000,0.612,0.064,-0.086,0,0
14:43:19.344,SEARCHING,7.481,-0.384,1.110,0.17,0.02,17.96,4.172,1.351,1.540,4.232,1.235,0,NONE,SEARCHING,0.000,0.544,0.252,0.038,0,0
14:43:19.554,SEARCHING,7.504,-0.395,1.169,0.31,0.00,28.78,4.377,2.999,3.098,4.412,2.942,0,NONE,SEARCHING,0.000,0.696,0.211,0.087,0,0
14:43:19.773,SEARCHING,7.504,-0.395,1.207,0.42,-0.00,28.67,1.210,1.055,1.066,1.221,1.048,0,NONE,SEARCHING,0.000,0.451,0.182,0.094,0,0
14:43:19.987,SEARCHING,7.504,-0.394,1.240,0.49,-0.00,28.45,0.834,0.825,0.828,0.844,0.825,0,NONE,SEARCHING,0.000,0.298,0.090,0.048,0,0
14:43:20.201,SEARCHING,7.504,-0.394,1.252,0.54,-0.00,28.38,0.793,0.800,0.802,0.803,0.801,0,NONE,SEARCHING,0.000,0.262,0.022,0.006,0,0
14:43:20.411,INSPECTING,7.503,-0.393,1.254,0.59,0.00,27.84,0.783,0.795,0.798,0.795,0.796,0,NONE,INSPECT_UP,0.000,0.000,0.150,0.000,0,0
14:43:20.621,INSPECTING,7.504,-0.394,1.307,0.59,0.00,27.84,0.782,0.794,0.799,0.796,0.794,0,NONE,INSPECT_UP,0.000,0.000,0.416,0.000,0,0
14:43:20.839,INSPECTING,7.504,-0.394,1.395,0.59,0.00,27.84,0.781,0.793,0.799,0.796,0.794,0,NONE,INSPECT_UP,0.000,0.000,0.480,0.000,0,0
14:43:21.055,INSPECTING,7.504,-0.394,1.493,0.59,0.00,27.84,0.780,0.792,0.799,0.796,0.794,0,NONE,INSPECT_UP,0.000,0.000,0.495,0.000,0,0
14:43:21.273,INSPECTING,7.504,-0.394,1.593,0.59,0.00,27.84,0.780,0.793,0.798,0.796,0.793,0,NONE,INSPECT_UP,0.000,0.000,0.499,0.000,0,0
14:43:21.497,INSPECTING,7.504,-0.394,1.690,0.59,0.00,27.84,0.782,0.793,0.799,0.796,0.793,0,NONE,INSPECT_UP,0.000,0.000,0.500,0.000,0,0
14:43:21.705,INSPECTING,7.504,-0.394,1.791,0.59,0.00,27.84,0.782,0.794,0.799,0.795,0.793,0,NONE,INSPECT_UP,0.000,0.000,0.350,0.000,0,0
14:43:21.912,INSPECTING,7.500,-0.394,1.825,0.67,0.12,25.74,0.783,0.794,0.801,0.793,0.793,0,NONE,INSPECT_SW_L_HI,0.000,0.000,0.000,-0.760,0,0
14:43:22.121,INSPECTING,7.491,-0.392,1.825,0.70,0.18,21.57,0.779,0.792,0.809,0.792,0.792,0,NONE,INSPECT_SW_L_HI,0.000,0.000,0.000,-0.942,0,0
14:43:22.328,INSPECTING,7.482,-0.390,1.825,0.72,0.24,16.73,3.539,3.554,3.572,3.554,3.553,0,NONE,INSPECT_SW_L_HI,0.000,0.000,0.000,-0.986,0,0
14:43:22.542,INSPECTING,7.473,-0.387,1.825,0.71,0.26,11.37,7.784,7.789,7.795,7.789,7.789,0,NONE,INSPECT_SW_L_HI,0.000,0.000,0.000,-0.997,0,0
14:43:22.753,INSPECTING,7.464,-0.384,1.825,0.77,0.36,5.36,8.449,8.452,8.457,8.452,8.452,0,NONE,INSPECT_SW_L_HI,0.000,0.000,0.000,-0.999,0,0
14:43:22.973,INSPECTING,7.457,-0.382,1.826,0.86,0.50,-1.57,8.914,8.917,8.920,8.917,8.916,0,NONE,INSPECT_SW_L_HI,0.000,0.000,0.000,-1.000,0,0
14:43:23.212,INSPECTING,7.451,-0.381,1.826,1.13,0.90,-9.95,9.240,9.242,9.244,9.242,9.242,0,NONE,INSPECT_SW_L_HI,0.000,0.000,0.000,-1.000,0,0
14:43:23.477,INSPECTING,7.450,-0.380,1.826,1.28,1.14,-20.74,9.468,6.578,6.584,9.469,6.578,0,NONE,INSPECT_SW_L_HI,0.000,0.000,0.000,-1.000,0,0
14:43:23.689,INSPECTING,7.450,-0.380,1.826,1.27,1.13,-32.20,9.468,6.578,6.584,9.469,6.578,0,NONE,INSPECT_SW_L_HI,0.000,0.000,0.000,-1.000,0,0
14:43:23.909,INSPECTING,7.450,-0.380,1.826,1.27,1.13,-43.66,9.468,6.578,6.584,9.469,6.578,0,NONE,INSPECT_SW_L_HI,0.000,0.000,0.000,-1.000,0,0
14:43:24.168,INSPECTING,7.450,-0.380,1.826,1.27,1.13,-55.12,9.468,6.578,6.584,9.469,6.578,0,NONE,INSPECT_SW_L_HI,0.000,0.000,0.000,-1.000,0,0
14:43:24.447,INSPECTING,7.450,-0.380,1.826,1.27,1.13,-60.62,9.468,6.578,6.584,9.469,6.578,0,NONE,INSPECT_RY_HI_1,0.000,0.000,0.000,0.510,0,0
14:43:24.659,INSPECTING,7.450,-0.380,1.826,1.26,1.13,-53.20,9.468,6.578,6.584,9.469,6.578,0,NONE,INSPECT_RY_HI_1,0.000,0.000,0.000,0.882,0,0
14:43:24.914,INSPECTING,7.450,-0.380,1.826,1.26,1.12,-42.59,9.468,6.578,6.584,9.469,6.578,0,NONE,INSPECT_RY_HI_1,0.000,0.000,0.000,0.972,0,0
14:43:25.139,INSPECTING,7.450,-0.380,1.826,1.26,1.12,-31.34,9.468,6.578,6.584,9.469,6.578,0,NONE,INSPECT_RY_HI_1,0.000,0.000,0.000,0.993,0,0
14:43:25.383,INSPECTING,7.450,-0.380,1.826,1.26,1.12,-19.93,9.468,6.578,6.584,9.469,6.578,0,NONE,INSPECT_RY_HI_1,0.000,0.000,0.000,0.998,0,0
14:43:25.600,INSPECTING,7.450,-0.380,1.826,1.25,1.12,-8.48,9.468,6.578,6.584,9.469,6.578,0,NONE,INSPECT_RY_HI_1,0.000,0.000,0.000,1.000,0,0
14:43:25.821,INSPECTING,7.450,-0.380,1.826,1.25,1.12,2.98,9.468,6.578,6.584,9.469,6.578,0,NONE,INSPECT_RY_HI_1,0.000,0.000,0.000,1.000,0,0
14:43:26.046,INSPECTING,7.450,-0.380,1.826,1.25,1.11,14.43,9.468,6.578,6.584,9.469,6.578,0,NONE,INSPECT_RY_HI_1,0.000,0.000,0.000,1.000,0,0
14:43:26.239,INSPECTING,7.450,-0.380,1.826,1.25,1.11,25.89,6.848,3.655,6.302,9.740,8.323,0,NONE,INSPECT_RY_HI_1,0.000,0.000,0.000,0.700,0,0
14:43:26.457,INSPECTING,7.450,-0.380,1.826,1.25,1.11,31.77,2.593,1.832,2.518,3.727,3.414,0,NONE,INSPECT_SW_R_HI,0.000,0.000,0.000,0.760,0,0
14:43:26.683,INSPECTING,7.450,-0.380,1.826,1.24,1.11,41.49,9.129,7.645,8.043,4.259,6.756,0,NONE,INSPECT_SW_R_HI,0.000,0.000,0.000,0.942,0,0
14:43:26.908,INSPECTING,7.450,-0.380,1.826,1.24,1.11,52.54,9.854,7.580,5.106,3.225,7.431,0,NONE,INSPECT_SW_R_HI,0.000,0.000,0.000,0.986,0,0
14:43:27.127,INSPECTING,7.450,-0.380,1.826,1.24,1.10,63.90,9.965,7.329,8.193,8.373,5.529,0,NONE,INSPECT_SW_R_HI,0.000,0.000,0.000,0.997,0,0
14:43:27.340,INSPECTING,7.450,-0.381,1.826,1.39,0.87,74.74,9.994,9.551,8.729,4.484,8.556,0,NONE,INSPECT_SW_R_HI,0.000,0.000,0.000,0.999,0,0
14:43:27.561,INSPECTING,7.450,-0.381,1.826,1.39,0.87,86.19,5.276,9.892,8.707,8.676,9.653,0,NONE,INSPECT_SW_R_HI,0.000,0.000,0.000,1.000,0,0
14:43:27.791,INSPECTING,7.450,-0.381,1.826,1.39,0.87,97.65,1.559,2.960,9.783,2.757,2.814,0,NONE,INSPECT_SW_R_HI,0.000,0.000,0.000,1.000,0,0
14:43:28.037,INSPECTING,7.450,-0.381,1.826,1.39,0.87,109.11,1.136,1.513,5.202,1.441,1.466,0,NONE,INSPECT_SW_R_HI,0.000,0.000,0.000,1.000,0,0
14:43:28.269,INSPECTING,7.450,-0.381,1.826,1.38,0.86,120.57,1.149,0.996,1.756,0.976,0.992,0,NONE,INSPECT_SW_R_HI,0.000,0.000,0.000,0.700,0,0
14:43:28.498,INSPECTING,7.450,-0.381,1.826,1.38,0.86,116.98,1.343,0.952,1.053,0.944,0.965,0,NONE,INSPECT_RY_HI_2,0.000,0.000,0.000,-0.760,0,0
14:43:28.742,INSPECTING,7.450,-0.381,1.826,1.38,0.86,107.26,1.265,0.884,0.758,0.880,0.895,0,NONE,INSPECT_RY_HI_2,0.000,0.000,0.000,-0.942,0,0
14:43:28.976,INSPECTING,7.450,-0.381,1.826,1.38,0.86,96.21,1.043,0.799,0.725,0.794,0.805,0,NONE,INSPECT_RY_HI_2,0.000,0.000,0.000,-0.986,0,0
14:43:29.198,INSPECTING,7.450,-0.381,1.826,1.37,0.86,84.85,0.909,0.769,6.819,0.772,0.786,0,NONE,INSPECT_RY_HI_2,0.000,0.000,0.000,-0.997,0,0
14:43:29.418,INSPECTING,7.450,-0.381,1.826,1.37,0.86,73.42,0.774,6.829,9.465,6.833,6.838,0,NONE,INSPECT_RY_HI_2,0.000,0.000,0.000,-0.999,0,0
14:43:29.648,INSPECTING,7.450,-0.381,1.826,1.37,0.85,61.97,7.785,9.239,8.457,4.411,6.350,0,NONE,INSPECT_RY_HI_2,0.000,0.000,0.000,-1.000,0,0
14:43:29.860,INSPECTING,7.450,-0.381,1.826,1.36,0.85,50.51,9.628,5.989,3.410,8.069,5.079,0,NONE,INSPECT_RY_HI_2,0.000,0.000,0.000,-1.000,0,0
14:43:30.083,INSPECTING,7.450,-0.381,1.826,1.36,0.85,39.05,9.937,7.909,3.308,2.638,7.082,0,NONE,INSPECT_RY_HI_2,0.000,0.000,0.000,-1.000,0,0
14:43:30.296,INSPECTING,7.450,-0.381,1.826,1.36,0.85,27.59,9.985,7.324,7.403,6.286,8.347,0,NONE,INSPECT_RY_HI_2,0.000,0.000,0.000,-0.700,0,0
14:43:33.080,INSPECTING,7.504,-0.395,1.797,1.51,0.51,27.84,2.991,1.949,1.898,1.790,2.132,0,NONE,INSPECT_GO_MID,0.000,0.000,-0.380,0.000,0,0
14:43:33.291,INSPECTING,7.504,-0.394,1.712,1.66,0.31,27.90,1.155,0.989,0.983,0.961,1.020,0,NONE,INSPECT_GO_MID,0.000,0.000,-0.471,0.000,0,0
14:43:33.515,INSPECTING,7.504,-0.394,1.616,1.66,0.31,27.90,0.847,0.827,0.829,0.822,0.834,0,NONE,INSPECT_GO_MID,0.000,0.000,-0.493,0.000,0,0
14:43:33.716,INSPECTING,7.504,-0.394,1.516,1.66,0.31,27.90,0.795,0.801,0.803,0.799,0.802,0,NONE,INSPECT_GO_MID,0.000,0.000,-0.498,0.000,0,0
14:43:33.945,INSPECTING,7.504,-0.394,1.416,1.66,0.31,27.90,0.785,0.797,0.799,0.795,0.797,0,NONE,INSPECT_GO_MID,0.000,0.000,-0.500,0.000,0,0
14:43:34.164,INSPECTING,7.504,-0.394,1.316,1.66,0.31,27.90,0.784,0.796,0.798,0.794,0.797,0,NONE,INSPECT_GO_MID,0.000,0.000,-0.500,0.000,0,0
14:43:34.390,INSPECTING,7.503,-0.394,1.234,1.43,0.04,27.23,0.784,0.795,0.798,0.794,0.797,0,NONE,INSPECT_SW_L_MID,0.000,0.000,0.000,-0.510,0,0
14:43:34.615,INSPECTING,7.496,-0.393,1.234,1.48,0.13,23.79,0.779,0.794,0.804,0.794,0.794,0,NONE,INSPECT_SW_L_MID,0.000,0.000,0.000,-0.882,0,0
14:43:34.873,INSPECTING,7.487,-0.391,1.234,1.61,0.32,19.23,0.777,0.793,0.811,0.793,0.793,0,NONE,INSPECT_SW_L_MID,0.000,0.000,0.000,-0.972,0,0
14:43:35.097,INSPECTING,7.477,-0.389,1.234,1.64,0.41,14.08,0.777,0.793,0.811,0.793,0.793,0,NONE,INSPECT_SW_L_MID,0.000,0.000,0.000,-0.993,0,0
14:43:35.329,INSPECTING,7.468,-0.386,1.235,1.78,0.64,8.37,0.777,0.793,0.811,0.793,0.793,0,NONE,INSPECT_SW_L_MID,0.000,0.000,0.000,-0.998,0,0
14:43:35.579,INSPECTING,7.460,-0.384,1.235,1.93,0.88,1.94,0.777,0.793,0.811,0.793,0.793,0,NONE,INSPECT_SW_L_MID,0.000,0.000,0.000,-1.000,0,0
14:43:35.803,INSPECTING,7.454,-0.382,1.235,2.48,1.68,-5.62,0.777,0.793,0.811,0.793,0.793,0,NONE,INSPECT_SW_L_MID,0.000,0.000,0.000,-1.000,0,0
14:43:36.023,INSPECTING,7.450,-0.381,1.235,2.88,2.31,-15.07,0.777,0.793,0.811,0.793,0.793,0,NONE,INSPECT_SW_L_MID,0.000,0.000,0.000,-1.000,0,0
14:43:36.261,INSPECTING,7.450,-0.381,1.236,2.89,2.34,-26.44,0.777,0.793,0.811,0.793,0.793,0,NONE,INSPECT_SW_L_MID,0.000,0.000,0.000,-1.000,0,0
14:43:36.501,INSPECTING,7.450,-0.381,1.236,2.89,2.34,-37.90,0.777,0.793,0.811,0.793,0.793,0,NONE,INSPECT_SW_L_MID,0.000,0.000,0.000,-1.000,0,0
14:43:36.742,INSPECTING,7.450,-0.381,1.236,2.88,2.33,-49.36,0.777,0.793,0.811,0.793,0.793,0,NONE,INSPECT_SW_L_MID,0.000,0.000,0.000,-1.000,0,0
14:43:36.986,INSPECTING,7.450,-0.381,1.236,2.88,2.33,-60.82,0.777,0.793,0.811,0.793,0.793,0,NONE,INSPECT_SW_L_MID,0.000,0.000,0.000,-0.700,0,0
14:43:37.268,INSPECTING,7.450,-0.381,1.236,2.87,2.33,-57.23,0.777,0.793,0.811,0.793,0.793,0,NONE,INSPECT_RY_MID_1,0.000,0.000,0.000,0.760,0,0
14:43:37.485,INSPECTING,7.450,-0.381,1.236,2.87,2.32,-47.51,0.777,0.793,0.811,0.793,0.793,0,NONE,INSPECT_RY_MID_1,0.000,0.000,0.000,0.942,0,0
14:43:37.739,INSPECTING,7.450,-0.381,1.236,2.86,2.32,-36.47,0.777,0.793,0.811,0.793,0.793,0,NONE,INSPECT_RY_MID_1,0.000,0.000,0.000,0.986,0,0
14:43:37.980,INSPECTING,7.450,-0.381,1.236,2.86,2.31,-25.11,0.777,0.793,0.811,0.793,0.793,0,NONE,INSPECT_RY_MID_1,0.000,0.000,0.000,0.997,0,0
14:43:38.207,INSPECTING,7.450,-0.381,1.236,2.85,2.31,-13.67,0.777,0.793,0.811,0.793,0.793,0,NONE,INSPECT_RY_MID_1,0.000,0.000,0.000,0.999,0,0
14:43:38.442,INSPECTING,7.450,-0.381,1.236,2.85,2.30,-2.22,0.777,0.793,0.811,0.793,0.793,0,NONE,INSPECT_RY_MID_1,0.000,0.000,0.000,1.000,0,0
14:43:38.683,INSPECTING,7.450,-0.381,1.236,2.84,2.30,9.24,0.777,0.793,0.811,0.793,0.793,0,NONE,INSPECT_RY_MID_1,0.000,0.000,0.000,1.000,0,0
14:43:38.899,INSPECTING,7.450,-0.381,1.236,2.83,2.29,20.70,0.777,0.793,0.811,0.793,0.793,0,NONE,INSPECT_RY_MID_1,0.000,0.000,0.000,1.000,0,0
14:43:39.122,INSPECTING,7.450,-0.381,1.236,2.83,2.29,28.95,6.837,4.818,0.671,4.818,3.549,0,NONE,INSPECT_SW_R_MID,0.000,0.000,0.000,0.510,0,0
14:43:39.338,INSPECTING,7.450,-0.381,1.236,2.83,2.29,36.87,4.273,6.017,5.352,5.475,4.719,0,NONE,INSPECT_SW_R_MID,0.000,0.000,0.000,0.882,0,0
14:43:39.548,INSPECTING,7.450,-0.381,1.236,2.82,2.28,47.48,9.038,9.331,4.719,4.575,5.479,0,NONE,INSPECT_SW_R_MID,0.000,0.000,0.000,0.972,0,0
14:43:39.778,INSPECTING,7.450,-0.381,1.236,2.82,2.28,58.73,9.769,9.839,7.253,5.447,4.023,0,NONE,INSPECT_SW_R_MID,0.000,0.000,0.000,0.993,0,0
14:43:40.007,INSPECTING,7.449,-0.382,1.235,3.06,1.93,69.15,9.945,7.938,9.340,8.907,7.609,0,NONE,INSPECT_SW_R_MID,0.000,0.000,0.000,0.998,0,0
14:43:40.238,INSPECTING,7.449,-0.383,1.235,3.11,1.85,80.38,5.217,9.653,9.889,6.932,9.598,0,NONE,INSPECT_SW_R_MID,0.000,0.000,0.000,1.000,0,0
14:43:40.445,INSPECTING,7.449,-0.383,1.235,3.10,1.84,91.83,2.289,5.172,8.582,6.139,5.155,0,NONE,INSPECT_SW_R_MID,0.000,0.000,0.000,1.000,0,0
14:43:40.674,INSPECTING,7.449,-0.383,1.235,3.09,1.84,103.29,1.207,1.820,6.885,2.048,1.824,0,NONE,INSPECT_SW_R_MID,0.000,0.000,0.000,1.000,0,0
14:43:40.907,INSPECTING,7.449,-0.383,1.235,3.09,1.84,114.75,1.092,1.143,2.816,1.212,1.154,0,NONE,INSPECT_SW_R_MID,0.000,0.000,0.000,1.000,0,0
14:43:41.146,INSPECTING,7.449,-0.383,1.235,3.08,1.83,120.25,1.250,0.978,1.406,0.992,1.000,0,NONE,INSPECT_RY_MID_2,0.000,0.000,0.000,-0.510,0,0
14:43:41.452,INSPECTING,7.449,-0.383,1.235,3.08,1.83,112.33,1.337,0.950,1.037,0.949,0.977,0,NONE,INSPECT_RY_MID_2,0.000,0.000,0.000,-0.882,0,0
14:43:42.025,INSPECTING,7.449,-0.383,1.235,3.07,1.82,85.22,1.200,0.876,0.850,0.867,0.895,0,NONE,INSPECT_RY_MID_2,0.000,0.000,0.000,-0.972,0,0
14:43:42.252,INSPECTING,7.449,-0.383,1.235,3.06,1.82,73.97,0.854,5.500,4.945,3.976,5.506,0,NONE,INSPECT_RY_MID_2,0.000,0.000,0.000,-0.993,0,0
14:43:42.462,INSPECTING,7.449,-0.383,1.235,3.05,1.82,62.56,7.804,8.920,7.192,8.554,8.921,0,NONE,INSPECT_RY_MID_2,0.000,0.000,0.000,-0.998,0,0
14:43:42.685,INSPECTING,7.449,-0.383,1.235,3.05,1.81,51.11,9.473,9.741,6.436,9.653,8.761,0,NONE,INSPECT_RY_MID_2,0.000,0.000,0.000,-1.000,0,0
14:43:42.907,INSPECTING,7.449,-0.383,1.235,3.04,1.81,39.65,9.911,9.956,5.583,6.337,4.195,0,NONE,INSPECT_RY_MID_2,0.000,0.000,0.000,-1.000,0,0
14:43:43.141,INSPECTING,7.449,-0.383,1.235,3.03,1.81,28.20,9.395,8.132,7.108,8.691,7.997,0,NONE,INSPECT_RY_MID_2,0.000,0.000,0.000,-0.700,0,0
14:43:43.360,INSPECTING,7.504,-0.394,1.207,3.02,1.43,28.18,3.794,3.503,3.257,2.768,3.475,0,NONE,INSPECT_DOWN,0.000,0.000,-0.380,0.000,0,0
14:43:43.562,INSPECTING,7.504,-0.394,1.121,3.00,1.02,28.16,1.283,1.250,1.209,1.123,1.250,0,NONE,INSPECT_DOWN,0.000,0.000,-0.471,0.000,0,0
14:43:43.780,INSPECTING,7.504,-0.394,1.025,2.99,0.93,28.15,0.897,0.905,0.894,0.871,0.908,0,NONE,INSPECT_DOWN,0.000,0.000,-0.493,0.000,0,0
14:43:43.991,INSPECTING,7.504,-0.394,0.926,2.99,0.93,28.15,0.797,0.814,0.812,0.804,0.818,0,NONE,INSPECT_DOWN,0.000,0.000,-0.498,0.000,0,0
14:43:44.212,INSPECTING,7.504,-0.394,0.828,2.99,0.93,28.15,0.780,0.798,0.799,0.793,0.802,0,NONE,INSPECT_DOWN,0.000,0.000,-0.500,0.000,0,0
14:43:44.430,INSPECTING,7.504,-0.394,0.727,2.99,0.93,28.15,0.777,0.795,0.796,0.792,0.800,0,NONE,INSPECT_DOWN,0.000,0.000,-0.350,0.000,0,0
14:43:44.645,INSPECTING,7.500,-0.394,0.693,2.11,-0.02,25.86,0.776,0.794,0.797,0.792,0.799,0,NONE,INSPECT_SW_L_LO,0.000,0.000,0.000,-0.760,0,0
14:43:44.845,INSPECTING,7.491,-0.392,0.693,2.10,0.07,21.67,0.776,0.793,0.808,0.792,0.794,0,NONE,INSPECT_SW_L_LO,0.000,0.000,0.000,-0.942,0,0
14:43:45.065,INSPECTING,7.482,-0.390,0.694,2.39,0.48,16.81,0.775,0.792,0.812,0.791,0.793,0,NONE,INSPECT_SW_L_LO,0.000,0.000,0.000,-0.986,0,0
14:43:45.284,INSPECTING,7.473,-0.388,0.694,2.56,0.77,11.37,3.543,3.555,3.568,3.554,3.555,0,NONE,INSPECT_SW_L_LO,0.000,0.000,0.000,-0.997,0,0
14:43:45.555,INSPECTING,7.464,-0.385,0.694,2.83,1.18,5.38,3.543,3.555,3.568,3.554,3.555,0,NONE,INSPECT_SW_L_LO,0.000,0.000,0.000,-0.999,0,0
14:43:45.778,INSPECTING,7.457,-0.383,0.694,3.16,1.70,-1.56,3.543,3.555,3.568,3.554,3.555,0,NONE,INSPECT_SW_L_LO,0.000,0.000,0.000,-1.000,0,0
14:43:46.009,INSPECTING,7.452,-0.381,0.695,4.01,2.97,-9.78,5.480,5.488,5.498,2.597,5.489,0,NONE,INSPECT_SW_L_LO,0.000,0.000,0.000,-1.000,0,0
14:43:46.253,INSPECTING,7.450,-0.381,0.695,4.23,3.33,-20.35,5.480,5.488,5.498,2.597,5.489,0,NONE,INSPECT_SW_L_LO,0.000,0.000,0.000,-1.000,0,0
14:43:46.474,INSPECTING,7.450,-0.381,0.695,4.22,3.33,-31.81,5.480,5.488,5.498,2.597,5.489,0,NONE,INSPECT_SW_L_LO,0.000,0.000,0.000,-1.000,0,0
14:43:46.719,INSPECTING,7.450,-0.381,0.695,4.21,3.32,-43.27,5.480,5.488,5.498,2.597,5.489,0,NONE,INSPECT_SW_L_LO,0.000,0.000,0.000,-1.000,0,0
14:43:46.952,INSPECTING,7.450,-0.381,0.695,4.20,3.31,-54.73,5.480,5.488,5.498,2.597,5.489,0,NONE,INSPECT_SW_L_LO,0.000,0.000,0.000,-1.000,0,0
14:43:47.199,INSPECTING,7.450,-0.381,0.695,4.19,3.31,-60.23,5.480,5.488,5.498,2.597,5.489,0,NONE,INSPECT_RY_LO_1,0.000,0.000,0.000,0.510,0,0
14:43:47.419,INSPECTING,7.450,-0.381,0.695,4.19,3.31,-52.31,5.480,5.488,5.498,2.597,5.489,0,NONE,INSPECT_RY_LO_1,0.000,0.000,0.000,0.882,0,0
14:43:47.665,INSPECTING,7.450,-0.381,0.695,4.18,3.30,-41.70,5.480,5.488,5.498,2.597,5.489,0,NONE,INSPECT_RY_LO_1,0.000,0.000,0.000,0.972,0,0
14:43:47.873,INSPECTING,7.450,-0.381,0.695,4.17,3.29,-30.44,5.480,5.488,5.498,2.597,5.489,0,NONE,INSPECT_RY_LO_1,0.000,0.000,0.000,0.993,0,0
14:43:48.117,INSPECTING,7.450,-0.381,0.695,4.16,3.29,-19.03,5.480,5.488,5.498,2.597,5.489,0,NONE,INSPECT_RY_LO_1,0.000,0.000,0.000,0.998,0,0
14:43:48.355,INSPECTING,7.450,-0.381,0.695,4.16,3.28,-7.59,5.480,5.488,5.498,2.597,5.489,0,NONE,INSPECT_RY_LO_1,0.000,0.000,0.000,1.000,0,0
14:43:48.592,INSPECTING,7.450,-0.381,0.695,4.15,3.27,3.87,5.480,5.488,5.498,2.597,5.489,0,NONE,INSPECT_RY_LO_1,0.000,0.000,0.000,1.000,0,0
14:43:48.826,INSPECTING,7.450,-0.381,0.695,4.14,3.27,15.33,5.480,5.488,5.498,2.597,5.489,0,NONE,INSPECT_RY_LO_1,0.000,0.000,0.000,1.000,0,0
14:43:49.036,INSPECTING,7.450,-0.381,0.695,4.13,3.26,26.79,5.588,4.155,5.052,3.046,7.040,0,NONE,INSPECT_RY_LO_1,0.000,0.000,0.000,0.700,0,0
14:43:49.259,INSPECTING,7.450,-0.381,0.695,4.13,3.26,32.66,8.487,4.627,4.119,4.273,2.653,0,NONE,INSPECT_SW_R_LO,0.000,0.000,0.000,0.760,0,0
14:43:49.479,INSPECTING,7.450,-0.381,0.695,4.12,3.25,42.39,6.757,7.144,6.090,8.625,7.244,0,NONE,INSPECT_SW_R_LO,0.000,0.000,0.000,0.942,0,0
14:43:49.705,INSPECTING,7.450,-0.381,0.695,4.11,3.25,53.43,9.455,1.991,3.085,4.810,5.663,0,NONE,INSPECT_SW_R_LO,0.000,0.000,0.000,0.986,0,0
14:43:49.934,INSPECTING,7.450,-0.381,0.695,4.11,3.24,61.93,9.813,7.253,7.628,8.220,8.512,0,NONE,INSPECT_SW_R_LO,0.000,0.000,0.000,0.997,0,0
14:43:50.154,INSPECTING,7.449,-0.384,0.695,4.47,2.73,74.62,9.955,7.924,9.431,8.156,9.643,0,NONE,INSPECT_SW_R_LO,0.000,0.000,0.000,0.999,0,0
14:43:50.371,INSPECTING,7.449,-0.384,0.695,4.46,2.72,86.07,3.838,4.655,9.863,3.295,5.253,0,NONE,INSPECT_SW_R_LO,0.000,0.000,0.000,1.000,0,0
14:43:50.602,INSPECTING,7.449,-0.384,0.695,4.45,2.72,97.53,1.524,2.653,9.967,1.336,1.853,0,NONE,INSPECT_SW_R_LO,0.000,0.000,0.000,1.000,0,0
14:43:50.830,INSPECTING,7.449,-0.384,0.695,4.44,2.71,108.99,1.122,1.405,5.266,0.945,1.144,0,NONE,INSPECT_SW_R_LO,0.000,0.000,0.000,1.000,0,0
14:43:51.063,INSPECTING,7.449,-0.384,0.695,4.44,2.70,120.44,1.116,1.019,2.245,0.848,0.944,0,NONE,INSPECT_SW_R_LO,0.000,0.000,0.000,0.700,0,0
14:43:51.296,INSPECTING,7.449,-0.384,0.695,4.43,2.70,116.86,1.292,0.954,1.215,0.873,0.946,0,NONE,INSPECT_RY_LO_2,0.000,0.000,0.000,-0.760,0,0
14:43:51.524,INSPECTING,7.449,-0.384,0.695,4.43,2.70,107.13,1.279,0.897,0.852,0.855,0.914,0,NONE,INSPECT_RY_LO_2,0.000,0.000,0.000,-0.942,0,0
14:43:51.752,INSPECTING,7.449,-0.384,0.695,4.42,2.69,96.09,1.056,0.802,0.742,0.778,0.822,0,NONE,INSPECT_RY_LO_2,0.000,0.000,0.000,-0.986,0,0
14:43:51.990,INSPECTING,7.449,-0.384,0.695,4.41,2.69,84.73,0.908,0.777,6.825,0.764,0.794,0,NONE,INSPECT_RY_LO_2,0.000,0.000,0.000,-0.997,0,0
14:43:52.202,INSPECTING,7.449,-0.384,0.695,4.40,2.68,73.30,0.795,5.479,8.911,0.681,3.546,0,NONE,INSPECT_RY_LO_2,0.000,0.000,0.000,-0.999,0,0
14:43:52.412,INSPECTING,7.449,-0.384,0.695,4.39,2.68,61.84,5.421,7.930,9.738,5.362,7.488,0,NONE,INSPECT_RY_LO_2,0.000,0.000,0.000,-1.000,0,0
14:43:52.725,INSPECTING,7.449,-0.384,0.695,4.38,2.67,50.38,7.911,9.503,9.937,8.887,9.397,0,NONE,INSPECT_RY_LO_2,0.000,0.000,0.000,-1.000,0,0
14:43:52.924,INSPECTING,7.449,-0.384,0.695,4.37,2.67,38.92,8.976,6.866,7.988,9.454,6.862,0,NONE,INSPECT_RY_LO_2,0.000,0.000,0.000,-1.000,0,0
14:43:53.119,INSPECTING,7.449,-0.384,0.695,4.36,2.66,27.46,7.807,6.839,8.100,7.468,6.357,0,NONE,INSPECT_RY_LO_2,0.000,0.000,0.000,-0.700,0,0
14:43:53.333,INSPECTING,7.503,-0.395,0.723,4.11,2.52,28.10,2.421,2.235,3.495,3.336,2.127,0,NONE,INSPECT_RET_Z,0.000,0.000,0.380,0.000,0,0
14:43:53.544,INSPECTING,7.503,-0.395,0.807,4.00,2.80,28.30,1.052,1.034,1.246,1.210,1.027,0,NONE,INSPECT_RET_Z,0.000,0.000,0.471,0.000,0,0
14:43:53.758,INSPECTING,7.503,-0.395,0.905,3.96,3.17,28.32,0.822,0.832,0.867,0.851,0.842,0,NONE,INSPECT_RET_Z,0.000,0.000,0.493,0.000,0,0
14:43:53.976,INSPECTING,7.503,-0.395,1.004,3.91,3.53,28.34,0.787,0.799,0.808,0.794,0.814,0,NONE,INSPECT_RET_Z,0.000,0.000,0.498,0.000,0,0
14:43:54.185,INSPECTING,7.502,-0.395,1.104,3.87,3.87,28.36,0.777,0.790,0.791,0.776,0.807,0,NONE,INSPECT_RET_Z,0.000,0.000,0.500,0.000,0,0
14:43:54.398,INSPECTING,7.502,-0.395,1.203,3.82,4.18,28.38,0.776,0.788,0.789,0.771,0.806,0,NONE,INSPECT_RET_Z,0.000,0.000,0.500,0.000,0,0
14:43:54.612,INSPECTING,7.498,-0.397,1.286,3.78,4.42,28.39,0.776,0.787,0.788,0.768,0.806,0,NONE,INSPECT_BACKUP,0.000,-0.102,0.000,0.000,0,0
14:43:54.828,INSPECTING,7.476,-0.409,1.286,3.78,4.42,28.39,0.754,0.698,0.798,3.544,0.725,0,NONE,INSPECT_BACKUP,0.000,-0.152,0.000,0.000,0,0
14:43:55.042,INSPECTING,7.446,-0.425,1.286,3.78,4.42,28.39,1.068,0.545,0.678,4.536,4.476,0,NONE,INSPECT_BACKUP,0.000,-0.188,0.000,0.000,0,0
14:43:55.246,INSPECTING,7.412,-0.444,1.286,3.78,4.42,28.39,5.067,0.724,5.792,4.459,2.276,0,NONE,INSPECT_BACKUP,0.000,-0.197,0.000,0.000,0,0
14:43:55.472,INSPECTING,7.378,-0.463,1.286,3.78,4.42,28.39,4.389,3.526,7.573,3.456,2.095,0,NONE,INSPECT_BACKUP,0.000,-0.199,0.000,0.000,0,0
14:43:55.688,INSPECTING,7.342,-0.482,1.286,3.78,4.42,28.39,1.970,7.780,9.168,1.695,4.418,0,NONE,INSPECT_BACKUP,0.000,-0.200,0.000,0.000,0,0
14:43:55.893,INSPECTING,7.307,-0.501,1.286,3.78,4.42,28.39,3.895,3.912,4.906,0.744,6.607,0,NONE,INSPECT_BACKUP,0.000,-0.200,0.000,0.000,0,0
14:43:56.101,INSPECTING,7.272,-0.520,1.286,3.78,4.42,28.39,6.582,1.745,1.473,0.813,7.839,0,NONE,INSPECT_BACKUP,0.000,-0.200,0.000,0.000,0,0
14:43:56.307,INSPECTING,7.254,-0.529,1.288,3.78,4.42,28.39,9.179,2.683,1.679,1.118,9.481,0,NONE,INSPECT_UP,0.000,0.000,0.255,0.000,0,0
14:43:56.511,INSPECTING,7.254,-0.529,1.353,3.78,4.42,28.39,9.803,1.628,0.759,1.061,7.135,0,NONE,INSPECT_UP,0.000,0.000,0.441,0.000,0,0
14:43:56.721,INSPECTING,7.254,-0.529,1.447,3.78,4.42,28.39,9.953,0.762,3.360,0.564,4.681,0,NONE,INSPECT_UP,0.000,0.000,0.486,0.000,0,0
14:43:56.919,INSPECTING,7.254,-0.529,1.545,3.78,4.42,28.39,9.977,0.584,6.747,0.503,2.526,0,NONE,INSPECT_UP,0.000,0.000,0.497,0.000,0,0
14:43:57.128,INSPECTING,7.254,-0.529,1.645,3.78,4.42,28.39,7.764,0.556,9.219,0.480,0.957,0,NONE,INSPECT_UP,0.000,0.000,0.499,0.000,0,0
14:43:57.337,INSPECTING,7.254,-0.529,1.745,3.78,4.42,28.39,9.463,0.499,4.941,0.762,0.552,0,NONE,INSPECT_UP,0.000,0.000,0.500,0.000,0,0
14:43:57.547,INSPECTING,7.254,-0.529,1.842,3.78,4.42,28.39,5.170,1.953,2.181,3.477,3.368,0,NONE,INSPECT_UP,0.000,0.000,0.500,0.000,0,0
14:43:57.748,INSPECTING,7.254,-0.529,1.945,3.78,4.42,28.39,7.955,3.826,6.711,5.551,2.317,0,NONE,INSPECT_UP,0.000,0.000,0.350,0.000,0,0
14:43:57.965,INSPECTING,7.254,-0.529,1.978,3.78,4.42,23.66,9.299,3.061,3.975,4.181,1.452,0,NONE,INSPECT_SW_L_HI,0.000,0.000,0.000,-0.760,0,0
14:43:58.176,INSPECTING,7.254,-0.529,1.978,3.77,4.41,13.94,9.759,1.312,2.470,1.685,1.019,0,NONE,INSPECT_SW_L_HI,0.000,0.000,0.000,-0.942,0,0
14:43:58.387,INSPECTING,7.254,-0.529,1.978,3.76,4.40,2.89,9.759,1.312,2.470,1.685,1.019,0,NONE,INSPECT_SW_L_HI,0.000,0.000,0.000,-0.986,0,0
14:43:58.595,INSPECTING,7.254,-0.529,1.978,3.76,4.39,-8.47,9.759,1.312,2.470,1.685,1.019,0,NONE,INSPECT_SW_L_HI,0.000,0.000,0.000,-0.997,0,0
14:43:58.809,INSPECTING,7.254,-0.529,1.978,3.75,4.38,-19.90,9.759,1.312,2.470,1.685,1.019,0,NONE,INSPECT_SW_L_HI,0.000,0.000,0.000,-0.999,0,0
14:43:59.022,INSPECTING,7.254,-0.529,1.978,3.74,4.37,-31.36,9.759,1.312,2.470,1.685,1.019,0,NONE,INSPECT_SW_L_HI,0.000,0.000,0.000,-1.000,0,0
14:43:59.243,INSPECTING,7.254,-0.529,1.978,3.73,4.36,-42.81,9.759,1.312,2.470,1.685,1.019,0,NONE,INSPECT_SW_L_HI,0.000,0.000,0.000,-1.000,0,0
14:43:59.446,INSPECTING,7.254,-0.529,1.978,3.73,4.36,-54.27,9.759,1.312,2.470,1.685,1.019,0,NONE,INSPECT_SW_L_HI,0.000,0.000,0.000,-1.000,0,0
14:43:59.668,INSPECTING,7.254,-0.529,1.978,3.72,4.35,-65.73,9.759,1.312,2.470,1.685,1.019,0,NONE,INSPECT_SW_L_HI,0.000,0.000,0.000,-1.000,0,0
14:43:59.904,INSPECTING,7.254,-0.529,1.978,3.71,4.34,-77.19,9.759,1.312,2.470,1.685,1.019,0,NONE,INSPECT_SW_L_HI,0.000,0.000,0.000,-1.000,0,0
14:44:00.141,INSPECTING,7.254,-0.529,1.978,3.70,4.33,-88.65,9.759,1.312,2.470,1.685,1.019,0,NONE,INSPECT_SW_L_HI,0.000,0.000,0.000,-1.000,0,0
14:44:00.351,INSPECTING,7.254,-0.529,1.978,3.69,4.32,-100.11,9.759,1.312,2.470,1.685,1.019,0,NONE,INSPECT_SW_L_HI,0.000,0.000,0.000,-0.700,0,0
14:44:00.561,INSPECTING,7.254,-0.529,1.978,3.69,4.32,-96.53,9.759,1.312,2.470,1.685,1.019,0,NONE,INSPECT_RY_HI_1,0.000,0.000,0.000,0.760,0,0
14:44:00.791,INSPECTING,7.254,-0.529,1.978,3.69,4.31,-86.88,9.759,1.312,2.470,1.685,1.019,0,NONE,INSPECT_RY_HI_1,0.000,0.000,0.000,0.942,0,0
14:44:01.024,INSPECTING,7.254,-0.529,1.978,3.68,4.30,-75.84,9.759,1.312,2.470,1.685,1.019,0,NONE,INSPECT_RY_HI_1,0.000,0.000,0.000,0.986,0,0
14:44:01.257,INSPECTING,7.254,-0.529,1.978,3.67,4.29,-64.48,9.759,1.312,2.470,1.685,1.019,0,NONE,INSPECT_RY_HI_1,0.000,0.000,0.000,0.997,0,0
14:44:01.480,INSPECTING,7.254,-0.529,1.978,3.66,4.28,-53.05,9.759,1.312,2.470,1.685,1.019,0,NONE,INSPECT_RY_HI_1,0.000,0.000,0.000,0.999,0,0
14:44:01.692,INSPECTING,7.254,-0.529,1.978,3.66,4.28,-41.60,9.759,1.312,2.470,1.685,1.019,0,NONE,INSPECT_RY_HI_1,0.000,0.000,0.000,1.000,0,0
14:44:01.915,INSPECTING,7.254,-0.529,1.978,3.65,4.27,-30.14,9.759,1.312,2.470,1.685,1.019,0,NONE,INSPECT_RY_HI_1,0.000,0.000,0.000,1.000,0,0
14:44:02.126,INSPECTING,7.254,-0.529,1.978,3.64,4.26,-18.68,9.759,1.312,2.470,1.685,1.019,0,NONE,INSPECT_RY_HI_1,0.000,0.000,0.000,1.000,0,0
14:44:02.342,INSPECTING,7.254,-0.529,1.978,3.63,4.25,-7.22,9.759,1.312,2.470,1.685,1.019,0,NONE,INSPECT_RY_HI_1,0.000,0.000,0.000,1.000,0,0
14:44:02.561,INSPECTING,7.254,-0.529,1.978,3.63,4.24,4.24,9.759,1.312,2.470,1.685,1.019,0,NONE,INSPECT_RY_HI_1,0.000,0.000,0.000,1.000,0,0
14:44:02.772,INSPECTING,7.254,-0.529,1.978,3.62,4.23,15.70,9.759,1.312,2.470,1.685,1.019,0,NONE,INSPECT_RY_HI_1,0.000,0.000,0.000,1.000,0,0
14:44:02.975,INSPECTING,7.254,-0.529,1.978,3.61,4.22,27.15,9.759,1.312,2.470,1.685,1.019,0,NONE,INSPECT_RY_HI_1,0.000,0.000,0.000,0.700,0,0
14:44:03.191,INSPECTING,7.254,-0.529,1.978,3.61,4.22,33.03,7.932,5.608,1.311,5.736,0.823,0,NONE,INSPECT_SW_R_HI,0.000,0.000,0.000,0.760,0,0
14:44:03.407,INSPECTING,7.254,-0.529,1.978,3.60,4.21,42.76,9.504,5.221,3.497,6.050,1.057,0,NONE,INSPECT_SW_R_HI,0.000,0.000,0.000,0.942,0,0
14:44:03.631,INSPECTING,7.254,-0.529,1.978,3.60,4.21,53.80,2.930,9.197,6.972,7.375,5.731,0,NONE,INSPECT_SW_R_HI,0.000,0.000,0.000,0.986,0,0
14:44:03.843,INSPECTING,7.254,-0.529,1.978,3.59,4.20,65.16,1.321,2.870,4.710,3.361,2.047,0,NONE,INSPECT_SW_R_HI,0.000,0.000,0.000,0.997,0,0
14:44:04.036,INSPECTING,7.254,-0.529,1.978,3.58,4.19,76.59,0.963,1.354,6.970,1.458,1.169,0,NONE,INSPECT_SW_R_HI,0.000,0.000,0.000,0.999,0,0
14:44:04.247,INSPECTING,7.254,-0.529,1.978,3.57,4.18,88.04,0.927,0.999,2.320,1.010,0.972,0,NONE,INSPECT_SW_R_HI,0.000,0.000,0.000,1.000,0,0
14:44:04.453,INSPECTING,7.254,-0.529,1.978,3.57,4.17,99.50,0.991,0.921,1.172,0.908,0.934,0,NONE,INSPECT_SW_R_HI,0.000,0.000,0.000,1.000,0,0
14:44:04.673,INSPECTING,7.254,-0.529,1.978,3.56,4.16,110.96,1.106,0.938,0.924,0.914,0.959,0,NONE,INSPECT_SW_R_HI,0.000,0.000,0.000,1.000,0,0
14:44:04.887,INSPECTING,7.254,-0.529,1.978,3.55,4.15,122.42,1.324,1.002,0.850,0.975,1.034,0,NONE,INSPECT_SW_R_HI,0.000,0.000,0.000,1.000,0,0
14:44:05.100,INSPECTING,7.254,-0.529,1.978,3.54,4.14,133.88,1.761,1.136,0.863,1.095,1.174,0,NONE,INSPECT_SW_R_HI,0.000,0.000,0.000,1.000,0,0
14:44:07.529,INSPECTING,7.254,-0.529,1.978,3.54,4.14,145.34,1.761,1.136,0.863,1.095,1.174,0,NONE,INSPECT_SW_R_HI,0.000,0.000,0.000,1.000,0,0
14:44:07.559,INSPECTING,7.254,-0.529,1.978,3.53,4.13,156.79,1.761,1.136,0.863,1.095,1.174,0,NONE,INSPECT_SW_R_HI,0.000,0.000,0.000,0.700,0,0
14:44:07.750,INSPECTING,7.254,-0.529,1.978,3.53,4.12,153.21,2.848,1.734,1.021,1.445,1.858,0,NONE,INSPECT_RY_HI_2,0.000,0.000,0.000,-0.760,0,0
14:44:07.968,INSPECTING,7.254,-0.529,1.978,3.52,4.12,143.48,4.041,2.227,1.173,1.858,2.423,0,NONE,INSPECT_RY_HI_2,0.000,0.000,0.000,-0.942,0,0
14:44:08.177,INSPECTING,7.254,-0.529,1.978,3.51,4.11,132.47,4.341,2.045,1.128,1.805,2.173,0,NONE,INSPECT_RY_HI_2,0.000,0.000,0.000,-0.986,0,0
14:44:08.395,INSPECTING,7.254,-0.529,1.978,3.51,4.10,121.11,3.399,1.637,1.006,1.521,1.723,0,NONE,INSPECT_RY_HI_2,0.000,0.000,0.000,-0.997,0,0
14:44:08.595,INSPECTING,7.254,-0.529,1.978,3.50,4.09,109.67,2.357,1.320,0.904,1.253,1.376,0,NONE,INSPECT_RY_HI_2,0.000,0.000,0.000,-0.999,0,0
14:44:08.803,INSPECTING,7.254,-0.529,1.978,3.49,4.08,98.22,1.681,1.111,0.837,1.068,1.148,0,NONE,INSPECT_RY_HI_2,0.000,0.000,0.000,-1.000,0,0
14:44:09.030,INSPECTING,7.254,-0.529,1.978,3.49,4.08,86.76,1.296,0.987,0.810,0.955,1.016,0,NONE,INSPECT_RY_HI_2,0.000,0.000,0.000,-1.000,0,0
14:44:09.233,INSPECTING,7.254,-0.529,1.978,3.48,4.07,75.30,1.037,0.911,0.835,0.889,0.937,0,NONE,INSPECT_RY_HI_2,0.000,0.000,0.000,-1.000,0,0
14:44:09.436,INSPECTING,7.254,-0.529,1.978,3.47,4.06,63.84,0.916,0.890,0.790,0.871,0.911,0,NONE,INSPECT_RY_HI_2,0.000,0.000,0.000,-1.000,0,0
14:44:09.646,INSPECTING,7.254,-0.529,1.978,3.46,4.05,52.38,0.856,0.876,4.369,0.860,0.894,0,NONE,INSPECT_RY_HI_2,0.000,0.000,0.000,-1.000,0,0
14:44:09.855,INSPECTING,7.254,-0.529,1.978,3.46,4.04,40.92,0.819,5.529,4.442,4.063,2.646,0,NONE,INSPECT_RY_HI_2,0.000,0.000,0.000,-1.000,0,0
14:44:10.061,INSPECTING,7.254,-0.529,1.978,3.45,4.03,29.46,7.795,6.475,3.503,7.781,1.590,0,NONE,INSPECT_RY_HI_2,0.000,0.000,0.000,-0.700,0,0
14:44:10.265,INSPECTING,7.254,-0.529,1.950,3.45,4.03,29.46,9.244,7.432,1.463,9.239,0.966,0,NONE,INSPECT_GO_MID,0.000,0.000,-0.380,0.000,0,0
14:44:10.483,INSPECTING,7.254,-0.529,1.864,3.45,4.03,29.46,3.675,3.675,3.663,9.872,0.836,0,NONE,INSPECT_GO_MID,0.000,0.000,-0.471,0.000,0,0
14:44:10.684,INSPECTING,7.254,-0.529,1.768,3.45,4.03,29.46,6.447,1.826,3.284,5.300,5.525,0,NONE,INSPECT_GO_MID,0.000,0.000,-0.493,0.000,0,0
14:44:10.895,INSPECTING,7.254,-0.529,1.669,3.45,4.03,29.46,9.147,5.770,1.132,1.728,1.693,0,NONE,INSPECT_GO_MID,0.000,0.000,-0.498,0.000,0,0
14:44:11.090,INSPECTING,7.254,-0.529,1.569,3.45,4.03,29.46,7.117,1.740,6.889,3.761,4.498,0,NONE,INSPECT_GO_MID,0.000,0.000,-0.500,0.000,0,0
14:44:11.304,INSPECTING,7.254,-0.529,1.469,3.45,4.03,29.46,5.200,3.615,9.253,1.234,1.609,0,NONE,INSPECT_GO_MID,0.000,0.000,-0.500,0.000,0,0
14:44:11.508,INSPECTING,7.254,-0.529,1.371,3.45,4.03,29.46,6.040,2.260,3.891,0.615,1.027,0,NONE,INSPECT_GO_MID,0.000,0.000,-0.500,0.000,0,0
14:44:11.714,INSPECTING,7.254,-0.529,1.288,3.45,4.03,28.09,7.266,3.047,1.824,0.499,5.579,0,NONE,INSPECT_SW_L_MID,0.000,0.000,0.000,-0.510,0,0
14:44:11.918,INSPECTING,7.254,-0.529,1.288,3.44,4.03,20.17,6.323,2.012,1.099,1.968,8.484,0,NONE,INSPECT_SW_L_MID,0.000,0.000,0.000,-0.882,0,0
14:44:12.122,INSPECTING,7.254,-0.529,1.288,3.44,4.02,9.56,3.452,4.130,0.853,4.106,9.257,0,NONE,INSPECT_SW_L_MID,0.000,0.000,0.000,-0.972,0,0
14:44:12.352,INSPECTING,7.254,-0.529,1.288,3.43,4.01,-1.70,3.452,4.130,0.853,4.106,9.257,0,NONE,INSPECT_SW_L_MID,0.000,0.000,0.000,-0.993,0,0
14:44:12.570,INSPECTING,7.254,-0.529,1.288,3.42,4.01,-13.11,3.452,4.130,0.853,4.106,9.257,0,NONE,INSPECT_SW_L_MID,0.000,0.000,0.000,-0.998,0,0
14:44:12.801,INSPECTING,7.254,-0.529,1.288,3.42,4.00,-24.56,3.452,4.130,0.853,4.106,9.257,0,NONE,INSPECT_SW_L_MID,0.000,0.000,0.000,-1.000,0,0
14:44:13.016,INSPECTING,7.254,-0.529,1.288,3.41,3.99,-36.01,3.452,4.130,0.853,4.106,9.257,0,NONE,INSPECT_SW_L_MID,0.000,0.000,0.000,-1.000,0,0
14:44:13.234,INSPECTING,7.254,-0.529,1.288,3.40,3.98,-47.47,3.452,4.130,0.853,4.106,9.257,0,NONE,INSPECT_SW_L_MID,0.000,0.000,0.000,-1.000,0,0
14:44:13.462,INSPECTING,7.254,-0.529,1.288,3.40,3.97,-58.93,3.452,4.130,0.853,4.106,9.257,0,NONE,INSPECT_SW_L_MID,0.000,0.000,0.000,-1.000,0,0
14:44:13.695,INSPECTING,7.254,-0.529,1.288,3.39,3.96,-70.39,3.452,4.130,0.853,4.106,9.257,0,NONE,INSPECT_SW_L_MID,0.000,0.000,0.000,-1.000,0,0
14:44:13.920,INSPECTING,7.254,-0.529,1.288,3.38,3.96,-81.85,3.452,4.130,0.853,4.106,9.257,0,NONE,INSPECT_SW_L_MID,0.000,0.000,0.000,-1.000,0,0
14:44:14.139,INSPECTING,7.254,-0.529,1.288,3.37,3.95,-93.31,3.452,4.130,0.853,4.106,9.257,0,NONE,INSPECT_SW_L_MID,0.000,0.000,0.000,-1.000,0,0
14:44:14.356,INSPECTING,7.254,-0.529,1.288,3.37,3.94,-104.77,5.162,3.633,1.288,3.597,7.188,0,NONE,INSPECT_SW_L_MID,0.000,0.000,0.000,-0.700,0,0
14:44:14.556,INSPECTING,7.254,-0.529,1.288,3.37,3.94,-101.19,5.162,3.633,1.288,3.597,7.188,0,NONE,INSPECT_RY_MID_1,0.000,0.000,0.000,0.760,0,0
14:44:14.790,INSPECTING,7.254,-0.529,1.288,3.36,3.93,-91.46,5.162,3.633,1.288,3.597,7.188,0,NONE,INSPECT_RY_MID_1,0.000,0.000,0.000,0.942,0,0
14:44:14.989,INSPECTING,7.254,-0.529,1.288,3.35,3.92,-80.42,5.162,3.633,1.288,3.597,7.188,0,NONE,INSPECT_RY_MID_1,0.000,0.000,0.000,0.986,0,0
14:44:15.237,INSPECTING,7.254,-0.529,1.288,3.35,3.92,-69.06,5.162,3.633,1.288,3.597,7.188,0,NONE,INSPECT_RY_MID_1,0.000,0.000,0.000,0.997,0,0
14:44:15.449,INSPECTING,7.254,-0.529,1.288,3.34,3.91,-57.63,5.162,3.633,1.288,3.597,7.188,0,NONE,INSPECT_RY_MID_1,0.000,0.000,0.000,0.999,0,0
14:44:15.665,INSPECTING,7.254,-0.529,1.288,3.33,3.90,-46.17,5.162,3.633,1.288,3.597,7.188,0,NONE,INSPECT_RY_MID_1,0.000,0.000,0.000,1.000,0,0
14:44:15.877,INSPECTING,7.254,-0.529,1.288,3.33,3.89,-34.72,5.162,3.633,1.288,3.597,7.188,0,NONE,INSPECT_RY_MID_1,0.000,0.000,0.000,1.000,0,0
14:44:16.091,INSPECTING,7.254,-0.529,1.288,3.32,3.88,-23.26,5.162,3.633,1.288,3.597,7.188,0,NONE,INSPECT_RY_MID_1,0.000,0.000,0.000,1.000,0,0
14:44:16.316,INSPECTING,7.254,-0.529,1.288,3.31,3.87,-11.80,5.162,3.633,1.288,3.597,7.188,0,NONE,INSPECT_RY_MID_1,0.000,0.000,0.000,1.000,0,0
14:44:16.548,INSPECTING,7.254,-0.529,1.288,3.31,3.87,-0.34,5.162,3.633,1.288,3.597,7.188,0,NONE,INSPECT_RY_MID_1,0.000,0.000,0.000,1.000,0,0
14:44:16.761,INSPECTING,7.254,-0.529,1.288,3.30,3.86,11.12,5.162,3.633,1.288,3.597,7.188,0,NONE,INSPECT_RY_MID_1,0.000,0.000,0.000,1.000,0,0
14:44:16.980,INSPECTING,7.254,-0.529,1.288,3.29,3.85,22.58,5.162,3.633,1.288,3.597,7.188,0,NONE,INSPECT_RY_MID_1,0.000,0.000,0.000,1.000,0,0
14:44:17.175,INSPECTING,7.254,-0.529,1.288,3.29,3.85,30.83,5.675,3.201,2.870,2.392,8.622,0,NONE,INSPECT_SW_R_MID,0.000,0.000,0.000,0.510,0,0
14:44:17.386,INSPECTING,7.254,-0.529,1.288,3.28,3.84,38.75,1.833,1.384,2.022,5.842,9.669,0,NONE,INSPECT_SW_R_MID,0.000,0.000,0.000,0.882,0,0
14:44:17.596,INSPECTING,7.254,-0.529,1.288,3.28,3.83,49.36,0.947,0.664,5.986,3.088,9.944,0,NONE,INSPECT_SW_R_MID,0.000,0.000,0.000,0.972,0,0
14:44:17.793,INSPECTING,7.254,-0.529,1.288,3.27,3.83,60.61,0.856,0.527,2.368,1.345,5.329,0,NONE,INSPECT_SW_R_MID,0.000,0.000,0.000,0.993,0,0
14:44:18.004,INSPECTING,7.254,-0.529,1.288,3.26,3.82,72.02,0.839,0.798,0.858,0.905,1.633,0,NONE,INSPECT_SW_R_MID,0.000,0.000,0.000,0.998,0,0
14:44:18.211,INSPECTING,7.254,-0.529,1.288,3.26,3.81,83.47,0.883,0.866,0.777,0.880,1.082,0,NONE,INSPECT_SW_R_MID,0.000,0.000,0.000,1.000,0,0
14:44:18.422,INSPECTING,7.254,-0.529,1.288,3.25,3.80,94.93,0.957,0.886,0.813,0.875,0.955,0,NONE,INSPECT_SW_R_MID,0.000,0.000,0.000,1.000,0,0
14:44:18.621,INSPECTING,7.254,-0.529,1.288,3.24,3.80,106.38,1.057,0.912,0.802,0.893,0.951,0,NONE,INSPECT_SW_R_MID,0.000,0.000,0.000,1.000,0,0
14:44:18.848,INSPECTING,7.254,-0.529,1.288,3.24,3.79,117.84,1.242,0.973,0.804,0.948,1.006,0,NONE,INSPECT_SW_R_MID,0.000,0.000,0.000,1.000,0,0
14:44:19.057,INSPECTING,7.254,-0.529,1.288,3.23,3.78,129.30,1.577,1.080,0.831,1.049,1.120,0,NONE,INSPECT_SW_R_MID,0.000,0.000,0.000,1.000,0,0
14:44:19.274,INSPECTING,7.254,-0.529,1.288,3.22,3.77,140.76,2.405,1.283,0.900,1.247,1.338,0,NONE,INSPECT_SW_R_MID,0.000,0.000,0.000,1.000,0,0
14:44:19.475,INSPECTING,7.254,-0.529,1.288,3.22,3.76,152.22,3.414,1.531,0.977,1.478,1.581,0,NONE,INSPECT_SW_R_MID,0.000,0.000,0.000,1.000,0,0
14:44:19.695,INSPECTING,7.254,-0.529,1.288,3.21,3.76,157.72,5.193,2.262,1.185,2.169,2.289,0,NONE,INSPECT_RY_MID_2,0.000,0.000,0.000,-0.510,0,0
14:44:19.894,INSPECTING,7.254,-0.529,1.288,3.21,3.75,149.80,5.996,2.810,1.310,2.644,2.284,0,NONE,INSPECT_RY_MID_2,0.000,0.000,0.000,-0.882,0,0
14:44:20.117,INSPECTING,7.254,-0.529,1.288,3.20,3.75,139.19,5.555,2.496,1.249,2.376,2.271,0,NONE,INSPECT_RY_MID_2,0.000,0.000,0.000,-0.972,0,0
14:44:20.342,INSPECTING,7.254,-0.529,1.288,3.20,3.74,127.93,5.096,2.244,1.182,2.132,2.103,0,NONE,INSPECT_RY_MID_2,0.000,0.000,0.000,-0.993,0,0
14:44:20.561,INSPECTING,7.254,-0.529,1.288,3.19,3.73,116.52,3.233,1.611,0.992,1.540,1.591,0,NONE,INSPECT_RY_MID_2,0.000,0.000,0.000,-0.998,0,0
14:44:20.777,INSPECTING,7.254,-0.529,1.288,3.18,3.72,105.07,2.123,1.253,0.880,1.213,1.272,0,NONE,INSPECT_RY_MID_2,0.000,0.000,0.000,-1.000,0,0
14:44:20.981,INSPECTING,7.254,-0.529,1.288,3.18,3.72,93.62,1.525,1.060,0.826,1.030,1.082,0,NONE,INSPECT_RY_MID_2,0.000,0.000,0.000,-1.000,0,0
14:44:21.202,INSPECTING,7.254,-0.529,1.288,3.17,3.71,82.16,1.136,0.938,0.815,0.915,0.960,0,NONE,INSPECT_RY_MID_2,0.000,0.000,0.000,-1.000,0,0
14:44:21.409,INSPECTING,7.254,-0.529,1.288,3.16,3.70,70.70,0.989,0.906,0.858,0.888,0.928,0,NONE,INSPECT_RY_MID_2,0.000,0.000,0.000,-1.000,0,0
14:44:21.610,INSPECTING,7.254,-0.529,1.288,3.16,3.69,59.24,0.885,0.883,0.652,0.868,0.900,0,NONE,INSPECT_RY_MID_2,0.000,0.000,0.000,-1.000,0,0
14:44:21.822,INSPECTING,7.254,-0.529,1.288,3.15,3.69,47.78,0.823,0.622,0.456,0.629,0.885,0,NONE,INSPECT_RY_MID_2,0.000,0.000,0.000,-1.000,0,0
14:44:22.027,INSPECTING,7.254,-0.529,1.288,3.14,3.68,36.32,3.568,0.482,4.440,0.567,7.812,0,NONE,INSPECT_RY_MID_2,0.000,0.000,0.000,-1.000,0,0
14:44:22.240,INSPECTING,7.254,-0.529,1.286,3.14,3.67,30.59,1.309,0.677,4.941,4.050,9.475,0,NONE,INSPECT_DOWN,0.000,0.000,-0.255,0.000,0,0
14:44:22.441,INSPECTING,7.254,-0.529,1.219,3.14,3.67,30.59,5.570,0.796,6.402,3.887,9.874,0,NONE,INSPECT_DOWN,0.000,0.000,-0.441,0.000,0,0
14:44:22.641,INSPECTING,7.254,-0.529,1.127,3.14,3.67,30.59,8.936,7.790,2.940,1.560,9.970,0,NONE,INSPECT_DOWN,0.000,0.000,-0.486,0.000,0,0
14:44:22.856,INSPECTING,7.254,-0.529,1.027,3.14,3.67,30.59,9.745,9.469,1.395,7.974,2.670,0,NONE,INSPECT_DOWN,0.000,0.000,-0.497,0.000,0,0
14:44:23.056,INSPECTING,7.254,-0.529,0.929,3.14,3.67,30.59,9.939,9.873,0.611,9.513,8.240,0,NONE,INSPECT_DOWN,0.000,0.000,-0.499,0.000,0,0
14:44:23.270,INSPECTING,7.254,-0.529,0.830,3.14,3.67,30.59,9.985,5.165,0.423,7.475,5.289,0,NONE,INSPECT_DOWN,0.000,0.000,-0.500,0.000,0,0
14:44:23.476,INSPECTING,7.254,-0.529,0.729,3.14,3.67,30.59,9.995,3.991,0.812,2.935,2.700,0,NONE,INSPECT_DOWN,0.000,0.000,-0.500,0.000,0,0
14:44:23.703,INSPECTING,7.254,-0.529,0.629,3.14,3.67,30.59,3.183,2.784,1.015,4.464,1.505,0,NONE,INSPECT_DOWN,0.000,0.000,-0.500,0.000,0,0
14:44:23.895,INSPECTING,7.254,-0.529,0.529,3.14,3.67,30.59,6.359,1.675,0.602,3.378,7.086,0,NONE,INSPECT_DOWN,0.000,0.000,-0.350,0.000,0,0
14:44:24.102,INSPECTING,7.254,-0.529,0.496,3.14,3.67,27.99,6.120,7.145,0.466,1.749,7.357,0,NONE,INSPECT_SW_L_LO,0.000,0.000,0.000,-0.760,0,0
14:44:24.305,INSPECTING,7.254,-0.529,0.496,3.13,3.67,16.97,2.953,9.021,3.841,1.084,7.433,0,NONE,INSPECT_SW_L_LO,0.000,0.000,0.000,-0.942,0,0
14:44:24.521,INSPECTING,7.254,-0.529,0.496,3.13,3.66,5.93,2.953,9.021,3.841,1.084,7.433,0,NONE,INSPECT_SW_L_LO,0.000,0.000,0.000,-0.986,0,0
14:44:24.731,INSPECTING,7.254,-0.529,0.496,3.12,3.65,-5.43,2.953,9.021,3.841,1.084,7.433,0,NONE,INSPECT_SW_L_LO,0.000,0.000,0.000,-0.997,0,0
14:44:24.945,INSPECTING,7.254,-0.529,0.496,3.12,3.65,-16.86,2.953,9.021,3.841,1.084,7.433,0,NONE,INSPECT_SW_L_LO,0.000,0.000,0.000,-0.999,0,0
14:44:25.159,INSPECTING,7.254,-0.529,0.496,3.11,3.64,-28.32,2.953,9.021,3.841,1.084,7.433,0,NONE,INSPECT_SW_L_LO,0.000,0.000,0.000,-1.000,0,0
14:44:25.374,INSPECTING,7.254,-0.529,0.496,3.10,3.63,-39.78,2.953,9.021,3.841,1.084,7.433,0,NONE,INSPECT_SW_L_LO,0.000,0.000,0.000,-1.000,0,0
14:44:25.583,TURNING,7.255,-0.529,0.496,3.10,3.62,-51.37,2.953,9.021,3.841,1.084,7.433,0,NONE,TURNING,0.000,0.025,0.000,-1.204,0,0
14:44:25.802,TURNING,7.258,-0.535,0.496,3.09,3.61,-66.00,2.953,9.021,3.841,1.084,7.433,0,NONE,TURNING,0.000,0.044,0.000,-1.353,0,0
14:44:26.028,TURNING,7.261,-0.544,0.496,3.07,3.60,-81.70,2.953,9.021,3.841,1.084,7.433,0,NONE,TURNING,0.000,0.049,0.000,-1.389,0,0
14:44:26.243,TURNING,7.261,-0.554,0.496,3.06,3.58,-97.67,2.953,9.021,3.841,1.084,7.433,0,NONE,TURNING,0.000,0.050,0.000,-1.397,0,0
14:44:26.466,TURNING,7.259,-0.563,0.496,3.05,3.57,-113.69,2.953,9.021,3.841,1.084,7.433,0,NONE,TURNING,0.000,0.050,0.000,-1.399,0,0
14:44:26.698,TURNING,7.253,-0.572,0.496,3.04,3.55,-129.73,2.953,9.021,3.841,1.084,7.433,0,NONE,TURNING,0.000,0.050,0.000,-1.400,0,0
14:44:26.912,TURNING,7.246,-0.579,0.496,3.02,3.54,-145.77,2.953,9.021,3.841,1.084,7.433,0,NONE,TURNING,0.000,0.050,0.000,-1.400,0,0
14:44:27.127,SEARCHING,7.242,-0.581,0.493,3.02,3.53,-153.79,2.953,9.021,3.841,1.084,7.433,0,NONE,SEARCHING,0.000,0.425,-0.357,-0.512,0,0
14:44:27.350,SEARCHING,7.154,-0.622,0.403,3.02,3.53,-156.60,2.794,7.172,4.214,1.637,8.203,0,NONE,SEARCHING,0.000,0.710,-0.543,-0.193,0,0
14:44:27.570,SEARCHING,7.043,-0.668,0.299,3.02,3.53,-158.02,2.630,5.886,4.589,2.004,8.742,0,NONE,SEARCHING,0.000,0.778,-0.494,-0.142,0,0
14:44:27.779,SEARCHING,6.928,-0.715,0.235,0.01,-0.01,-159.32,2.563,4.952,4.300,2.223,9.120,0,NONE,SEARCHING,0.000,0.795,-0.453,-0.132,0,0
14:44:28.005,SEARCHING,6.808,-0.759,0.235,0.00,-0.00,-160.50,2.563,4.952,4.300,2.223,9.120,0,NONE,SEARCHING,0.000,0.799,-0.419,-0.127,0,0
14:44:28.356,INSPECTING,6.850,-0.746,0.055,-33.34,-20.09,-148.81,1.403,2.335,6.310,6.239,4.853,0,FLOOR,INSPECT_BACKUP,0.000,-0.060,0.000,0.000,0,1
14:44:28.707,INSPECTING,6.855,-0.746,0.054,-33.84,-8.76,-156.88,1.283,1.659,4.735,3.864,2.574,0,FLOOR,INSPECT_BACKUP,0.000,-0.166,0.000,0.000,0,1
14:44:29.028,INSPECTING,6.854,-0.748,0.048,-29.11,-15.88,-156.29,1.131,1.020,6.390,8.527,1.018,0,FLOOR,INSPECT_BACKUP,0.000,-0.192,0.000,0.000,0,1
14:44:29.379,INSPECTING,6.850,-0.781,0.056,-3.65,-1.18,-165.16,1.271,1.253,8.003,6.054,1.405,0,FLOOR,INSPECT_BACKUP,0.000,-0.198,0.000,0.000,0,1
14:44:29.718,INSPECTING,6.851,-0.788,0.059,-0.33,0.21,-165.38,6.307,6.334,9.521,9.053,4.950,0,FLOOR,INSPECT_BACKUP,0.000,-0.200,0.000,0.000,0,1
14:44:30.019,INSPECTING,6.852,-0.788,0.059,-0.33,0.21,-165.31,6.831,6.888,9.885,9.773,4.521,0,FLOOR,INSPECT_BACKUP,0.000,-0.200,0.000,0.000,0,1
14:44:30.335,INSPECTING,6.852,-0.787,0.059,-0.33,0.21,-165.24,8.458,8.487,8.983,9.945,7.915,0,FLOOR,INSPECT_BACKUP,0.000,-0.200,0.000,0.000,0,1
