timestamp,state,x,z,roll_deg,pitch_deg,yaw_deg,left,center,right,top,bottom,cmd_vx,cmd_vz,cmd_roll,cmd_yaw
2026-05-11 15:46:09.556601,SEARCHING,0.056,1.000,0.00,0.00,0.00,10.000,10.000,10.000,10.000,10.000,0.700,0.000,0.000,0.000
2026-05-11 15:46:09.758856,SEARCHING,0.196,1.000,0.00,0.00,0.00,10.000,10.000,10.000,10.000,10.000,0.700,0.000,0.000,0.000
2026-05-11 15:46:09.975767,SEARCHING,0.336,1.000,0.00,0.00,0.00,10.000,10.000,10.000,10.000,10.000,0.700,0.000,0.000,0.000
2026-05-11 15:46:10.195682,SEARCHING,0.476,1.000,0.00,0.00,1.87,1.876,3.011,0.986,3.051,2.460,0.700,0.047,0.216,0.433
2026-05-11 15:46:10.420726,SEARCHING,0.616,1.000,0.00,0.00,6.81,1.876,3.011,0.986,3.051,2.460,0.700,0.047,0.216,0.433
2026-05-11 15:46:10.671836,SEARCHING,0.754,1.000,0.00,0.00,11.76,1.876,3.011,0.986,3.051,2.460,0.700,0.047,0.216,0.433
2026-05-11 15:46:10.867772,SEARCHING,0.890,1.000,0.00,0.00,16.72,1.421,1.907,4.576,1.907,1.907,0.667,0.000,-0.218,-0.437
2026-05-11 15:46:11.070026,SEARCHING,1.011,1.000,0.00,0.00,12.95,1.278,1.634,2.825,1.634,1.634,0.572,0.000,-0.193,-0.385
2026-05-11 15:46:11.279548,SEARCHING,1.124,1.000,0.00,0.00,8.53,1.278,1.634,2.825,1.634,1.634,0.572,0.000,-0.193,-0.385
2026-05-11 15:46:11.493106,SEARCHING,1.237,1.000,0.00,0.00,4.12,1.278,1.634,2.825,1.634,1.634,0.572,0.000,-0.193,-0.385
2026-05-11 15:46:11.701631,SEARCHING,1.352,1.000,0.00,0.00,-0.30,1.278,1.634,2.825,1.634,1.634,0.572,0.000,-0.193,-0.385
2026-05-11 15:46:11.915543,SEARCHING,1.466,1.000,0.00,0.00,-4.72,1.278,1.634,2.825,1.634,1.634,0.572,0.000,-0.193,-0.385
2026-05-11 15:46:12.140571,SEARCHING,1.580,1.000,0.00,0.00,-9.14,1.278,1.634,2.825,1.634,1.634,0.572,0.000,-0.193,-0.385
2026-05-11 15:46:12.349882,SEARCHING,1.692,1.000,0.00,0.00,-13.55,1.457,4.317,4.487,4.487,2.487,0.700,0.108,-0.208,-0.417
2026-05-11 15:46:12.556874,SEARCHING,1.824,1.000,0.00,0.00,-18.29,1.457,4.317,4.487,4.487,2.487,0.700,0.108,-0.208,-0.417
2026-05-11 15:46:12.776185,SEARCHING,1.955,1.000,0.00,0.00,-23.07,1.457,4.317,4.487,4.487,2.487,0.700,0.108,-0.208,-0.417
2026-05-11 15:46:12.976286,SEARCHING,2.082,1.000,0.00,0.00,-27.85,1.457,4.317,4.487,4.487,2.487,0.700,0.108,-0.208,-0.417
2026-05-11 15:46:13.183792,SEARCHING,2.203,1.000,0.00,0.00,-32.63,1.457,4.317,4.487,4.487,2.487,0.700,0.108,-0.208,-0.417
2026-05-11 15:46:13.388291,SEARCHING,2.318,1.000,0.00,0.00,-37.41,1.457,4.317,4.487,4.487,2.487,0.700,0.108,-0.208,-0.417
2026-05-11 15:46:13.603147,SEARCHING,2.426,1.000,0.00,0.00,-42.18,6.184,3.223,2.311,3.269,2.434,0.700,0.063,0.122,0.244
2026-05-11 15:46:13.822334,SEARCHING,2.531,1.000,0.00,0.00,-40.15,4.670,3.011,2.099,3.011,2.434,0.700,0.047,0.118,0.236
2026-05-11 15:46:14.054175,SEARCHING,2.640,1.000,0.00,0.00,-37.40,5.200,2.934,2.080,2.934,2.460,0.700,0.039,0.130,0.260
2026-05-11 15:46:14.267860,SEARCHING,2.753,1.000,0.00,0.00,-34.44,5.200,2.934,2.080,2.934,2.460,0.700,0.039,0.130,0.260
2026-05-11 15:46:14.470523,SEARCHING,2.870,1.000,0.00,0.00,-31.46,6.184,3.011,2.080,3.011,2.359,0.700,0.055,0.144,0.287
2026-05-11 15:46:14.679685,SEARCHING,2.991,1.000,0.00,0.00,-28.21,6.184,3.011,2.080,3.011,2.359,0.700,0.055,0.144,0.287
2026-05-11 15:46:14.874176,SEARCHING,3.116,1.000,0.00,0.00,-24.92,5.085,3.365,2.222,3.415,2.460,0.700,0.068,0.114,0.228
2026-05-11 15:46:15.108552,SEARCHING,3.244,1.000,0.00,0.00,-22.23,5.085,3.365,2.222,3.415,2.460,0.700,0.068,0.114,0.228
2026-05-11 15:46:15.305029,SEARCHING,3.375,1.000,0.00,0.00,-19.62,5.085,3.365,2.222,3.415,2.460,0.700,0.068,0.114,0.228
2026-05-11 15:46:15.521199,SEARCHING,3.508,1.000,0.00,0.00,-17.01,5.085,3.365,2.222,3.415,2.460,0.700,0.068,0.114,0.228
2026-05-11 15:46:15.721028,SEARCHING,3.643,1.000,0.00,0.00,-14.39,3.467,6.538,2.434,3.945,2.359,0.700,0.102,0.055,0.110
2026-05-11 15:46:15.940385,SEARCHING,3.779,1.000,0.00,0.00,-12.99,3.467,6.538,2.434,3.945,2.359,0.700,0.102,0.055,0.110
2026-05-11 15:46:16.146293,SEARCHING,3.915,1.000,0.00,0.00,-11.73,3.467,6.538,2.434,3.945,2.359,0.700,0.102,0.055,0.110
2026-05-11 15:46:16.360347,SEARCHING,4.053,1.000,0.00,0.00,-10.47,3.467,6.538,2.434,3.945,2.359,0.700,0.102,0.055,0.110
2026-05-11 15:46:16.574211,SEARCHING,4.191,1.000,0.00,0.00,-9.21,2.757,4.974,2.860,3.575,2.434,0.700,0.079,-0.006,-0.012
2026-05-11 15:46:16.791484,SEARCHING,4.329,1.000,0.00,0.00,-9.20,2.757,4.974,2.860,3.575,2.434,0.700,0.079,-0.006,-0.012
2026-05-11 15:46:17.007538,SEARCHING,4.467,1.000,0.00,0.00,-9.43,2.724,4.767,3.011,3.467,2.460,0.700,0.071,-0.016,-0.031
2026-05-11 15:46:17.240527,SEARCHING,4.605,1.000,0.00,0.00,-9.77,2.724,4.670,2.972,3.178,2.514,0.700,0.050,-0.014,-0.028
2026-05-11 15:46:17.439637,SEARCHING,4.743,1.000,0.00,0.00,-10.09,2.724,4.670,2.972,3.178,2.514,0.700,0.050,-0.014,-0.028
2026-05-11 15:46:17.642091,SEARCHING,4.881,1.000,0.00,0.00,-10.40,2.757,4.576,2.972,2.860,2.434,0.700,0.037,-0.012,-0.024
2026-05-11 15:46:17.849260,SEARCHING,5.018,1.000,0.00,0.00,-10.68,2.757,4.576,2.972,2.860,2.434,0.700,0.037,-0.012,-0.024
2026-05-11 15:46:18.050929,SEARCHING,5.156,1.000,0.00,0.00,-10.95,2.724,4.487,2.934,2.757,2.460,0.700,0.026,-0.012,-0.024
2026-05-11 15:46:18.284141,SEARCHING,5.293,1.000,0.00,0.00,-11.15,2.757,4.400,2.825,2.724,2.460,0.700,0.024,-0.004,-0.008
2026-05-11 15:46:18.480482,SEARCHING,5.431,1.000,0.00,0.00,-11.24,2.757,4.400,2.825,2.724,2.460,0.700,0.024,-0.004,-0.008
2026-05-11 15:46:18.708030,SEARCHING,5.568,1.000,0.00,0.00,-11.33,2.757,4.400,2.825,2.724,2.460,0.700,0.024,-0.004,-0.008
2026-05-11 15:46:18.924988,SEARCHING,5.705,1.000,0.00,0.00,-11.42,2.757,4.400,2.825,2.724,2.460,0.700,0.024,-0.004,-0.008
2026-05-11 15:46:19.133391,SEARCHING,5.842,1.000,0.00,0.00,-11.51,2.757,4.400,2.825,2.724,2.460,0.700,0.024,-0.004,-0.008
2026-05-11 15:46:19.318092,SEARCHING,5.979,1.000,0.00,0.00,-11.60,2.757,4.400,2.825,2.724,2.460,0.700,0.024,-0.004,-0.008
2026-05-11 15:46:19.533251,SEARCHING,6.117,1.000,0.00,0.00,-11.69,2.434,3.878,5.581,2.600,2.434,0.700,0.016,-0.104,-0.208
2026-05-11 15:46:19.751401,SEARCHING,6.253,1.000,0.00,0.00,-13.85,2.434,3.878,5.581,2.600,2.434,0.700,0.016,-0.104,-0.208
2026-05-11 15:46:19.950467,SEARCHING,6.388,1.000,0.00,0.00,-16.23,2.434,3.878,5.581,2.600,2.434,0.700,0.016,-0.104,-0.208
2026-05-11 15:46:20.185381,SEARCHING,6.522,1.000,0.00,0.00,-18.62,2.434,3.878,5.581,2.600,2.434,0.700,0.016,-0.104,-0.208
2026-05-11 15:46:20.379458,SEARCHING,6.654,1.000,0.00,0.00,-21.01,2.434,3.878,5.581,2.600,2.434,0.700,0.016,-0.104,-0.208
2026-05-11 15:46:20.603441,SEARCHING,6.784,1.000,0.00,0.00,-23.40,2.434,3.878,5.581,2.600,2.434,0.700,0.016,-0.104,-0.208
2026-05-11 15:46:20.810538,SEARCHING,6.911,1.000,0.00,0.00,-25.79,2.434,3.878,5.581,2.600,2.434,0.700,0.016,-0.104,-0.208
2026-05-11 15:46:21.019288,SEARCHING,7.036,1.000,0.00,0.00,-28.18,2.434,3.878,5.581,2.600,2.434,0.700,0.016,-0.104,-0.208
2026-05-11 15:46:21.226146,SEARCHING,7.158,1.000,0.00,0.00,-30.57,2.434,3.878,5.581,2.600,2.434,0.700,0.016,-0.104,-0.208
2026-05-11 15:46:21.452677,SEARCHING,7.277,1.000,0.00,0.00,-32.96,2.434,3.878,5.581,2.600,2.434,0.700,0.016,-0.104,-0.208
2026-05-11 15:46:21.650865,SEARCHING,7.393,1.000,0.00,0.00,-35.35,2.434,3.878,5.581,2.600,2.434,0.700,0.016,-0.104,-0.208
2026-05-11 15:46:21.868837,SEARCHING,7.506,1.000,0.00,0.00,-37.73,2.434,3.878,5.581,2.600,2.434,0.700,0.016,-0.104,-0.208
2026-05-11 15:46:22.091736,SEARCHING,7.615,1.000,0.00,0.00,-40.12,2.434,3.878,5.581,2.600,2.434,0.700,0.016,-0.104,-0.208
2026-05-11 15:46:22.297530,SEARCHING,7.720,1.000,0.00,0.00,-42.51,2.434,3.878,5.581,2.600,2.434,0.700,0.016,-0.104,-0.208
2026-05-11 15:46:22.508794,SEARCHING,7.822,1.000,0.00,0.00,-44.90,2.434,3.878,5.581,2.600,2.434,0.700,0.016,-0.104,-0.208
2026-05-11 15:46:22.713147,SEARCHING,7.919,1.000,0.00,0.00,-47.29,2.434,3.878,5.581,2.600,2.434,0.700,0.016,-0.104,-0.208
2026-05-11 15:46:22.925136,SEARCHING,8.013,1.000,0.00,0.00,-47.06,6.184,2.896,1.774,2.860,2.409,0.700,0.039,0.181,0.362
2026-05-11 15:46:23.121423,SEARCHING,8.111,1.000,0.00,0.00,-42.92,6.184,2.896,1.774,2.860,2.409,0.700,0.039,0.181,0.362
2026-05-11 15:46:23.327555,SEARCHING,8.217,1.000,0.00,0.00,-38.77,6.184,2.896,1.774,2.860,2.409,0.700,0.039,0.181,0.362
2026-05-11 15:46:23.551287,SEARCHING,8.329,1.000,0.00,0.00,-34.62,6.184,2.896,1.774,2.860,2.409,0.700,0.039,0.181,0.362
2026-05-11 15:46:23.739503,SEARCHING,8.447,1.000,0.00,0.00,-30.48,6.184,2.896,1.774,2.860,2.409,0.700,0.039,0.181,0.362
2026-05-11 15:46:24.062945,SEARCHING,8.633,1.000,0.00,0.00,-24.26,4.487,3.945,2.080,2.757,2.487,0.700,0.024,0.116,0.232
2026-05-11 15:46:24.271042,SEARCHING,8.762,1.000,0.00,0.00,-21.45,4.487,3.945,2.080,2.757,2.487,0.700,0.024,0.116,0.232
2026-05-11 15:46:24.500527,SEARCHING,8.893,1.000,0.00,0.00,-18.79,4.487,3.945,2.080,2.757,2.487,0.700,0.024,0.116,0.232
2026-05-11 15:46:24.711659,SEARCHING,8.993,1.000,0.00,0.00,-16.80,4.487,3.945,2.080,2.757,2.487,0.700,0.024,0.116,0.232
2026-05-11 15:46:24.951343,SEARCHING,9.162,1.000,0.00,0.00,-13.47,4.487,3.945,2.080,2.757,2.487,0.700,0.024,0.116,0.232
2026-05-11 15:46:25.143487,SEARCHING,9.298,1.000,0.00,0.00,-10.81,4.487,3.945,2.080,2.757,2.487,0.700,0.024,0.116,0.232
2026-05-11 15:46:25.358451,SEARCHING,9.436,1.000,0.00,0.00,-8.15,4.487,3.945,2.080,2.757,2.487,0.700,0.024,0.116,0.232
2026-05-11 15:46:25.557847,SEARCHING,9.575,1.000,0.00,0.00,-5.49,4.487,3.945,2.080,2.757,2.487,0.700,0.024,0.116,0.232
2026-05-11 15:46:25.803833,SEARCHING,9.715,1.000,0.00,0.00,-4.94,2.243,3.467,5.200,3.415,2.311,0.700,0.084,-0.114,-0.228
2026-05-11 15:46:26.009362,SEARCHING,9.854,1.000,0.00,0.00,-7.56,2.243,3.467,5.200,3.415,2.311,0.700,0.084,-0.114,-0.228
2026-05-11 15:46:26.254646,SEARCHING,9.992,1.000,0.00,0.00,-10.21,2.266,3.415,5.581,3.467,2.460,0.700,0.071,-0.118,-0.236
2026-05-11 15:46:26.467671,SEARCHING,10.130,1.000,0.00,0.00,-12.91,2.266,3.415,5.581,3.467,2.460,0.700,0.071,-0.118,-0.236
2026-05-11 15:46:26.670717,SEARCHING,10.265,1.000,0.00,0.00,-15.62,2.266,3.415,5.581,3.467,2.460,0.700,0.071,-0.118,-0.236
2026-05-11 15:46:26.869844,SEARCHING,10.399,1.000,0.00,0.00,-18.29,2.243,3.575,5.200,3.632,2.434,0.700,0.081,-0.114,-0.228
2026-05-11 15:46:27.082129,SEARCHING,10.531,1.000,0.00,0.00,-20.90,2.409,3.751,4.767,3.751,2.460,0.700,0.084,-0.092,-0.185
2026-05-11 15:46:27.325606,SEARCHING,10.661,1.000,0.00,0.00,-22.89,2.542,3.878,4.317,3.945,2.487,0.700,0.089,-0.073,-0.146
2026-05-11 15:46:27.543065,SEARCHING,10.790,1.000,0.00,0.00,-24.56,2.542,3.878,4.317,3.945,2.487,0.700,0.089,-0.073,-0.146
2026-05-11 15:46:27.767561,SEARCHING,10.916,1.000,0.00,0.00,-25.99,2.790,4.237,3.691,4.237,2.409,0.700,0.108,-0.039,-0.079
2026-05-11 15:46:27.946770,SEARCHING,11.042,1.000,0.00,0.00,-26.89,2.790,4.237,3.691,4.237,2.409,0.700,0.108,-0.039,-0.079
2026-05-11 15:46:28.167427,SEARCHING,11.166,1.000,0.00,0.00,-27.80,2.790,4.237,3.691,4.237,2.409,0.700,0.108,-0.039,-0.079
2026-05-11 15:46:28.364391,SEARCHING,11.289,1.000,0.00,0.00,-28.70,2.790,4.237,3.691,4.237,2.409,0.700,0.108,-0.039,-0.079
2026-05-11 15:46:28.609189,SEARCHING,11.412,1.000,0.00,0.00,-29.69,2.514,4.767,3.269,4.767,2.434,0.700,0.121,-0.041,-0.083
2026-05-11 15:46:28.818446,SEARCHING,11.533,1.000,0.00,0.00,-30.65,2.514,4.767,3.269,4.767,2.434,0.700,0.121,-0.041,-0.083
2026-05-11 15:46:29.021885,SEARCHING,11.653,1.000,0.00,0.00,-31.53,2.514,4.670,3.092,4.670,2.460,0.700,0.115,-0.033,-0.067
2026-05-11 15:46:29.241859,SEARCHING,11.772,1.000,0.00,0.00,-32.29,2.514,4.670,3.092,4.670,2.460,0.700,0.115,-0.033,-0.067
2026-05-11 15:46:29.456491,SEARCHING,11.889,1.000,0.00,0.00,-33.06,2.514,4.670,3.092,4.670,2.460,0.700,0.115,-0.033,-0.067
2026-05-11 15:46:29.668507,SEARCHING,12.006,1.000,0.00,0.00,-33.83,2.514,4.670,3.092,4.670,2.460,0.700,0.115,-0.033,-0.067
2026-05-11 15:46:29.867997,SEARCHING,12.122,1.000,0.00,0.00,-34.59,2.514,4.670,3.092,4.670,2.460,0.700,0.115,-0.033,-0.067
2026-05-11 15:46:30.090124,SEARCHING,12.237,1.000,0.00,0.00,-35.36,2.514,4.670,3.092,4.670,2.460,0.700,0.115,-0.033,-0.067
2026-05-11 15:46:30.289593,SEARCHING,12.351,1.000,0.00,0.00,-36.13,2.514,4.670,3.092,4.670,2.460,0.700,0.115,-0.033,-0.067
2026-05-11 15:46:30.508890,SEARCHING,12.463,1.000,0.00,0.00,-36.31,2.825,3.878,2.384,3.878,2.460,0.700,0.089,0.029,0.059
2026-05-11 15:46:30.715012,SEARCHING,12.577,1.000,0.00,0.00,-35.64,2.825,3.878,2.384,3.878,2.460,0.700,0.089,0.029,0.059
2026-05-11 15:46:30.929482,SEARCHING,12.691,1.000,0.00,0.00,-34.75,3.269,4.014,2.359,3.878,2.460,0.700,0.089,0.053,0.106
2026-05-11 15:46:31.145499,SEARCHING,12.807,1.000,0.00,0.00,-33.53,3.269,4.014,2.359,3.878,2.460,0.700,0.089,0.053,0.106
2026-05-11 15:46:31.371002,SEARCHING,12.924,1.000,0.00,0.00,-32.31,2.972,4.400,2.460,4.487,2.434,0.700,0.113,0.031,0.063
2026-05-11 15:46:31.583345,SEARCHING,13.043,1.000,0.00,0.00,-31.54,2.972,4.400,2.460,4.487,2.434,0.700,0.113,0.031,0.063
2026-05-11 15:46:31.811521,SEARCHING,13.163,1.000,0.00,0.00,-30.93,2.757,3.751,2.409,3.814,2.384,0.700,0.094,0.024,0.047
2026-05-11 15:46:32.011960,SEARCHING,13.283,1.000,0.00,0.00,-30.40,2.757,3.751,2.409,3.814,2.384,0.700,0.094,0.024,0.047
2026-05-11 15:46:32.217877,SEARCHING,13.404,1.000,0.00,0.00,-29.86,2.514,3.520,2.222,3.575,2.434,0.700,0.079,0.024,0.047
2026-05-11 15:46:32.449886,SEARCHING,13.526,1.000,0.00,0.00,-29.31,2.514,3.520,2.222,3.575,2.434,0.700,0.079,0.024,0.047
2026-05-11 15:46:32.649469,SEARCHING,13.648,1.000,0.00,0.00,-28.77,2.514,3.520,2.222,3.575,2.434,0.700,0.079,0.024,0.047
2026-05-11 15:46:32.867521,SEARCHING,13.771,1.000,0.00,0.00,-28.23,2.514,3.520,2.222,3.575,2.434,0.700,0.079,0.024,0.047
2026-05-11 15:46:33.064037,SEARCHING,13.895,1.000,0.00,0.00,-27.69,2.514,3.520,2.222,3.575,2.434,0.700,0.079,0.024,0.047
2026-05-11 15:46:33.269742,SEARCHING,14.019,1.000,0.00,0.00,-27.62,1.923,2.790,2.179,2.790,2.460,0.700,0.029,-0.028,-0.055
2026-05-11 15:46:33.470713,SEARCHING,14.143,1.000,0.00,0.00,-28.25,1.923,2.790,2.179,2.790,2.460,0.700,0.029,-0.028,-0.055
2026-05-11 15:46:33.694796,SEARCHING,14.266,1.000,0.00,0.00,-28.88,1.923,2.790,2.179,2.790,2.460,0.700,0.029,-0.028,-0.055
2026-05-11 15:46:33.892681,SEARCHING,14.388,1.000,0.00,0.00,-29.51,1.923,2.790,2.179,2.790,2.460,0.700,0.029,-0.028,-0.055
2026-05-11 15:46:34.107480,SEARCHING,14.509,1.000,0.00,0.00,-30.14,1.923,2.790,2.179,2.790,2.460,0.700,0.029,-0.028,-0.055
2026-05-11 15:46:34.312725,SEARCHING,14.630,1.000,0.00,0.00,-30.78,1.923,2.790,2.179,2.790,2.460,0.700,0.029,-0.028,-0.055
2026-05-11 15:46:34.521234,SEARCHING,14.750,1.000,0.00,0.00,-31.41,1.923,2.790,2.179,2.790,2.460,0.700,0.029,-0.028,-0.055
2026-05-11 15:46:34.731228,SEARCHING,14.869,1.000,0.00,0.00,-33.05,1.354,2.757,2.311,2.934,2.384,0.700,0.047,-0.138,-0.275
2026-05-11 15:46:34.951707,SEARCHING,14.984,1.000,0.00,0.00,-36.20,1.421,3.415,2.099,3.632,2.460,0.700,0.079,-0.102,-0.205
2026-05-11 15:46:35.149546,SEARCHING,15.096,1.000,0.00,0.00,-38.63,1.421,3.415,2.099,3.632,2.460,0.700,0.079,-0.102,-0.205
2026-05-11 15:46:35.358564,SEARCHING,15.203,1.000,0.00,0.00,-40.97,1.421,3.415,2.099,3.632,2.460,0.700,0.079,-0.102,-0.205
2026-05-11 15:46:35.583436,SEARCHING,15.307,1.000,0.00,0.00,-43.31,1.421,3.415,2.099,3.632,2.460,0.700,0.079,-0.102,-0.205
2026-05-11 15:46:35.784276,SEARCHING,15.407,1.000,0.00,0.00,-45.66,1.421,3.415,2.099,3.632,2.460,0.700,0.079,-0.102,-0.205
2026-05-11 15:46:35.998083,SEARCHING,15.503,1.000,0.00,0.00,-48.00,2.571,3.051,1.338,3.051,2.460,0.700,0.047,0.161,0.323
2026-05-11 15:46:36.312038,SEARCHING,15.649,1.000,0.00,0.00,-43.06,2.571,3.051,1.338,3.051,2.460,0.700,0.047,0.161,0.323
2026-05-11 15:46:36.539204,SEARCHING,15.754,1.000,0.00,0.00,-39.37,2.571,3.051,1.338,3.051,2.460,0.700,0.047,0.161,0.323
2026-05-11 15:46:36.761499,SEARCHING,15.865,1.000,0.00,0.00,-36.54,2.159,3.134,1.634,3.092,2.288,0.700,0.068,0.067,0.134
2026-05-11 15:46:36.969334,SEARCHING,15.978,1.000,0.00,0.00,-35.00,2.159,3.134,1.634,3.092,2.288,0.700,0.068,0.067,0.134
2026-05-11 15:46:37.201920,SEARCHING,16.094,1.000,0.00,0.00,-34.34,1.733,3.691,2.061,3.691,2.384,0.700,0.089,-0.041,-0.083
2026-05-11 15:46:37.777480,SEARCHING,16.209,1.000,0.00,0.00,-35.25,1.733,3.691,2.061,3.691,2.384,0.700,0.089,-0.041,-0.083
2026-05-11 15:46:37.866456,SEARCHING,16.323,1.000,0.00,0.00,-36.20,1.733,3.691,2.061,3.691,2.384,0.700,0.089,-0.041,-0.083
2026-05-11 15:46:38.609084,SEARCHING,16.435,1.000,0.00,0.00,-37.14,1.733,3.691,2.061,3.691,2.384,0.700,0.089,-0.041,-0.083
2026-05-11 15:46:38.696813,SEARCHING,16.546,1.000,0.00,0.00,-38.09,1.733,3.691,2.061,3.691,2.384,0.700,0.089,-0.041,-0.083
2026-05-11 15:46:38.890579,SEARCHING,16.655,1.000,0.00,0.00,-39.04,1.733,3.691,2.061,3.691,2.384,0.700,0.089,-0.041,-0.083
2026-05-11 15:46:39.098488,SEARCHING,16.763,1.000,0.00,0.00,-39.98,1.733,3.691,2.061,3.691,2.384,0.700,0.089,-0.041,-0.083
2026-05-11 15:46:39.329417,SEARCHING,16.870,1.000,0.00,0.00,-39.09,3.223,2.600,1.505,2.630,2.434,0.700,0.018,0.159,0.319
2026-05-11 15:46:39.532874,SEARCHING,16.982,1.000,0.00,0.00,-35.44,3.051,2.487,1.457,2.514,2.460,0.700,0.005,0.161,0.323
2026-05-11 15:46:39.757265,SEARCHING,17.098,1.000,0.00,0.00,-31.87,2.896,2.661,1.486,2.692,2.487,0.700,0.018,0.147,0.295
2026-05-11 15:46:39.968305,SEARCHING,17.219,1.000,0.00,0.00,-28.49,2.896,2.661,1.486,2.692,2.487,0.700,0.018,0.147,0.295
2026-05-11 15:46:40.195285,SEARCHING,17.343,1.000,0.00,0.00,-25.69,2.514,2.692,1.708,3.316,2.460,0.700,0.063,0.085,0.169
2026-05-11 15:46:40.403742,SEARCHING,17.470,1.000,0.00,0.00,-23.75,2.514,2.692,1.708,3.316,2.460,0.700,0.063,0.085,0.169
2026-05-11 15:46:40.629049,SEARCHING,17.599,1.000,0.00,0.00,-21.81,2.514,2.692,1.708,3.316,2.460,0.700,0.063,0.085,0.169
2026-05-11 15:46:40.853211,SEARCHING,17.730,1.000,0.00,0.00,-19.88,2.514,2.692,1.708,3.316,2.460,0.700,0.063,0.085,0.169
2026-05-11 15:46:41.060508,SEARCHING,17.863,1.000,0.00,0.00,-17.94,2.514,2.692,1.708,3.316,2.460,0.700,0.063,0.085,0.169
2026-05-11 15:46:41.293578,SEARCHING,17.996,1.000,0.00,0.00,-16.00,2.514,2.692,1.708,3.316,2.460,0.700,0.063,0.085,0.169
2026-05-11 15:46:41.490442,SEARCHING,18.132,1.000,0.00,0.00,-14.06,2.514,2.692,1.708,3.316,2.460,0.700,0.063,0.085,0.169
2026-05-11 15:46:41.724470,SEARCHING,18.268,1.000,0.00,0.00,-12.12,2.514,2.692,1.708,3.316,2.460,0.700,0.063,0.085,0.169
2026-05-11 15:46:41.927163,SEARCHING,18.405,1.000,0.00,0.00,-10.19,2.514,2.692,1.708,3.316,2.460,0.700,0.063,0.085,0.169
2026-05-11 15:46:42.178250,SEARCHING,18.543,1.000,0.00,0.00,-8.25,2.514,2.692,1.708,3.316,2.460,0.700,0.063,0.085,0.169
2026-05-11 15:46:42.394710,SEARCHING,18.682,1.000,0.00,0.00,-6.31,2.514,2.692,1.708,3.316,2.460,0.700,0.063,0.085,0.169
2026-05-11 15:46:42.613798,SEARCHING,18.821,1.000,0.00,0.00,-4.37,2.514,2.692,1.708,3.316,2.460,0.700,0.063,0.085,0.169
2026-05-11 15:46:42.826975,SEARCHING,18.961,1.000,0.00,0.00,-2.43,2.514,2.692,1.708,3.316,2.460,0.700,0.063,0.085,0.169
2026-05-11 15:46:43.041039,SEARCHING,19.101,1.000,0.00,0.00,-0.50,0.770,1.395,0.978,1.387,1.370,0.488,0.005,-0.124,-0.248
2026-05-11 15:46:43.285210,SEARCHING,19.203,1.000,0.00,0.00,-2.86,0.770,1.395,0.978,1.387,1.370,0.488,0.005,-0.124,-0.248
2026-05-11 15:46:43.478585,SEARCHING,19.300,1.000,0.00,0.00,-5.70,0.770,1.395,0.978,1.387,1.370,0.488,0.005,-0.124,-0.248
2026-05-11 15:46:43.705163,SEARCHING,19.397,1.000,0.00,0.00,-8.54,0.770,1.395,0.978,1.387,1.370,0.488,0.005,-0.124,-0.248
2026-05-11 15:46:43.913486,SEARCHING,19.494,1.000,0.00,0.00,-11.38,0.770,1.395,0.978,1.387,1.370,0.488,0.005,-0.124,-0.248
2026-05-11 15:46:44.134623,SEARCHING,19.589,1.000,0.00,0.00,-14.22,0.857,1.623,0.675,1.646,1.623,0.568,0.005,0.142,0.283
2026-05-11 15:46:44.365345,SEARCHING,19.698,1.000,0.00,0.00,-11.58,0.857,1.623,0.675,1.646,1.623,0.568,0.005,0.142,0.283
2026-05-11 15:46:44.558374,SEARCHING,19.810,1.000,0.00,0.00,-8.33,0.857,1.623,0.675,1.646,1.623,0.568,0.005,0.142,0.283
2026-05-11 15:46:44.762541,SEARCHING,19.922,1.000,0.00,0.00,-5.09,0.857,1.623,0.675,1.646,1.623,0.568,0.005,0.142,0.283
2026-05-11 15:46:44.967558,SEARCHING,20.036,1.000,0.00,0.00,-1.84,0.857,1.623,0.675,1.646,1.623,0.568,0.005,0.142,0.283
2026-05-11 15:46:45.213641,INSPECTING,20.149,1.000,0.00,0.00,1.40,0.531,0.877,2.434,0.877,0.870,0.000,0.000,0.000,0.000
2026-05-11 15:46:45.447912,INSPECTING,20.221,1.000,0.00,0.00,-4.77,0.531,0.877,2.434,0.877,0.870,0.350,0.550,-0.552,-0.850
2026-05-11 15:46:45.681153,INSPECTING,20.290,1.000,0.00,0.00,-14.51,0.531,0.877,2.434,0.877,0.870,0.350,0.550,-0.552,-0.850
2026-05-11 15:46:45.867132,INSPECTING,20.356,1.000,0.00,0.00,-24.25,0.531,0.877,2.434,0.877,0.870,0.350,0.550,-0.552,-0.850
2026-05-11 15:46:46.054980,INSPECTING,20.418,1.000,0.00,0.00,-33.99,0.531,0.877,2.434,0.877,0.870,0.350,0.550,-0.552,-0.850
2026-05-11 15:46:46.311815,INSPECTING,20.472,1.000,0.00,0.00,-43.73,0.531,0.877,2.434,0.877,0.870,0.350,0.550,-0.552,-0.850
2026-05-11 15:46:46.548018,INSPECTING,20.519,1.000,0.00,0.00,-53.47,0.531,0.877,2.434,0.877,0.870,0.350,0.550,-0.552,-0.850
2026-05-11 15:46:46.862484,SEARCHING,20.548,1.000,0.00,0.00,-60.77,4.487,2.896,2.179,2.724,2.487,0.350,0.550,0.552,0.850
2026-05-11 15:46:46.914665,SEARCHING,20.591,1.000,0.00,0.00,-69.30,4.487,2.896,2.179,2.724,2.487,0.700,0.021,0.106,0.212
2026-05-11 15:46:47.111366,SEARCHING,20.643,1.000,0.00,0.00,-66.86,2.972,2.409,1.264,2.384,2.359,0.700,0.003,0.205,0.409
2026-05-11 15:46:47.337077,SEARCHING,20.702,1.000,0.00,0.00,-62.40,2.972,2.409,1.264,2.384,2.359,0.700,0.003,0.205,0.409
2026-05-11 15:46:47.544681,SEARCHING,20.771,1.000,0.00,0.00,-57.32,3.092,2.409,1.144,2.384,2.384,0.700,0.000,0.248,0.496
2026-05-11 15:46:47.777567,SEARCHING,20.852,1.000,0.00,0.00,-52.83,3.632,2.359,1.816,2.359,2.335,0.700,0.003,0.124,0.248
2026-05-11 15:46:47.966869,SEARCHING,20.939,1.000,0.00,0.00,-50.00,3.632,2.359,1.816,2.359,2.335,0.700,0.003,0.124,0.248
2026-05-11 15:46:48.198056,SEARCHING,21.031,1.000,0.00,0.00,-47.05,4.237,2.384,1.860,2.359,2.359,0.700,0.000,0.136,0.271
2026-05-11 15:46:48.401336,SEARCHING,21.129,1.000,0.00,0.00,-43.71,4.400,2.434,1.708,2.384,2.384,0.700,0.000,0.161,0.323
2026-05-11 15:46:48.611188,SEARCHING,21.233,1.000,0.00,0.00,-39.91,4.868,2.460,1.695,2.460,2.384,0.700,0.008,0.173,0.346
2026-05-11 15:46:48.810218,SEARCHING,21.343,1.000,0.00,0.00,-35.94,4.868,2.460,1.695,2.460,2.384,0.700,0.008,0.173,0.346
2026-05-11 15:46:49.021157,SEARCHING,21.459,1.000,0.00,0.00,-31.97,5.321,2.896,1.760,2.972,2.460,0.700,0.042,0.171,0.342
2026-05-11 15:46:49.228858,SEARCHING,21.580,1.000,0.00,0.00,-28.05,5.321,2.896,1.760,2.972,2.460,0.700,0.042,0.171,0.342
2026-05-11 15:46:49.427913,SEARCHING,21.705,1.000,0.00,0.00,-24.13,5.321,2.896,1.760,2.972,2.460,0.700,0.042,0.171,0.342
2026-05-11 15:46:49.653314,SEARCHING,21.835,1.000,0.00,0.00,-20.20,5.321,2.896,1.760,2.972,2.460,0.700,0.042,0.171,0.342
2026-05-11 15:46:49.844554,SEARCHING,21.968,1.000,0.00,0.00,-16.28,2.790,6.022,2.571,5.720,2.434,0.700,0.142,0.014,0.028
2026-05-11 15:46:50.063154,SEARCHING,22.102,1.000,0.00,0.00,-15.61,2.514,4.974,2.825,5.085,2.434,0.700,0.128,-0.020,-0.039
2026-05-11 15:46:50.256216,SEARCHING,22.237,1.000,0.00,0.00,-15.98,2.514,4.974,2.825,5.085,2.434,0.700,0.128,-0.020,-0.039
2026-05-11 15:46:50.489647,SEARCHING,22.372,1.000,0.00,0.00,-16.43,2.460,4.868,2.825,4.868,2.460,0.700,0.121,-0.024,-0.047
2026-05-11 15:46:50.704869,SEARCHING,22.506,1.000,0.00,0.00,-16.96,2.460,4.868,2.825,4.868,2.460,0.700,0.121,-0.024,-0.047
2026-05-11 15:46:50.903936,SEARCHING,22.639,1.000,0.00,0.00,-17.45,2.514,4.868,2.790,4.868,2.359,0.700,0.131,-0.018,-0.035
2026-05-11 15:46:51.136616,SEARCHING,22.773,1.000,0.00,0.00,-17.80,2.514,4.974,2.692,4.974,2.359,0.700,0.134,-0.012,-0.024
2026-05-11 15:46:51.343342,SEARCHING,22.906,1.000,0.00,0.00,-18.07,2.571,4.974,2.692,5.085,2.487,0.700,0.123,-0.008,-0.016
2026-05-11 15:46:51.576533,SEARCHING,23.039,1.000,0.00,0.00,-18.26,2.630,4.974,2.692,5.085,2.487,0.700,0.123,-0.004,-0.008
2026-05-11 15:46:51.785192,SEARCHING,23.172,1.000,0.00,0.00,-18.36,2.630,4.974,2.692,5.085,2.487,0.700,0.123,-0.004,-0.008
2026-05-11 15:46:52.023245,SEARCHING,23.305,1.000,0.00,0.00,-18.43,2.661,4.868,2.661,5.085,2.460,0.700,0.126,0.000,0.000
2026-05-11 15:46:52.220424,SEARCHING,23.438,1.000,0.00,0.00,-18.38,2.692,4.868,2.600,5.085,2.434,0.700,0.128,0.006,0.012
2026-05-11 15:46:52.429042,SEARCHING,23.571,1.000,0.00,0.00,-18.25,2.692,4.767,2.600,4.974,2.434,0.700,0.126,0.006,0.012
2026-05-11 15:46:52.656634,SEARCHING,23.704,1.000,0.00,0.00,-18.11,2.661,4.767,2.571,4.974,2.460,0.700,0.123,0.006,0.012
2026-05-11 15:46:52.857613,SEARCHING,23.837,1.000,0.00,0.00,-17.98,2.661,4.767,2.571,4.974,2.460,0.700,0.123,0.006,0.012
2026-05-11 15:46:53.076029,SEARCHING,23.970,1.000,0.00,0.00,-17.84,2.571,4.576,2.661,4.670,2.179,0.700,0.147,-0.006,-0.012
2026-05-11 15:46:53.279427,SEARCHING,24.103,1.000,0.00,0.00,-17.95,2.571,4.576,2.661,4.670,2.179,0.700,0.147,-0.006,-0.012
2026-05-11 15:46:53.503248,SEARCHING,24.236,1.000,0.00,0.00,-18.28,2.311,4.487,2.724,4.576,2.460,0.700,0.113,-0.029,-0.059
2026-05-11 15:46:53.699353,SEARCHING,24.369,1.000,0.00,0.00,-18.96,2.311,4.487,2.724,4.576,2.460,0.700,0.113,-0.029,-0.059
2026-05-11 15:46:53.918588,SEARCHING,24.501,1.000,0.00,0.00,-19.83,2.243,4.974,2.934,4.974,2.460,0.700,0.123,-0.047,-0.094
2026-05-11 15:46:54.132109,SEARCHING,24.632,1.000,0.00,0.00,-20.92,2.243,4.974,2.934,4.974,2.460,0.700,0.123,-0.047,-0.094
2026-05-11 15:46:54.354040,SEARCHING,24.763,1.000,0.00,0.00,-22.00,2.288,5.321,2.724,5.321,2.460,0.700,0.131,-0.031,-0.063
2026-05-11 15:46:54.568949,SEARCHING,24.892,1.000,0.00,0.00,-22.76,2.288,5.321,2.724,5.321,2.460,0.700,0.131,-0.031,-0.063
2026-05-11 15:46:54.763654,SEARCHING,25.021,1.000,0.00,0.00,-23.48,2.359,5.085,2.630,5.085,2.359,0.700,0.136,-0.020,-0.039
2026-05-11 15:46:55.002353,SEARCHING,25.149,1.000,0.00,0.00,-23.96,2.359,5.085,2.630,5.085,2.359,0.700,0.136,-0.020,-0.039
2026-05-11 15:46:55.189857,SEARCHING,25.277,1.000,0.00,0.00,-24.41,2.359,5.085,2.630,5.085,2.359,0.700,0.136,-0.020,-0.039
2026-05-11 15:46:55.413069,SEARCHING,25.404,1.000,0.00,0.00,-24.86,2.359,5.085,2.630,5.085,2.359,0.700,0.136,-0.020,-0.039
2026-05-11 15:46:55.627648,SEARCHING,25.531,1.000,0.00,0.00,-25.31,2.359,5.085,2.630,5.085,2.359,0.700,0.136,-0.020,-0.039
2026-05-11 15:46:55.867483,SEARCHING,25.657,1.000,0.00,0.00,-25.65,2.434,4.400,2.542,4.487,2.409,0.700,0.115,-0.008,-0.016
2026-05-11 15:46:56.049696,SEARCHING,25.783,1.000,0.00,0.00,-25.83,2.434,4.400,2.542,4.487,2.409,0.700,0.115,-0.008,-0.016
2026-05-11 15:46:56.274765,SEARCHING,25.909,1.000,0.00,0.00,-26.01,2.724,4.237,2.630,4.160,2.460,0.700,0.100,0.006,0.012
2026-05-11 15:46:56.486158,SEARCHING,26.035,1.000,0.00,0.00,-25.84,2.757,4.086,2.542,4.086,2.460,0.700,0.097,0.014,0.028
2026-05-11 15:46:56.681536,SEARCHING,26.161,1.000,0.00,0.00,-25.52,2.757,4.086,2.542,4.086,2.460,0.700,0.097,0.014,0.028
2026-05-11 15:46:56.905345,SEARCHING,26.288,1.000,0.00,0.00,-25.21,2.757,4.086,2.542,4.086,2.460,0.700,0.097,0.014,0.028
2026-05-11 15:46:57.109554,SEARCHING,26.415,1.000,0.00,0.00,-25.00,2.692,3.691,2.661,3.691,2.460,0.700,0.081,0.002,0.004
2026-05-11 15:46:57.338082,SEARCHING,26.542,1.000,0.00,0.00,-24.96,2.630,3.467,2.571,3.467,2.311,0.700,0.087,0.004,0.008
2026-05-11 15:46:57.523659,SEARCHING,26.669,1.000,0.00,0.00,-24.89,2.571,3.415,2.542,3.415,2.335,0.700,0.081,0.002,0.004
2026-05-11 15:46:57.732847,SEARCHING,26.796,1.000,0.00,0.00,-24.84,2.630,3.223,2.630,3.178,2.409,0.700,0.060,0.000,0.000
2026-05-11 15:46:57.959631,SEARCHING,26.923,1.000,0.00,0.00,-24.84,2.571,3.178,2.571,3.178,2.460,0.700,0.055,0.000,0.000
2026-05-11 15:46:58.176455,SEARCHING,27.050,1.000,0.00,0.00,-24.80,2.661,2.934,2.542,2.934,2.460,0.700,0.039,0.008,0.016
2026-05-11 15:46:58.383090,SEARCHING,27.177,1.000,0.00,0.00,-24.63,2.661,2.934,2.542,2.934,2.460,0.700,0.039,0.008,0.016
2026-05-11 15:46:58.572486,SEARCHING,27.304,1.000,0.00,0.00,-24.45,2.757,2.630,2.571,2.600,2.487,0.700,0.010,0.012,0.024
2026-05-11 15:46:58.791198,SEARCHING,27.432,1.000,0.00,0.00,-24.19,2.757,2.630,2.571,2.600,2.487,0.700,0.010,0.012,0.024
2026-05-11 15:46:59.000576,SEARCHING,27.560,1.000,0.00,0.00,-23.92,2.724,2.311,2.311,2.359,2.434,0.700,-0.008,0.029,0.059
2026-05-11 15:46:59.237332,SEARCHING,27.688,1.000,0.00,0.00,-23.28,2.692,2.159,2.138,2.179,2.487,0.700,-0.034,0.043,0.087
2026-05-11 15:46:59.420694,SEARCHING,27.817,1.000,0.00,0.00,-22.32,2.692,2.159,2.138,2.179,2.487,0.700,-0.034,0.043,0.087
2026-05-11 15:46:59.629856,SEARCHING,27.947,1.000,0.00,0.00,-21.33,2.514,2.043,1.876,2.061,2.335,0.700,-0.034,0.061,0.122
2026-05-11 15:46:59.851832,SEARCHING,28.078,1.000,0.00,0.00,-19.97,2.514,2.043,1.876,2.061,2.335,0.700,-0.034,0.061,0.122
2026-05-11 15:47:00.054135,SEARCHING,28.210,1.000,0.00,0.00,-18.58,2.335,5.448,1.578,1.907,2.692,0.700,-0.092,0.092,0.185
2026-05-11 15:47:00.300905,SEARCHING,28.343,1.000,0.00,0.00,-16.53,2.222,5.867,1.496,5.200,2.460,0.700,0.128,0.098,0.197
2026-05-11 15:47:00.515752,SEARCHING,28.478,1.000,0.00,0.00,-14.13,1.990,5.200,1.285,5.200,2.460,0.700,0.128,0.124,0.248
2026-05-11 15:47:00.739092,SEARCHING,28.614,1.000,0.00,0.00,-11.31,1.876,4.868,1.244,4.868,2.487,0.700,0.118,0.122,0.244
2026-05-11 15:47:00.944412,SEARCHING,28.752,1.000,0.00,0.00,-8.51,1.876,4.868,1.244,4.868,2.487,0.700,0.118,0.122,0.244
2026-05-11 15:47:01.165356,SEARCHING,28.891,1.000,0.00,0.00,-5.71,1.600,3.691,3.365,3.691,2.460,0.700,0.081,-0.147,-0.295
2026-05-11 15:47:01.397237,SEARCHING,29.030,1.000,0.00,0.00,-8.48,1.600,3.691,3.365,3.691,2.460,0.700,0.081,-0.147,-0.295
2026-05-11 15:47:01.610815,SEARCHING,29.168,1.000,0.00,0.00,-12.04,1.536,3.814,3.134,3.814,2.460,0.700,0.087,-0.149,-0.299
2026-05-11 15:47:01.809891,SEARCHING,29.304,1.000,0.00,0.00,-15.38,1.557,3.945,2.934,4.086,2.460,0.700,0.097,-0.136,-0.271
2026-05-11 15:47:02.005792,SEARCHING,29.438,1.000,0.00,0.00,-18.49,2.384,4.670,2.514,4.670,2.460,0.700,0.115,-0.010,-0.020
2026-05-11 15:47:02.230733,SEARCHING,29.571,1.000,0.00,0.00,-18.97,2.384,5.085,2.359,5.200,2.311,0.700,0.144,0.002,0.004
2026-05-11 15:47:02.441003,SEARCHING,29.703,1.000,0.00,0.00,-18.94,2.384,5.085,2.359,5.200,2.311,0.700,0.144,0.002,0.004
2026-05-11 15:47:02.651805,SEARCHING,29.835,1.000,0.00,0.00,-18.79,2.460,4.974,2.288,5.085,2.434,0.700,0.128,0.014,0.028
2026-05-11 15:47:02.865640,SEARCHING,29.968,1.000,0.00,0.00,-18.47,2.460,4.868,2.243,4.974,2.514,0.700,0.118,0.018,0.035
2026-05-11 15:47:03.079948,SEARCHING,30.101,1.000,0.00,0.00,-18.07,2.409,4.767,2.200,4.767,2.487,0.700,0.115,0.018,0.035
2026-05-11 15:47:03.290530,SEARCHING,30.234,1.000,0.00,0.00,-17.72,2.359,4.767,2.222,4.767,2.460,0.700,0.118,0.012,0.024
2026-05-11 15:47:03.497785,SEARCHING,30.368,1.000,0.00,0.00,-17.52,2.359,4.670,2.311,4.576,2.434,0.700,0.115,0.004,0.008
2026-05-11 15:47:03.715535,SEARCHING,30.501,1.000,0.00,0.00,-17.52,2.311,4.487,2.359,4.487,2.460,0.700,0.110,-0.004,-0.008
2026-05-11 15:47:03.920786,SEARCHING,30.635,1.000,0.00,0.00,-17.62,2.311,4.487,2.359,4.487,2.460,0.700,0.110,-0.004,-0.008
2026-05-11 15:47:04.135540,SEARCHING,30.768,1.000,0.00,0.00,-17.69,2.359,4.237,2.384,4.317,2.409,0.700,0.110,-0.002,-0.004
2026-05-11 15:47:04.342171,SEARCHING,30.901,1.000,0.00,0.00,-17.73,2.359,4.237,2.384,4.317,2.409,0.700,0.110,-0.002,-0.004
2026-05-11 15:47:04.550364,SEARCHING,31.035,1.000,0.00,0.00,-17.78,2.359,4.237,2.384,4.317,2.409,0.700,0.110,-0.002,-0.004
2026-05-11 15:47:04.785611,SEARCHING,31.168,1.000,0.00,0.00,-17.88,2.243,3.945,2.384,3.945,2.460,0.700,0.092,-0.012,-0.024
2026-05-11 15:47:04.983049,SEARCHING,31.301,1.000,0.00,0.00,-18.14,2.119,3.814,2.288,3.814,2.487,0.700,0.084,-0.016,-0.031
2026-05-11 15:47:05.188317,SEARCHING,31.434,1.000,0.00,0.00,-18.51,2.080,3.751,2.335,3.751,2.487,0.700,0.081,-0.024,-0.047
2026-05-11 15:47:05.392676,SEARCHING,31.567,1.000,0.00,0.00,-19.04,2.043,3.575,2.542,3.632,2.460,0.700,0.079,-0.043,-0.087
2026-05-11 15:47:05.593882,SEARCHING,31.699,1.000,0.00,0.00,-20.04,2.025,3.520,2.600,3.575,2.460,0.700,0.076,-0.049,-0.098
2026-05-11 15:47:05.811017,SEARCHING,31.830,1.000,0.00,0.00,-21.16,2.025,3.520,2.600,3.575,2.460,0.700,0.076,-0.049,-0.098
2026-05-11 15:47:06.019713,SEARCHING,31.960,1.000,0.00,0.00,-22.02,2.179,3.575,2.311,3.575,2.434,0.700,0.079,-0.012,-0.024
2026-05-11 15:47:06.223854,SEARCHING,32.090,1.000,0.00,0.00,-22.33,2.159,3.575,2.311,3.575,2.409,0.700,0.081,-0.014,-0.028
2026-05-11 15:47:06.428756,SEARCHING,32.219,1.000,0.00,0.00,-22.61,2.179,3.365,2.311,3.365,2.359,0.700,0.076,-0.012,-0.024
2026-05-11 15:47:06.657131,SEARCHING,32.348,1.000,0.00,0.00,-22.82,2.200,3.316,2.266,3.316,2.243,0.700,0.087,-0.006,-0.012
2026-05-11 15:47:06.856035,SEARCHING,32.477,1.000,0.00,0.00,-22.95,2.159,3.092,2.288,3.092,2.384,0.700,0.058,-0.012,-0.024
2026-05-11 15:47:07.074888,SEARCHING,32.606,1.000,0.00,0.00,-23.25,2.179,2.972,2.311,2.972,2.571,0.700,0.031,-0.012,-0.024
2026-05-11 15:47:07.289815,SEARCHING,32.734,1.000,0.00,0.00,-23.53,2.159,2.825,2.243,2.825,2.460,0.700,0.031,-0.008,-0.016
2026-05-11 15:47:07.506823,SEARCHING,32.863,1.000,0.00,0.00,-23.72,2.099,2.757,2.266,2.757,2.487,0.700,0.024,-0.016,-0.031
2026-05-11 15:47:07.734910,SEARCHING,32.991,1.000,0.00,0.00,-24.11,1.956,2.571,2.311,2.571,2.434,0.700,0.013,-0.035,-0.071
2026-05-11 15:47:07.935122,SEARCHING,33.118,1.000,0.00,0.00,-24.89,1.845,2.487,2.266,2.487,2.409,0.700,0.008,-0.045,-0.090
2026-05-11 15:47:08.162368,SEARCHING,33.245,1.000,0.00,0.00,-25.87,1.788,2.335,2.119,2.335,2.335,0.700,0.000,-0.039,-0.079
2026-05-11 15:47:08.356369,SEARCHING,33.370,1.000,0.00,0.00,-26.69,1.774,2.159,1.990,2.159,2.159,0.700,0.000,-0.028,-0.055
2026-05-11 15:47:08.860584,SEARCHING,33.495,1.000,0.00,0.00,-27.32,1.774,2.119,1.956,2.099,2.119,0.700,-0.003,-0.024,-0.047
2026-05-11 15:47:09.006960,SEARCHING,33.619,1.000,0.00,0.00,-27.87,1.774,2.119,1.956,2.099,2.119,0.700,-0.003,-0.024,-0.047
2026-05-11 15:47:09.851320,SEARCHING,33.743,1.000,0.00,0.00,-28.41,1.774,2.119,1.956,2.099,2.119,0.700,-0.003,-0.024,-0.047
2026-05-11 15:47:10.079358,SEARCHING,33.858,1.000,0.00,0.00,-28.52,1.708,1.695,1.567,1.695,1.682,0.593,0.003,0.024,0.047
2026-05-11 15:47:10.276044,SEARCHING,33.963,1.000,0.00,0.00,-27.98,1.646,1.557,1.439,1.546,1.546,0.545,0.000,0.039,0.079
2026-05-11 15:47:10.511921,SEARCHING,34.058,1.000,0.00,0.00,-27.08,1.515,1.395,1.285,1.395,1.404,0.488,-0.003,0.053,0.106
2026-05-11 15:47:10.720938,SEARCHING,34.146,1.000,0.00,0.00,-25.88,1.515,1.395,1.285,1.395,1.404,0.488,-0.003,0.053,0.106
2026-05-11 15:47:10.935803,SEARCHING,34.231,1.000,0.00,0.00,-24.58,1.362,1.230,1.133,1.230,1.237,0.431,-0.003,0.067,0.134
2026-05-11 15:47:11.135953,SEARCHING,34.309,1.000,0.00,0.00,-22.98,1.278,1.156,1.045,1.150,1.150,0.404,0.000,0.079,0.157
2026-05-11 15:47:11.343361,SEARCHING,34.383,1.000,0.00,0.00,-21.13,1.204,1.074,0.965,1.074,1.074,0.376,0.000,0.092,0.185
2026-05-11 15:47:11.558154,SEARCHING,34.453,1.000,0.00,0.00,-19.00,1.186,1.050,0.946,1.050,1.050,0.367,0.000,0.096,0.193
2026-05-11 15:47:11.819325,INSPECTING,34.516,1.000,0.00,0.00,-17.01,1.095,0.946,0.832,0.946,0.946,0.350,0.550,0.552,0.850
2026-05-11 15:47:12.020270,INSPECTING,34.584,1.000,0.00,0.00,-7.27,1.079,0.923,0.800,0.919,0.923,0.350,-0.550,0.552,0.850
2026-05-11 15:47:12.240878,INSPECTING,34.654,1.000,0.00,0.00,2.47,0.901,0.938,0.763,0.938,0.938,0.350,0.550,0.552,0.850
2026-05-11 15:47:12.491866,INSPECTING,34.724,1.000,0.00,0.00,12.21,0.763,0.953,0.773,0.953,0.953,0.350,0.550,-0.552,-0.850
2026-05-11 15:47:12.650957,INSPECTING,34.791,1.000,0.00,0.00,12.21,0.700,0.832,0.811,0.835,0.835,0.350,0.550,-0.552,-0.850
2026-05-11 15:47:12.926631,INSPECTING,34.861,1.000,0.00,0.00,2.47,0.671,0.847,0.683,0.847,0.844,0.350,0.550,-0.552,-0.850
2026-05-11 15:47:13.254151,INSPECTING,34.913,1.000,0.00,0.00,-4.83,0.675,0.715,0.584,0.713,0.717,0.350,0.550,-0.552,-0.850
2026-05-11 15:47:13.422085,INSPECTING,34.948,1.000,0.00,0.00,-9.70,0.698,0.629,0.532,0.629,0.630,0.350,0.550,-0.552,-0.850
2026-05-11 15:47:13.774987,INSPECTING,35.032,1.000,0.00,0.00,-21.88,0.596,0.524,0.467,0.524,0.522,0.000,0.000,0.000,0.000
2026-05-11 15:47:14.137995,TURNING,35.109,1.000,0.00,0.00,-34.05,0.417,0.401,0.385,0.401,0.400,0.000,0.000,0.000,0.000
2026-05-11 15:47:14.321972,TURNING,35.112,1.000,0.00,0.00,-34.54,0.417,0.401,0.385,0.401,0.400,0.000,0.000,0.000,-0.800
2026-05-11 15:47:14.485935,TURNING,35.112,1.000,0.00,0.00,-34.54,0.408,0.400,0.393,0.400,0.400,0.000,0.000,0.000,-0.800
2026-05-11 15:47:14.660107,TURNING,35.112,1.000,0.00,0.00,-52.88,0.386,0.396,0.406,0.396,0.396,0.000,0.000,0.000,-0.800
2026-05-11 15:47:14.902335,TURNING,35.112,1.000,0.00,0.00,-62.04,0.361,0.394,0.435,0.394,0.395,0.000,0.000,0.000,-0.800
2026-05-11 15:47:15.101722,TURNING,35.112,1.000,0.00,0.00,-71.21,0.355,0.406,0.477,0.406,0.406,0.000,0.000,0.000,-0.800
2026-05-11 15:47:15.308690,TURNING,35.112,1.000,0.00,0.00,-80.38,0.361,0.436,0.547,0.435,0.438,0.000,0.000,0.000,-0.800
2026-05-11 15:47:15.517681,TURNING,35.112,1.000,0.00,0.00,-89.55,0.370,0.462,0.609,0.462,0.462,0.000,0.000,0.000,-0.800
2026-05-11 15:47:15.706249,TURNING,35.112,1.000,0.00,0.00,-98.71,0.406,0.546,0.826,0.542,0.545,0.000,0.000,0.000,-0.800
2026-05-11 15:47:15.946208,TURNING,35.112,1.000,0.00,0.00,-107.88,0.454,0.661,1.059,0.661,0.659,0.000,0.000,0.000,-0.800
2026-05-11 15:47:16.162173,TURNING,35.112,1.000,0.00,0.00,-117.05,0.477,0.715,1.074,0.713,0.715,0.000,0.000,0.000,-0.800
2026-05-11 15:47:16.393664,TURNING,35.112,1.000,0.00,0.00,-126.21,0.581,0.999,1.138,1.004,0.999,0.000,0.000,0.000,-0.800
2026-05-11 15:47:16.590932,TURNING,35.112,1.000,0.00,0.00,-133.09,0.673,1.162,1.173,1.162,1.156,0.000,0.000,0.000,-0.800
2026-05-11 15:47:16.780976,TURNING,35.112,1.000,0.00,0.00,-144.55,1.054,1.144,1.285,1.144,1.144,0.000,0.000,0.000,-0.800
2026-05-11 15:47:16.996287,TURNING,35.112,1.000,0.00,0.00,-153.72,1.059,1.204,1.457,1.204,1.204,0.000,0.000,0.000,-0.800
2026-05-11 15:47:17.192725,TURNING,35.112,1.000,0.00,0.00,-162.88,1.054,1.308,1.720,1.308,1.300,0.000,0.000,0.000,-0.800
2026-05-11 15:47:17.416309,TURNING,35.112,1.000,0.00,0.00,-172.05,1.054,1.308,1.720,1.308,1.300,0.000,0.000,0.000,-0.733
2026-05-11 15:47:17.616261,TURNING,35.112,1.000,-0.00,0.00,179.58,1.054,1.308,1.720,1.308,1.300,0.000,0.000,0.000,-0.587
2026-05-11 15:47:17.860434,TURNING,35.112,1.000,-0.00,0.00,172.91,1.054,1.308,1.720,1.308,1.300,0.000,0.000,0.000,-0.471
2026-05-11 15:47:18.073266,TURNING,35.112,1.000,-0.00,0.00,167.50,1.546,2.860,3.945,2.860,2.460,0.000,0.000,0.000,-0.376
2026-05-11 15:47:18.286284,TURNING,35.112,1.000,-0.00,0.00,163.18,1.567,3.011,3.691,3.051,2.487,0.000,0.000,0.000,-0.301
2026-05-11 15:47:18.491958,TURNING,35.112,1.000,-0.00,0.00,159.65,1.567,3.011,3.691,3.051,2.487,0.000,0.000,0.000,-0.300
2026-05-11 15:47:18.763606,TURNING,35.112,1.000,-0.00,0.00,156.21,2.025,5.085,2.661,4.767,2.487,0.000,0.000,0.000,-0.300
2026-05-11 15:47:18.936658,TURNING,35.112,1.000,-0.00,0.00,152.78,2.025,5.085,2.661,4.767,2.487,0.000,0.000,0.000,-0.300
2026-05-11 15:47:19.166135,RETURNING,35.112,1.000,-0.00,0.00,149.34,2.025,5.085,2.661,4.767,2.487,0.500,0.096,0.000,-0.094
2026-05-11 15:47:19.389937,RETURNING,35.035,1.000,-0.00,0.00,149.53,4.086,3.945,1.816,3.945,2.487,0.500,0.074,0.000,0.245
2026-05-11 15:47:19.587608,RETURNING,34.948,1.000,-0.00,0.00,152.34,4.086,3.945,1.816,3.945,2.487,0.500,0.074,0.000,0.245
2026-05-11 15:47:19.844321,RETURNING,34.858,1.000,-0.00,0.00,155.14,4.086,3.945,1.816,3.945,2.487,0.500,0.074,0.000,0.245
2026-05-11 15:47:20.023083,RETURNING,34.767,1.000,-0.00,0.00,157.94,4.086,3.945,1.816,3.945,2.487,0.500,0.074,0.000,0.245
2026-05-11 15:47:20.259179,RETURNING,34.673,1.000,-0.00,0.00,160.75,4.086,3.945,1.816,3.945,2.487,0.500,0.074,0.000,0.245
2026-05-11 15:47:20.437177,RETURNING,34.578,1.000,-0.00,0.00,163.55,4.086,3.945,1.816,3.945,2.487,0.500,0.074,0.000,0.245
2026-05-11 15:47:20.649888,RETURNING,34.482,1.000,-0.00,0.00,166.36,1.788,4.317,3.134,4.400,2.692,0.500,0.072,0.000,-0.192
2026-05-11 15:47:20.879348,RETURNING,34.385,1.000,-0.00,0.00,165.16,1.788,4.317,3.134,4.400,2.692,0.500,0.072,0.000,-0.192
2026-05-11 15:47:21.144923,RETURNING,34.288,1.000,-0.00,0.00,162.95,1.788,4.317,3.134,4.400,2.692,0.500,0.072,0.000,-0.192
2026-05-11 15:47:21.359216,RETURNING,34.193,1.000,-0.00,0.00,160.75,1.788,4.317,3.134,4.400,2.692,0.500,0.072,0.000,-0.192
2026-05-11 15:47:21.590515,RETURNING,34.099,1.000,-0.00,0.00,158.54,1.788,4.317,3.134,4.400,2.692,0.500,0.072,0.000,-0.192
2026-05-11 15:47:21.815170,RETURNING,34.007,1.000,-0.00,0.00,156.34,1.788,4.317,3.134,4.400,2.692,0.500,0.072,0.000,-0.192
2026-05-11 15:47:22.011743,RETURNING,33.916,1.000,-0.00,0.00,154.14,1.788,4.317,3.134,4.400,2.692,0.500,0.072,0.000,-0.192
2026-05-11 15:47:22.263607,RETURNING,33.849,1.000,-0.00,0.00,152.49,3.178,4.014,2.138,4.014,2.460,0.500,0.079,0.000,0.122
2026-05-11 15:47:22.456176,RETURNING,33.739,1.000,-0.00,0.00,151.53,3.178,4.014,2.138,4.014,2.460,0.500,0.079,0.000,0.122
2026-05-11 15:47:22.655100,RETURNING,33.651,1.000,-0.00,0.00,153.12,3.467,3.134,1.973,3.223,2.487,0.500,0.046,0.000,0.175
2026-05-11 15:47:22.875691,RETURNING,33.561,1.000,-0.00,0.00,155.12,3.467,3.134,1.973,3.223,2.487,0.500,0.046,0.000,0.175
2026-05-11 15:47:23.077254,RETURNING,33.470,1.000,-0.00,0.00,157.12,3.467,3.134,1.973,3.223,2.487,0.500,0.046,0.000,0.175
2026-05-11 15:47:23.294000,RETURNING,33.400,1.000,-0.00,0.00,158.63,3.269,4.237,2.288,4.317,2.460,0.500,0.087,0.000,0.105
2026-05-11 15:47:23.505240,RETURNING,33.283,1.000,-0.00,0.00,160.17,3.269,4.237,2.288,4.317,2.460,0.500,0.087,0.000,0.105
2026-05-11 15:47:23.712662,RETURNING,33.189,1.000,-0.00,0.00,161.37,3.269,4.237,2.288,4.317,2.460,0.500,0.087,0.000,0.105
2026-05-11 15:47:23.909800,RETURNING,33.094,1.000,-0.00,0.00,162.57,3.269,4.237,2.288,4.317,2.460,0.500,0.087,0.000,0.105
2026-05-11 15:47:24.136087,RETURNING,32.998,1.000,-0.00,0.00,163.77,3.269,4.237,2.288,4.317,2.460,0.500,0.087,0.000,0.105
2026-05-11 15:47:24.364088,RETURNING,32.902,1.000,-0.00,0.00,164.98,2.571,2.757,2.266,2.692,2.487,0.500,0.015,0.000,0.042
2026-05-11 15:47:24.575697,RETURNING,32.805,1.000,-0.00,0.00,165.60,2.571,2.757,2.266,2.692,2.487,0.500,0.015,0.000,0.042
2026-05-11 15:47:24.823972,RETURNING,32.708,1.000,-0.00,0.00,166.08,2.571,2.757,2.266,2.692,2.487,0.500,0.015,0.000,0.042
2026-05-11 15:47:25.028495,RETURNING,32.611,1.000,-0.00,0.00,166.56,2.571,2.757,2.266,2.692,2.487,0.500,0.015,0.000,0.042
2026-05-11 15:47:25.239383,RETURNING,32.514,1.000,-0.00,0.00,167.04,2.571,2.757,2.266,2.692,2.487,0.500,0.015,0.000,0.042
2026-05-11 15:47:25.451787,RETURNING,32.416,1.000,-0.00,0.00,167.52,2.571,2.757,2.266,2.692,2.487,0.500,0.015,0.000,0.042
2026-05-11 15:47:25.659256,RETURNING,32.318,1.000,-0.00,0.00,168.00,2.571,2.757,2.266,2.692,2.487,0.500,0.015,0.000,0.042
2026-05-11 15:47:25.919244,RETURNING,32.220,1.000,-0.00,0.00,168.48,2.571,2.757,2.266,2.692,2.487,0.500,0.015,0.000,0.042
2026-05-11 15:47:26.094878,RETURNING,32.122,1.000,-0.00,0.00,168.97,2.571,2.757,2.266,2.692,2.487,0.500,0.015,0.000,0.042
2026-05-11 15:47:26.324155,RETURNING,32.024,1.000,-0.00,0.00,169.45,2.571,2.757,2.266,2.692,2.487,0.500,0.015,0.000,0.042
2026-05-11 15:47:26.533814,RETURNING,31.926,1.000,-0.00,0.00,169.93,2.571,2.757,2.266,2.692,2.487,0.500,0.015,0.000,0.042
2026-05-11 15:47:26.766741,RETURNING,31.827,1.000,-0.00,0.00,170.41,2.571,2.757,2.266,2.692,2.487,0.500,0.015,0.000,0.042
2026-05-11 15:47:26.929940,RETURNING,31.729,1.000,-0.00,0.00,170.89,2.571,2.757,2.266,2.692,2.487,0.500,0.015,0.000,0.042
2026-05-11 15:47:27.155309,RETURNING,31.630,1.000,-0.00,0.00,171.37,2.571,2.757,2.266,2.692,2.487,0.500,0.015,0.000,0.042
2026-05-11 15:47:27.389348,RETURNING,31.531,1.000,-0.00,0.00,171.85,2.571,2.757,2.266,2.692,2.487,0.500,0.015,0.000,0.042
2026-05-11 15:47:27.560511,RETURNING,31.432,1.000,-0.00,0.00,172.33,2.571,2.757,2.266,2.692,2.487,0.500,0.015,0.000,0.042
2026-05-11 15:47:27.781580,RETURNING,31.333,1.000,-0.00,0.00,172.81,2.571,2.757,2.266,2.692,2.487,0.500,0.015,0.000,0.042
2026-05-11 15:47:27.997502,RETURNING,31.233,1.000,-0.00,0.00,173.29,2.571,2.757,2.266,2.692,2.487,0.500,0.015,0.000,0.042
2026-05-11 15:47:28.227312,RETURNING,31.134,1.000,-0.00,0.00,173.77,2.571,2.757,2.266,2.692,2.487,0.500,0.015,0.000,0.042
2026-05-11 15:47:28.449982,RETURNING,31.035,1.000,-0.00,0.00,174.25,2.571,2.757,2.266,2.692,2.487,0.500,0.015,0.000,0.042
2026-05-11 15:47:28.669325,RETURNING,30.935,1.000,-0.00,0.00,174.73,2.571,2.757,2.266,2.692,2.487,0.500,0.015,0.000,0.042
2026-05-11 15:47:28.858384,RETURNING,30.835,1.000,-0.00,0.00,175.22,2.571,2.757,2.266,2.692,2.487,0.500,0.015,0.000,0.042
2026-05-11 15:47:29.077203,RETURNING,30.736,1.000,-0.00,0.00,175.70,0.698,0.736,7.381,0.736,2.434,0.245,-0.400,0.000,-0.600
2026-05-11 15:47:29.300810,RETURNING,30.677,1.000,-0.00,0.00,170.29,0.698,0.736,7.381,0.736,2.434,0.245,-0.400,0.000,-0.600
2026-05-11 15:47:29.486563,RETURNING,30.629,1.000,-0.00,0.00,163.42,0.698,0.736,7.381,0.736,2.434,0.245,-0.400,0.000,-0.600
2026-05-11 15:47:29.715636,RETURNING,30.583,1.000,-0.00,0.00,156.54,0.698,0.736,7.381,0.736,2.434,0.245,-0.400,0.000,-0.600
2026-05-11 15:47:29.922132,RETURNING,30.539,1.000,-0.00,0.00,149.67,0.698,0.736,7.381,0.736,2.434,0.245,-0.400,0.000,-0.600
2026-05-11 15:47:30.157007,RETURNING,30.498,1.000,-0.00,0.00,142.79,0.698,0.736,7.381,0.736,2.434,0.245,-0.400,0.000,-0.600
2026-05-11 15:47:30.338728,RETURNING,30.461,1.000,-0.00,0.00,135.91,0.698,0.736,7.381,0.736,2.434,0.245,-0.400,0.000,-0.600
2026-05-11 15:47:30.582901,RETURNING,30.427,1.000,-0.00,0.00,129.04,0.698,0.736,7.381,0.736,2.434,0.245,-0.400,0.000,-0.600
2026-05-11 15:47:30.761425,RETURNING,30.399,1.000,-0.00,0.00,122.16,0.698,0.736,7.381,0.736,2.434,0.245,-0.400,0.000,-0.600
2026-05-11 15:47:31.025353,RETURNING,30.380,1.000,-0.00,0.00,117.01,2.630,1.646,1.271,1.658,1.658,0.500,0.000,0.000,0.325
2026-05-11 15:47:31.213435,RETURNING,30.321,1.000,-0.00,0.00,121.21,2.630,1.646,1.271,1.658,1.658,0.500,0.000,0.000,0.325
2026-05-11 15:47:31.428636,RETURNING,30.281,1.000,-0.00,0.00,124.00,2.630,1.646,1.271,1.658,1.658,0.500,0.000,0.000,0.325
2026-05-11 15:47:31.654681,RETURNING,30.208,1.000,-0.00,0.00,128.66,2.630,1.646,1.271,1.658,1.658,0.500,0.000,0.000,0.325
2026-05-11 15:47:31.850338,RETURNING,30.143,1.000,-0.00,0.00,132.38,2.630,1.646,1.271,1.658,1.658,0.500,0.000,0.000,0.325
2026-05-11 15:47:32.102298,RETURNING,30.073,1.000,-0.00,0.00,136.11,2.630,1.646,1.271,1.658,1.658,0.500,0.000,0.000,0.325
2026-05-11 15:47:32.307176,RETURNING,29.999,1.000,-0.00,0.00,139.84,2.630,1.646,1.271,1.658,1.658,0.500,0.000,0.000,0.325
2026-05-11 15:47:32.503234,RETURNING,29.921,1.000,-0.00,0.00,143.56,2.630,1.646,1.271,1.658,1.658,0.500,0.000,0.000,0.325
2026-05-11 15:47:32.704815,RETURNING,29.839,1.000,-0.00,0.00,147.29,2.630,1.646,1.271,1.658,1.658,0.500,0.000,0.000,0.325
2026-05-11 15:47:32.948648,RETURNING,29.753,1.000,-0.00,0.00,151.01,2.630,1.646,1.271,1.658,1.658,0.500,0.000,0.000,0.325
2026-05-11 15:47:33.157951,RETURNING,29.664,1.000,-0.00,0.00,154.74,2.630,1.646,1.271,1.658,1.658,0.500,0.000,0.000,0.325
2026-05-11 15:47:33.390474,RETURNING,29.573,1.000,-0.00,0.00,158.47,2.630,1.646,1.271,1.658,1.658,0.500,0.000,0.000,0.325
2026-05-11 15:47:33.565271,RETURNING,29.479,1.000,-0.00,0.00,162.19,2.630,1.646,1.271,1.658,1.658,0.500,0.000,0.000,0.325
2026-05-11 15:47:33.765521,RETURNING,29.383,1.000,-0.00,0.00,165.92,2.630,1.646,1.271,1.658,1.658,0.500,0.000,0.000,0.325
2026-05-11 15:47:33.999649,RETURNING,29.285,1.000,-0.00,0.00,169.64,2.630,1.646,1.271,1.658,1.658,0.500,0.000,0.000,0.325
2026-05-11 15:47:34.202221,RETURNING,29.186,1.000,-0.00,0.00,173.37,2.630,1.646,1.271,1.658,1.658,0.500,0.000,0.000,0.325
2026-05-11 15:47:34.437673,RETURNING,29.087,1.000,-0.00,0.00,175.12,1.939,2.896,6.022,2.860,2.460,0.500,0.028,0.000,-0.280
2026-05-11 15:47:34.633110,RETURNING,28.987,1.000,-0.00,0.00,172.03,1.939,2.896,6.022,2.860,2.460,0.500,0.028,0.000,-0.280
2026-05-11 15:47:34.833920,RETURNING,28.888,1.000,-0.00,0.00,168.82,1.939,2.896,6.022,2.860,2.460,0.500,0.028,0.000,-0.280
2026-05-11 15:47:35.059009,RETURNING,28.791,1.000,-0.00,0.00,165.62,1.939,2.896,6.022,2.860,2.460,0.500,0.028,0.000,-0.280
2026-05-11 15:47:35.294177,RETURNING,28.695,1.000,-0.00,0.00,162.82,2.099,4.868,3.632,4.670,2.487,0.500,0.094,0.000,-0.161
2026-05-11 15:47:35.517763,RETURNING,28.600,1.000,-0.00,0.00,160.98,2.099,4.868,3.632,4.670,2.487,0.500,0.094,0.000,-0.161
2026-05-11 15:47:35.748254,RETURNING,28.506,1.000,-0.00,0.00,159.17,2.080,6.022,3.134,4.767,2.434,0.500,0.101,0.000,-0.129
2026-05-11 15:47:35.924578,RETURNING,28.413,1.000,-0.00,0.00,157.69,2.080,6.022,3.134,4.767,2.434,0.500,0.101,0.000,-0.129
2026-05-11 15:47:36.164104,RETURNING,28.320,1.000,-0.00,0.00,156.21,2.080,6.022,3.134,4.767,2.434,0.500,0.101,0.000,-0.129
2026-05-11 15:47:36.358585,RETURNING,28.229,1.000,-0.00,0.00,154.72,2.080,6.022,3.134,4.767,2.434,0.500,0.101,0.000,-0.129
2026-05-11 15:47:36.583610,RETURNING,28.140,1.000,-0.00,0.00,153.24,2.934,5.581,2.514,4.576,2.460,0.500,0.094,0.000,0.045
2026-05-11 15:47:36.764932,RETURNING,28.050,1.000,-0.00,0.00,153.16,2.934,5.581,2.514,4.576,2.460,0.500,0.094,0.000,0.045
2026-05-11 15:47:37.029740,RETURNING,27.961,1.000,-0.00,0.00,153.68,3.415,5.085,2.384,4.400,2.460,0.500,0.090,0.000,0.101
2026-05-11 15:47:37.192199,RETURNING,27.871,1.000,-0.00,0.00,154.59,3.415,5.085,2.384,4.400,2.460,0.500,0.090,0.000,0.101
2026-05-11 15:47:37.414514,RETURNING,27.780,1.000,-0.00,0.00,155.75,3.415,5.085,2.384,4.400,2.460,0.500,0.090,0.000,0.101
2026-05-11 15:47:37.649886,RETURNING,27.689,1.000,-0.00,0.00,156.91,3.415,5.085,2.384,4.400,2.460,0.500,0.090,0.000,0.101
2026-05-11 15:47:37.839430,RETURNING,27.597,1.000,-0.00,0.00,158.07,3.415,5.085,2.384,4.400,2.460,0.500,0.090,0.000,0.101
2026-05-11 15:47:38.061418,RETURNING,27.503,1.000,-0.00,0.00,159.24,3.415,5.085,2.384,4.400,2.460,0.500,0.090,0.000,0.101
2026-05-11 15:47:38.289610,RETURNING,27.410,1.000,-0.00,0.00,160.40,3.415,5.085,2.384,4.400,2.460,0.500,0.090,0.000,0.101
2026-05-11 15:47:38.498598,RETURNING,27.315,1.000,-0.00,0.00,161.56,3.415,5.085,2.384,4.400,2.460,0.500,0.090,0.000,0.101
2026-05-11 15:47:38.707101,RETURNING,27.220,1.000,-0.00,0.00,162.72,3.415,5.085,2.384,4.400,2.460,0.500,0.090,0.000,0.101
2026-05-11 15:47:38.927084,RETURNING,27.124,1.000,-0.00,0.00,163.88,3.415,5.085,2.384,4.400,2.460,0.500,0.090,0.000,0.101
2026-05-11 15:47:39.154741,RETURNING,27.028,1.000,-0.00,0.00,164.31,2.222,6.022,3.223,4.317,2.460,0.500,0.087,0.000,-0.112
2026-05-11 15:47:39.355503,RETURNING,26.932,1.000,-0.00,0.00,163.03,2.222,6.022,3.223,4.317,2.460,0.500,0.087,0.000,-0.112
2026-05-11 15:47:40.010687,RETURNING,26.837,1.000,-0.00,0.00,161.75,2.222,6.022,3.223,4.317,2.460,0.500,0.087,0.000,-0.112
2026-05-11 15:47:40.833418,RETURNING,26.766,1.000,-0.00,0.00,160.79,2.222,6.022,3.223,4.317,2.460,0.500,0.087,0.000,-0.112
2026-05-11 15:47:40.940540,RETURNING,26.671,1.000,-0.00,0.00,159.50,2.222,6.022,3.223,4.317,2.460,0.500,0.087,0.000,-0.112
2026-05-11 15:47:41.173532,RETURNING,26.509,1.000,-0.00,0.00,157.26,2.222,6.022,3.223,4.317,2.460,0.500,0.087,0.000,-0.112
2026-05-11 15:47:41.374809,RETURNING,26.417,1.000,-0.00,0.00,155.98,2.222,6.022,3.223,4.317,2.460,0.500,0.087,0.000,-0.112
2026-05-11 15:47:41.587406,RETURNING,26.326,1.000,-0.00,0.00,154.70,2.222,6.022,3.223,4.317,2.460,0.500,0.087,0.000,-0.112
2026-05-11 15:47:41.840481,RETURNING,26.236,1.000,-0.00,0.00,153.41,2.222,6.022,3.223,4.317,2.460,0.500,0.087,0.000,-0.112
2026-05-11 15:47:42.018089,RETURNING,26.147,1.000,-0.00,0.00,152.13,2.222,6.022,3.223,4.317,2.460,0.500,0.087,0.000,-0.112
2026-05-11 15:47:42.242150,RETURNING,26.059,1.000,-0.00,0.00,150.85,2.222,6.022,3.223,4.317,2.460,0.500,0.087,0.000,-0.112
2026-05-11 15:47:42.428998,RETURNING,25.972,1.000,-0.00,0.00,149.57,2.222,6.022,3.223,4.317,2.460,0.500,0.087,0.000,-0.112
2026-05-11 15:47:42.657017,RETURNING,25.886,1.000,-0.00,0.00,148.29,2.222,6.022,3.223,4.317,2.460,0.500,0.087,0.000,-0.112
2026-05-11 15:47:42.854105,RETURNING,25.802,1.000,-0.00,0.00,147.00,2.222,6.022,3.223,4.317,2.460,0.500,0.087,0.000,-0.112
2026-05-11 15:47:43.098594,RETURNING,25.719,1.000,-0.00,0.00,145.72,2.222,6.022,3.223,4.317,2.460,0.500,0.087,0.000,-0.112
2026-05-11 15:47:43.294795,RETURNING,25.637,1.000,-0.00,0.00,144.44,2.222,6.022,3.223,4.317,2.460,0.500,0.087,0.000,-0.112
2026-05-11 15:47:43.538104,RETURNING,25.556,1.000,-0.00,0.00,143.16,2.222,6.022,3.223,4.317,2.460,0.500,0.087,0.000,-0.112
2026-05-11 15:47:43.709485,RETURNING,25.476,1.000,-0.00,0.00,141.88,2.222,6.022,3.223,4.317,2.460,0.500,0.087,0.000,-0.112
2026-05-11 15:47:43.939313,RETURNING,25.398,1.000,-0.00,0.00,140.59,2.222,6.022,3.223,4.317,2.460,0.500,0.087,0.000,-0.112
2026-05-11 15:47:44.196383,RETURNING,25.341,1.000,-0.00,0.00,139.63,4.487,2.460,1.404,2.409,2.434,0.500,-0.002,0.000,0.392
2026-05-11 15:47:44.416647,RETURNING,25.246,1.000,-0.00,0.00,140.91,4.487,2.460,1.404,2.409,2.434,0.500,-0.002,0.000,0.392
2026-05-11 15:47:44.603381,RETURNING,25.166,1.000,-0.00,0.00,145.40,4.487,2.460,1.404,2.409,2.434,0.500,-0.002,0.000,0.392
2026-05-11 15:47:44.806069,RETURNING,25.082,1.000,-0.00,0.00,149.89,4.487,2.460,1.404,2.409,2.434,0.500,-0.002,0.000,0.392
2026-05-11 15:47:45.041182,RETURNING,24.994,1.000,-0.00,0.00,154.38,3.691,2.434,1.600,2.434,2.409,0.500,0.002,0.000,0.283
2026-05-11 15:47:45.198051,RETURNING,24.902,1.000,-0.00,0.00,158.12,3.691,2.434,1.600,2.434,2.409,0.500,0.002,0.000,0.283
2026-05-11 15:47:45.432043,RETURNING,24.809,1.000,-0.00,0.00,161.36,3.691,2.434,1.600,2.434,2.409,0.500,0.002,0.000,0.283
2026-05-11 15:47:45.627497,RETURNING,24.713,1.000,-0.00,0.00,164.61,3.691,2.434,1.600,2.434,2.409,0.500,0.002,0.000,0.283
2026-05-11 15:47:45.858554,RETURNING,24.616,1.000,-0.00,0.00,167.85,3.691,2.434,1.600,2.434,2.409,0.500,0.002,0.000,0.283
2026-05-11 15:47:46.078951,RETURNING,24.518,1.000,-0.00,0.00,170.90,3.011,4.160,2.138,2.571,2.384,0.500,0.015,0.000,0.108
2026-05-11 15:47:46.283720,RETURNING,24.419,1.000,-0.00,0.00,172.14,3.011,4.160,2.138,2.571,2.384,0.500,0.015,0.000,0.108
2026-05-11 15:47:46.475964,RETURNING,24.320,1.000,-0.00,0.00,173.38,3.011,4.160,2.138,2.571,2.384,0.500,0.015,0.000,0.108
2026-05-11 15:47:46.692522,RETURNING,24.220,1.000,-0.00,0.00,174.62,3.011,4.160,2.138,2.571,2.384,0.500,0.015,0.000,0.108
2026-05-11 15:47:46.929583,RETURNING,24.121,1.000,-0.00,0.00,175.87,3.011,4.160,2.138,2.571,2.384,0.500,0.015,0.000,0.108
2026-05-11 15:47:47.113487,RETURNING,24.021,1.000,-0.00,0.00,177.11,3.011,4.160,2.138,2.571,2.384,0.500,0.015,0.000,0.108
2026-05-11 15:47:47.349646,RETURNING,23.921,1.000,-0.00,0.00,178.35,2.043,3.134,3.520,2.600,2.460,0.500,0.011,0.000,-0.164
2026-05-11 15:47:47.541680,RETURNING,23.821,1.000,-0.00,0.00,177.40,2.043,3.134,3.520,2.600,2.460,0.500,0.011,0.000,-0.164
2026-05-11 15:47:47.737767,RETURNING,23.721,1.000,-0.00,0.00,175.52,2.007,2.860,3.223,2.600,2.434,0.500,0.013,0.000,-0.150
2026-05-11 15:47:47.996041,RETURNING,23.621,1.000,-0.00,0.00,173.78,2.007,2.860,3.223,2.600,2.434,0.500,0.013,0.000,-0.150
2026-05-11 15:47:48.212586,RETURNING,23.522,1.000,-0.00,0.00,172.06,2.007,2.860,3.223,2.600,2.434,0.500,0.013,0.000,-0.150
2026-05-11 15:47:48.402403,RETURNING,23.423,1.000,-0.00,0.00,170.43,2.179,2.724,3.134,2.630,2.409,0.500,0.017,0.000,-0.112
2026-05-11 15:47:48.614856,RETURNING,23.325,1.000,-0.00,0.00,169.14,2.222,2.542,2.896,2.542,2.266,0.500,0.024,0.000,-0.084
2026-05-11 15:47:48.838836,RETURNING,23.227,1.000,-0.00,0.00,168.12,2.222,2.542,2.896,2.542,2.266,0.500,0.024,0.000,-0.084
2026-05-11 15:47:49.055963,RETURNING,23.129,1.000,-0.00,0.00,167.16,2.222,2.542,2.896,2.542,2.266,0.500,0.024,0.000,-0.084
2026-05-11 15:47:49.224023,RETURNING,23.032,1.000,-0.00,0.00,166.19,2.222,2.542,2.896,2.542,2.266,0.500,0.024,0.000,-0.084
2026-05-11 15:47:49.476397,RETURNING,22.935,1.000,-0.00,0.00,165.21,2.099,2.790,2.757,2.661,1.923,0.500,0.072,0.000,-0.091
2026-05-11 15:47:49.656604,RETURNING,22.838,1.000,-0.00,0.00,164.17,2.099,2.790,2.757,2.661,1.923,0.500,0.072,0.000,-0.091
2026-05-11 15:47:49.883652,RETURNING,22.743,1.000,-0.00,0.00,163.04,1.831,2.514,2.514,3.134,2.434,0.500,0.046,0.000,-0.119
2026-05-11 15:47:50.099634,RETURNING,22.647,1.000,-0.00,0.00,161.69,1.831,2.514,2.514,3.134,2.434,0.500,0.046,0.000,-0.119
2026-05-11 15:47:50.316952,RETURNING,22.553,1.000,-0.00,0.00,160.32,1.831,2.514,2.514,3.134,2.434,0.500,0.046,0.000,-0.119
2026-05-11 15:47:50.561822,RETURNING,22.459,1.000,-0.00,0.00,158.96,1.831,2.514,2.514,3.134,2.434,0.500,0.046,0.000,-0.119
2026-05-11 15:47:50.778031,RETURNING,22.366,1.000,-0.00,0.00,157.60,1.623,2.119,2.200,2.119,2.099,0.500,0.002,0.000,-0.129
2026-05-11 15:47:50.988164,RETURNING,22.274,1.000,-0.00,0.00,156.17,1.623,2.080,2.159,2.080,2.099,0.500,-0.002,0.000,-0.122
2026-05-11 15:47:51.171019,RETURNING,22.183,1.000,-0.00,0.00,154.77,1.816,1.939,1.939,1.939,1.923,0.500,0.002,0.000,-0.028
2026-05-11 15:47:51.403259,RETURNING,22.093,1.000,-0.00,0.00,154.30,1.907,1.891,1.907,1.907,1.907,0.500,0.000,0.000,0.000
2026-05-11 15:47:51.585903,RETURNING,22.002,1.000,-0.00,0.00,154.35,1.939,1.788,1.831,1.788,1.733,0.500,0.009,0.000,0.024
2026-05-11 15:47:51.847306,RETURNING,21.912,1.000,-0.00,0.00,154.63,1.990,1.634,1.695,1.600,1.634,0.500,-0.007,0.000,0.070
2026-05-11 15:47:52.052752,RETURNING,21.822,1.000,-0.00,0.00,155.22,1.990,1.634,1.695,1.600,1.634,0.500,-0.007,0.000,0.070
2026-05-11 15:47:52.213904,RETURNING,21.731,1.000,-0.00,0.00,156.03,1.990,1.634,1.695,1.600,1.634,0.500,-0.007,0.000,0.070
2026-05-11 15:47:52.473775,RETURNING,21.640,1.000,-0.00,0.00,156.92,1.923,1.421,1.515,1.404,1.421,0.468,-0.004,0.000,0.112
2026-05-11 15:47:52.651350,RETURNING,21.554,1.000,-0.00,0.00,158.21,1.923,1.421,1.515,1.404,1.421,0.468,-0.004,0.000,0.112
2026-05-11 15:47:52.875437,RETURNING,21.467,1.000,-0.00,0.00,159.49,1.923,1.421,1.515,1.404,1.421,0.468,-0.004,0.000,0.112
2026-05-11 15:47:53.078030,RETURNING,21.382,1.000,-0.00,0.00,161.01,1.695,1.133,1.162,1.138,1.133,0.378,0.002,0.000,0.217
2026-05-11 15:47:53.277190,RETURNING,21.310,1.000,-0.00,0.00,163.49,1.695,1.133,1.162,1.138,1.133,0.378,0.002,0.000,0.217
2026-05-11 15:47:53.510870,RETURNING,21.256,1.000,-0.00,0.00,165.36,1.695,1.133,1.162,1.138,1.133,0.378,0.002,0.000,0.217
2026-05-11 15:47:53.693987,RETURNING,21.164,1.000,-0.00,0.00,168.46,1.695,1.133,1.162,1.138,1.133,0.378,0.002,0.000,0.217
2026-05-11 15:47:53.925171,RETURNING,21.094,1.000,-0.00,0.00,171.89,1.237,1.017,0.748,0.970,1.045,0.323,-0.037,0.000,0.423
2026-05-11 15:47:54.140289,RETURNING,21.029,1.000,-0.00,0.00,176.74,1.237,1.017,0.748,0.970,1.045,0.323,-0.037,0.000,0.423
2026-05-11 15:47:54.382226,RETURNING,20.965,1.000,0.00,0.00,-178.41,1.237,1.017,0.748,0.970,1.045,0.323,-0.037,0.000,0.423
2026-05-11 15:47:54.552338,RETURNING,20.900,1.000,0.00,0.00,-173.57,1.237,1.017,0.748,0.970,1.045,0.323,-0.037,0.000,0.423
2026-05-11 15:47:54.788357,RETURNING,20.836,1.000,0.00,0.00,-168.72,0.763,1.127,2.119,1.133,1.127,0.376,0.002,0.000,-0.600
2026-05-11 15:47:55.002624,RETURNING,20.767,1.000,0.00,0.00,-172.08,0.729,1.054,1.891,1.054,1.045,0.348,0.004,0.000,-0.600
2026-05-11 15:47:55.189940,RETURNING,20.697,1.000,0.00,0.00,-178.95,0.695,1.045,1.939,1.050,1.050,0.348,0.000,0.000,-0.600
2026-05-11 15:47:55.401163,RETURNING,20.627,1.000,-0.00,0.00,174.17,0.717,1.116,2.243,1.111,1.084,0.361,0.011,0.000,-0.600
2026-05-11 15:47:55.614553,RETURNING,20.556,1.000,-0.00,0.00,167.30,0.717,1.116,2.243,1.111,1.084,0.361,0.011,0.000,-0.600
2026-05-11 15:47:55.827243,RETURNING,20.486,1.000,-0.00,0.00,160.42,0.717,1.116,2.243,1.111,1.084,0.361,0.011,0.000,-0.600
2026-05-11 15:47:56.035209,RETURNING,20.420,1.000,-0.00,0.00,153.55,0.717,1.116,2.243,1.111,1.084,0.361,0.011,0.000,-0.600
2026-05-11 15:47:56.246456,RETURNING,20.357,1.000,-0.00,0.00,146.67,0.717,1.116,2.243,1.111,1.084,0.361,0.011,0.000,-0.600
2026-05-11 15:47:56.471317,RETURNING,20.299,1.000,-0.00,0.00,139.80,0.717,1.116,2.243,1.111,1.084,0.361,0.011,0.000,-0.600
2026-05-11 15:47:56.698527,RETURNING,20.246,1.000,-0.00,0.00,132.92,0.717,1.116,2.243,1.111,1.084,0.361,0.011,0.000,-0.600
2026-05-11 15:47:56.918912,RETURNING,20.200,1.000,-0.00,0.00,126.04,0.717,1.116,2.243,1.111,1.084,0.361,0.011,0.000,-0.600
