timestamp,state,x,y,z,roll_deg,pitch_deg,yaw_deg,dist_left,dist_center,dist_right,dist_top,dist_bottom,dtof_alert,collision_event,best_dir,max_space,cmd_vx,cmd_vz,cmd_yaw
22:03:42.278,SEARCHING,0.000,0.000,0.000,0.00,0.00,0.00,10.000,10.000,10.000,10.000,10.000,0,0,SEARCHING,0.000,0.800,0.000,0.000
22:03:43.656,SEARCHING,0.064,0.000,1.000,0.00,0.00,0.00,10.000,10.000,10.000,10.000,10.000,0,0,SEARCHING,0.000,0.800,0.000,0.000
22:03:43.858,SEARCHING,0.192,-0.000,1.009,0.00,0.00,-0.19,1.310,5.045,2.195,5.131,2.702,0,0,SEARCHING,0.000,0.800,0.210,-0.246
22:03:44.059,SEARCHING,0.320,-0.003,1.054,0.00,0.00,-3.02,0.945,4.593,1.845,4.559,2.545,0,0,SEARCHING,0.000,0.800,0.208,-0.413
22:03:44.259,SEARCHING,0.448,-0.012,1.092,0.00,0.00,-3.67,7.355,4.146,1.713,4.142,2.675,0,0,SEARCHING,0.000,0.800,0.159,0.358
22:03:44.459,SEARCHING,0.576,-0.017,1.124,0.00,0.00,-0.34,8.583,4.462,1.745,4.498,2.747,0,0,SEARCHING,0.000,0.800,0.170,0.365
22:03:44.660,SEARCHING,0.703,-0.015,1.158,0.00,0.00,2.96,5.723,4.899,1.810,4.998,2.787,0,0,SEARCHING,0.000,0.800,0.190,0.302
22:03:44.865,SEARCHING,0.831,-0.005,1.196,0.00,0.00,5.67,4.285,5.612,2.299,5.380,2.932,0,0,SEARCHING,0.000,0.800,0.186,0.161
22:03:45.067,SEARCHING,0.958,0.009,1.232,0.00,0.00,6.72,3.396,5.998,2.952,5.322,3.039,0,0,SEARCHING,0.000,0.800,0.169,0.035
22:03:45.268,SEARCHING,1.085,0.024,1.265,0.00,0.00,7.08,4.021,6.011,2.968,5.219,3.122,0,0,SEARCHING,0.000,0.800,0.154,0.071
22:03:45.469,SEARCHING,1.212,0.040,1.295,0.00,0.00,7.75,4.122,5.874,2.964,5.143,3.176,0,0,SEARCHING,0.000,0.800,0.144,0.076
22:03:45.668,SEARCHING,1.339,0.058,1.323,0.00,0.00,8.44,4.042,5.887,3.021,5.086,3.276,0,0,SEARCHING,0.000,0.800,0.130,0.067
22:03:45.869,SEARCHING,1.466,0.078,1.348,0.00,0.00,9.03,4.000,5.794,3.065,5.016,3.328,0,0,SEARCHING,0.000,0.800,0.121,0.061
22:03:46.070,SEARCHING,1.592,0.098,1.373,0.00,0.00,9.57,3.883,5.866,3.088,4.977,3.358,0,0,SEARCHING,0.000,0.800,0.116,0.053
22:03:46.270,SEARCHING,1.718,0.120,1.395,0.00,0.00,10.04,3.799,5.867,3.117,4.931,3.453,0,0,SEARCHING,0.000,0.800,0.104,0.046
22:03:46.471,SEARCHING,1.844,0.143,1.416,0.00,0.00,10.45,3.753,5.794,3.135,4.846,3.509,0,0,SEARCHING,0.000,0.800,0.094,0.042
22:03:46.672,SEARCHING,1.970,0.166,1.435,0.00,0.00,10.82,3.704,5.857,3.188,4.924,3.508,0,0,SEARCHING,0.000,0.800,0.098,0.035
22:03:46.872,SEARCHING,2.096,0.191,1.453,0.00,0.00,11.15,3.727,5.732,3.224,4.819,3.617,0,0,SEARCHING,0.000,0.800,0.083,0.033
22:03:47.072,SEARCHING,2.221,0.216,1.470,0.00,0.00,11.46,3.682,5.721,3.205,4.841,3.632,0,0,SEARCHING,0.000,0.800,0.083,0.032
22:03:47.273,SEARCHING,2.346,0.241,1.486,0.00,0.00,11.74,3.649,5.687,3.217,4.776,3.569,0,0,SEARCHING,0.000,0.800,0.085,0.029
22:03:47.475,SEARCHING,2.472,0.268,1.501,0.00,0.00,12.01,3.632,5.641,3.234,4.732,3.758,0,0,SEARCHING,0.000,0.800,0.066,0.027
22:03:47.674,SEARCHING,2.597,0.295,1.514,0.00,0.00,12.25,3.628,5.522,3.236,4.766,3.796,0,0,SEARCHING,0.000,0.800,0.064,0.027
22:03:47.875,SEARCHING,2.722,0.322,1.527,0.00,0.00,12.47,3.583,5.580,3.323,4.671,3.801,0,0,SEARCHING,0.000,0.800,0.059,0.018
22:03:48.076,SEARCHING,2.847,0.350,1.539,0.00,0.00,12.63,3.548,5.481,3.293,4.670,3.846,0,0,SEARCHING,0.000,0.800,0.055,0.017
22:03:48.276,SEARCHING,2.972,0.378,1.550,0.00,0.00,12.78,3.397,5.576,3.270,4.584,3.879,0,0,SEARCHING,0.000,0.800,0.048,0.009
22:03:48.477,SEARCHING,3.097,0.406,1.559,0.00,0.00,12.88,3.378,5.465,3.310,4.576,3.874,0,0,SEARCHING,0.000,0.800,0.048,0.005
22:03:48.677,SEARCHING,3.221,0.435,1.568,0.00,0.00,12.89,3.312,5.455,3.280,4.576,3.943,0,0,SEARCHING,0.000,0.800,0.042,0.002
22:03:48.877,SEARCHING,3.346,0.463,1.577,0.00,0.00,12.87,6.732,5.448,3.302,4.488,3.941,0,0,SEARCHING,0.000,0.800,0.037,0.123
22:03:49.074,SEARCHING,3.471,0.493,1.584,0.00,0.00,14.10,4.442,5.758,3.323,4.487,3.941,0,0,SEARCHING,0.000,0.800,0.037,0.061
22:03:49.274,SEARCHING,3.595,0.525,1.591,0.00,0.00,14.40,7.679,6.253,3.270,4.429,3.945,0,0,SEARCHING,0.000,0.800,0.033,0.140
22:03:49.474,SEARCHING,3.718,0.558,1.597,0.00,0.00,15.74,8.160,7.076,3.158,4.447,3.959,0,0,SEARCHING,0.000,0.800,0.033,0.155
22:03:49.674,SEARCHING,3.841,0.594,1.604,0.00,0.00,17.14,7.908,7.149,3.212,4.455,3.948,0,0,SEARCHING,0.000,0.800,0.035,0.148
22:03:49.875,SEARCHING,3.963,0.632,1.610,0.00,0.00,17.90,5.460,7.352,3.201,4.401,3.920,0,0,SEARCHING,0.000,0.800,0.033,0.103
22:03:50.076,SEARCHING,4.085,0.673,1.618,0.00,0.00,18.78,6.706,7.161,3.206,4.374,3.871,0,0,SEARCHING,0.000,0.800,0.036,0.130
22:03:50.276,SEARCHING,4.206,0.715,1.624,0.00,0.00,19.41,5.570,7.356,3.246,4.390,4.030,0,0,SEARCHING,0.000,0.800,0.024,0.103
22:03:50.477,SEARCHING,4.326,0.758,1.629,0.00,0.00,20.54,7.686,7.381,3.287,4.400,4.068,0,0,SEARCHING,0.000,0.800,0.022,0.139
22:03:50.678,SEARCHING,4.445,0.804,1.634,0.00,0.00,21.82,5.322,7.596,3.356,4.400,4.071,0,0,SEARCHING,0.000,0.800,0.022,0.088
22:03:50.878,SEARCHING,4.564,0.852,1.638,0.00,0.00,22.02,5.519,8.132,3.363,4.400,4.060,0,0,SEARCHING,0.000,0.800,0.023,0.093
22:03:51.079,SEARCHING,4.682,0.901,1.642,0.00,0.00,23.06,7.955,8.398,3.370,4.377,4.088,0,0,SEARCHING,0.000,0.800,0.019,0.137
22:03:51.279,SEARCHING,4.800,0.952,1.647,0.00,0.00,24.30,8.015,9.534,3.447,4.396,4.008,0,0,SEARCHING,0.000,0.800,0.026,0.132
22:03:51.479,SEARCHING,4.916,1.006,1.651,0.00,0.00,25.49,7.700,9.754,3.835,4.333,3.924,0,0,SEARCHING,0.000,0.800,0.029,0.105
22:03:51.680,SEARCHING,5.031,1.062,1.656,0.00,0.00,26.27,7.394,9.740,5.054,4.389,4.111,0,0,SEARCHING,0.000,0.800,0.018,0.050
22:03:51.880,SEARCHING,5.145,1.119,1.659,0.00,0.00,26.72,6.801,9.551,5.035,4.330,4.109,0,0,SEARCHING,0.000,0.800,0.015,0.041
22:03:52.081,SEARCHING,5.260,1.177,1.663,0.00,0.00,27.09,6.725,9.436,4.986,4.337,4.150,0,0,SEARCHING,0.000,0.800,0.012,0.042
22:03:52.281,SEARCHING,5.373,1.236,1.665,0.00,0.00,27.47,6.598,9.304,4.974,4.332,4.136,0,0,SEARCHING,0.000,0.800,0.013,0.040
22:03:52.483,SEARCHING,5.487,1.295,1.667,0.00,0.00,27.82,6.402,9.294,4.974,4.342,4.171,0,0,SEARCHING,0.000,0.800,0.011,0.036
22:03:52.683,SEARCHING,5.600,1.355,1.670,0.00,0.00,28.18,6.389,9.011,4.953,4.328,4.160,0,0,SEARCHING,0.000,0.800,0.011,0.036
22:03:52.890,SEARCHING,5.713,1.416,1.671,0.00,0.00,28.51,6.196,9.272,4.964,4.317,4.175,0,0,SEARCHING,0.000,0.800,0.010,0.032
22:03:53.091,SEARCHING,5.825,1.477,1.674,0.00,0.00,28.79,6.024,8.968,4.878,4.319,4.209,0,0,SEARCHING,0.000,0.800,0.007,0.031
22:03:53.292,SEARCHING,5.937,1.539,1.675,0.00,0.00,29.06,5.737,8.952,4.869,4.277,4.170,0,0,SEARCHING,0.000,0.800,0.007,0.025
22:03:53.492,SEARCHING,6.049,1.601,1.677,0.00,0.00,29.28,5.534,8.737,4.865,4.332,4.155,0,0,SEARCHING,0.000,0.800,0.012,0.020
22:03:53.693,SEARCHING,6.160,1.664,1.679,0.00,0.00,29.45,5.456,8.677,4.868,4.278,4.038,0,0,SEARCHING,0.000,0.800,0.017,0.018
22:03:53.893,SEARCHING,6.272,1.727,1.681,0.00,0.00,29.62,5.331,8.697,4.834,4.314,4.083,0,0,SEARCHING,0.000,0.800,0.016,0.015
22:03:54.093,SEARCHING,6.383,1.791,1.683,0.00,0.00,29.76,5.116,8.519,4.732,4.265,4.059,0,0,SEARCHING,0.000,0.800,0.014,0.013
22:03:54.294,SEARCHING,6.494,1.854,1.685,0.00,0.00,29.87,5.085,8.486,4.766,4.249,4.159,0,0,SEARCHING,0.000,0.800,0.006,0.011
22:03:54.495,SEARCHING,6.605,1.918,1.687,0.00,0.00,29.96,4.925,8.456,4.683,4.280,4.154,0,0,SEARCHING,0.000,0.800,0.008,0.008
22:03:54.696,SEARCHING,6.716,1.982,1.688,0.00,0.00,30.05,4.822,8.446,4.663,4.238,4.202,0,0,SEARCHING,0.000,0.800,0.002,0.006
22:03:54.896,SEARCHING,6.827,2.046,1.689,0.00,0.00,30.10,4.683,8.337,4.582,4.196,4.152,0,0,SEARCHING,0.000,0.800,0.003,0.004
22:03:55.096,SEARCHING,6.937,2.110,1.690,0.00,0.00,30.11,4.535,8.175,4.693,4.259,4.153,0,0,SEARCHING,0.000,0.800,0.007,-0.006
22:03:55.297,SEARCHING,7.048,2.175,1.691,0.00,0.00,30.04,4.415,8.172,4.817,4.301,4.095,0,0,SEARCHING,0.000,0.800,0.014,-0.015
22:03:55.498,SEARCHING,7.159,2.238,1.694,0.00,0.00,29.89,4.207,7.895,4.907,4.285,4.224,0,0,SEARCHING,0.000,0.800,0.004,-0.027
22:03:55.699,SEARCHING,7.270,2.302,1.694,0.00,0.00,29.61,4.007,7.759,4.999,4.268,4.247,0,0,SEARCHING,0.000,0.800,0.001,-0.040
22:03:55.900,SEARCHING,7.381,2.365,1.695,0.00,0.00,29.22,3.821,7.707,4.895,4.283,4.104,0,0,SEARCHING,0.000,0.800,0.012,-0.046
22:03:56.100,SEARCHING,7.493,2.427,1.697,0.00,0.00,28.79,3.749,7.505,5.059,4.297,4.242,0,0,SEARCHING,0.000,0.800,0.004,-0.055
22:03:56.300,SEARCHING,7.606,2.488,1.697,0.00,0.00,28.26,3.495,7.395,5.138,4.316,4.237,0,0,SEARCHING,0.000,0.800,0.005,-0.073
22:03:56.501,SEARCHING,7.719,2.548,1.699,0.00,0.00,27.56,3.410,7.180,5.367,4.284,4.231,0,0,SEARCHING,0.000,0.800,0.003,-0.086
22:03:56.702,SEARCHING,7.833,2.607,1.699,0.00,0.00,26.79,3.375,7.151,5.074,4.314,4.236,0,0,SEARCHING,0.000,0.800,0.005,-0.079
22:03:56.903,SEARCHING,7.947,2.664,1.700,0.00,0.00,26.02,3.216,6.941,4.832,4.239,4.199,0,0,SEARCHING,0.000,0.800,0.003,-0.083
22:03:57.103,SEARCHING,8.063,2.719,1.700,0.00,0.00,25.26,3.087,6.832,4.457,4.277,4.237,0,0,SEARCHING,0.000,0.800,0.003,-0.080
22:03:57.303,SEARCHING,8.179,2.773,1.701,0.00,0.00,24.50,2.936,6.732,4.617,4.263,4.247,0,0,SEARCHING,0.000,0.800,0.001,-0.099
22:03:57.504,SEARCHING,8.296,2.826,1.701,0.00,0.00,23.57,2.719,6.541,4.365,4.258,4.236,0,0,SEARCHING,0.000,0.800,0.001,-0.111
22:03:57.705,SEARCHING,8.413,2.876,1.701,0.00,0.00,22.54,2.694,6.282,4.572,4.288,4.237,0,0,SEARCHING,0.000,0.800,0.003,-0.122
22:03:57.906,SEARCHING,8.532,2.924,1.702,0.00,0.00,21.38,2.661,6.184,4.202,4.238,4.237,0,0,SEARCHING,0.000,0.800,0.000,-0.110
22:03:58.106,SEARCHING,8.651,2.970,1.702,0.00,0.00,20.44,6.832,6.116,3.964,4.180,4.237,0,0,SEARCHING,0.000,0.800,-0.004,0.085
22:03:58.307,SEARCHING,8.771,3.015,1.701,0.00,0.00,21.21,7.550,6.013,4.624,4.210,4.237,0,0,SEARCHING,0.000,0.800,-0.002,0.067
22:03:58.508,SEARCHING,8.890,3.062,1.700,0.00,0.00,21.78,7.507,5.992,4.801,4.162,4.193,0,0,SEARCHING,0.000,0.800,-0.002,0.060
22:03:58.708,SEARCHING,9.009,3.110,1.700,0.00,0.00,22.32,7.196,5.810,4.768,4.204,4.232,0,0,SEARCHING,0.000,0.800,-0.002,0.057
22:03:58.908,SEARCHING,9.127,3.159,1.700,0.00,0.00,22.85,7.378,5.567,4.767,4.231,4.211,0,0,SEARCHING,0.000,0.800,0.001,0.059
22:03:59.109,SEARCHING,9.245,3.209,1.700,0.00,0.00,23.38,7.212,5.498,4.694,4.228,4.215,0,0,SEARCHING,0.000,0.800,0.001,0.059
22:03:59.309,SEARCHING,9.362,3.260,1.701,0.00,0.00,23.92,7.267,5.344,4.670,4.187,4.213,0,0,SEARCHING,0.000,0.800,-0.002,0.061
22:03:59.510,SEARCHING,9.479,3.313,1.701,0.00,0.00,24.47,7.085,5.261,4.587,4.212,4.190,0,0,SEARCHING,0.000,0.800,0.002,0.062
22:03:59.711,SEARCHING,9.595,3.366,1.701,0.00,0.00,25.04,7.150,5.222,4.577,4.237,4.234,0,0,SEARCHING,0.000,0.800,0.000,0.063
22:03:59.912,SEARCHING,9.711,3.421,1.701,0.00,0.00,25.63,7.151,5.201,4.571,4.234,4.277,0,0,SEARCHING,0.000,0.800,-0.003,0.063
22:04:00.107,SEARCHING,9.826,3.477,1.701,0.00,0.00,26.20,7.083,5.164,4.565,4.237,4.234,0,0,SEARCHING,0.000,0.800,0.000,0.062
22:04:00.307,SEARCHING,9.941,3.534,1.701,0.00,0.00,26.77,7.041,5.093,4.498,4.277,4.221,0,0,SEARCHING,0.000,0.800,0.004,0.064
22:04:00.508,SEARCHING,10.055,3.592,1.701,0.00,0.00,27.38,7.153,5.085,4.460,4.238,4.218,0,0,SEARCHING,0.000,0.800,0.001,0.068
22:04:00.708,SEARCHING,10.168,3.652,1.701,0.00,0.00,28.00,7.208,5.012,4.415,4.233,4.236,0,0,SEARCHING,0.000,0.800,-0.000,0.070
22:04:00.908,SEARCHING,10.281,3.712,1.701,0.00,0.00,28.65,7.303,4.925,4.323,4.242,4.237,0,0,SEARCHING,0.000,0.800,0.000,0.076
22:04:01.109,SEARCHING,10.393,3.774,1.701,0.00,0.00,29.35,7.092,5.039,4.182,4.257,4.247,0,0,SEARCHING,0.000,0.800,0.001,0.078
22:04:01.309,SEARCHING,10.504,3.837,1.701,0.00,0.00,30.09,7.007,4.922,3.977,4.238,4.248,0,0,SEARCHING,0.000,0.800,-0.001,0.087
22:04:01.510,SEARCHING,10.614,3.902,1.701,0.00,0.00,30.90,7.034,4.881,3.825,4.237,4.277,0,0,SEARCHING,0.000,0.800,-0.003,0.095
22:04:01.711,SEARCHING,10.724,3.969,1.701,0.00,0.00,31.79,6.843,4.880,3.670,4.218,4.198,0,0,SEARCHING,0.000,0.800,0.001,0.101
22:04:01.912,SEARCHING,10.832,4.037,1.701,0.00,0.00,32.73,6.802,4.808,3.542,4.237,4.279,0,0,SEARCHING,0.000,0.800,-0.003,0.108
22:04:02.113,SEARCHING,10.939,4.107,1.700,0.00,0.00,33.73,6.862,4.707,3.438,4.273,4.238,0,0,SEARCHING,0.000,0.800,0.002,0.116
22:04:02.314,SEARCHING,11.045,4.179,1.701,0.00,0.00,34.82,6.748,4.589,3.378,4.243,4.240,0,0,SEARCHING,0.000,0.800,0.000,0.118
22:04:02.513,SEARCHING,11.150,4.253,1.701,0.00,0.00,35.90,6.730,4.490,3.325,4.315,4.260,0,0,SEARCHING,0.000,0.800,0.004,0.122
22:04:02.713,SEARCHING,11.253,4.329,1.702,0.00,0.00,37.03,6.854,4.487,3.319,4.287,4.238,0,0,SEARCHING,0.000,0.800,0.003,0.124
22:04:02.914,SEARCHING,11.354,4.407,1.702,0.00,0.00,38.14,7.038,4.543,3.357,4.298,4.245,0,0,SEARCHING,0.000,0.800,0.003,0.125
22:04:03.115,SEARCHING,11.454,4.487,1.703,0.00,0.00,39.29,6.963,4.524,3.371,4.255,4.252,0,0,SEARCHING,0.000,0.800,0.000,0.122
22:04:03.315,SEARCHING,11.552,4.569,1.703,0.00,0.00,40.40,7.118,4.576,3.383,4.296,4.238,0,0,SEARCHING,0.000,0.800,0.004,0.124
22:04:03.516,SEARCHING,11.649,4.652,1.704,0.00,0.00,41.52,7.023,4.576,3.412,4.242,4.261,0,0,SEARCHING,0.000,0.800,-0.001,0.121
22:04:03.716,SEARCHING,11.744,4.738,1.704,0.00,0.00,42.61,6.817,4.576,3.414,4.237,4.239,0,0,SEARCHING,0.000,0.800,-0.000,0.117
22:04:03.916,SEARCHING,11.838,4.826,1.703,0.00,0.00,43.67,6.519,4.531,3.402,4.235,4.237,0,0,SEARCHING,0.000,0.800,-0.000,0.112
22:04:04.117,SEARCHING,11.930,4.915,1.704,0.00,0.00,44.71,6.278,4.553,3.278,4.292,4.237,0,0,SEARCHING,0.000,0.800,0.004,0.117
22:04:04.318,SEARCHING,12.020,5.005,1.705,0.00,0.00,45.79,6.147,4.685,3.120,4.313,4.242,0,0,SEARCHING,0.000,0.800,0.005,0.126
22:04:04.518,SEARCHING,12.108,5.098,1.705,0.00,0.00,46.98,5.788,4.804,2.994,4.251,4.244,0,0,SEARCHING,0.000,0.800,0.000,0.129
22:04:04.719,SEARCHING,12.195,5.192,1.705,0.00,0.00,48.18,5.729,4.962,2.970,4.304,4.297,0,0,SEARCHING,0.000,0.800,0.000,0.130
22:04:04.920,SEARCHING,12.279,5.288,1.706,0.00,0.00,49.35,5.502,5.035,2.977,4.277,4.240,0,0,SEARCHING,0.000,0.800,0.002,0.123
22:04:05.120,SEARCHING,12.362,5.386,1.706,0.00,0.00,50.45,5.506,5.114,3.027,4.270,4.237,0,0,SEARCHING,0.000,0.800,0.002,0.119
22:04:05.320,SEARCHING,12.443,5.486,1.707,0.00,0.00,51.54,5.403,4.877,3.025,4.238,4.275,0,0,SEARCHING,0.000,0.800,-0.002,0.116
22:04:05.521,SEARCHING,12.521,5.587,1.706,0.00,0.00,52.57,5.096,4.752,3.089,4.277,4.219,0,0,SEARCHING,0.000,0.800,0.004,0.102
22:04:05.723,SEARCHING,12.598,5.689,1.707,0.00,0.00,53.54,5.250,4.694,3.084,4.315,4.237,0,0,SEARCHING,0.000,0.800,0.005,0.107
22:04:05.923,SEARCHING,12.674,5.792,1.708,0.00,0.00,54.56,5.351,4.628,3.014,4.358,4.239,0,0,SEARCHING,0.000,0.800,0.008,0.116
22:04:06.123,SEARCHING,12.747,5.897,1.709,0.00,0.00,55.61,5.165,4.741,3.021,4.282,4.240,0,0,SEARCHING,0.000,0.800,0.003,0.110
22:04:06.324,SEARCHING,12.819,6.003,1.710,0.00,0.00,56.54,4.572,4.718,3.101,4.200,4.240,0,0,SEARCHING,0.000,0.800,-0.003,0.083
22:04:06.524,SEARCHING,12.889,6.110,1.708,0.00,0.00,57.30,4.469,4.792,3.227,4.127,4.240,0,0,SEARCHING,0.000,0.800,-0.008,0.069
22:04:06.725,SEARCHING,12.957,6.219,1.705,0.00,0.00,57.87,4.101,4.271,3.327,4.055,4.237,0,0,SEARCHING,0.000,0.800,-0.013,0.045
22:04:06.925,SEARCHING,13.025,6.327,1.702,0.00,0.00,58.28,3.986,3.956,3.383,3.850,4.239,0,0,SEARCHING,0.000,0.800,-0.029,0.036
22:04:07.127,SEARCHING,13.092,6.436,1.697,0.00,0.00,58.56,3.696,3.813,3.381,3.853,4.247,0,0,SEARCHING,0.000,0.800,-0.029,0.020
22:04:07.326,SEARCHING,13.159,6.545,1.690,0.00,0.00,58.73,3.560,3.653,3.384,3.593,4.238,0,0,SEARCHING,0.000,0.800,-0.051,0.012
22:04:07.528,SEARCHING,13.225,6.655,1.681,0.00,0.00,58.81,3.447,3.486,3.385,3.521,4.213,0,0,SEARCHING,0.000,0.800,-0.056,0.004
22:04:07.728,SEARCHING,13.291,6.764,1.669,0.00,0.00,58.82,3.311,3.431,3.417,3.459,4.162,0,0,SEARCHING,0.000,0.800,-0.059,-0.008
22:04:07.928,SEARCHING,13.358,6.874,1.656,0.00,0.00,58.75,3.263,3.324,3.288,3.251,4.142,0,0,SEARCHING,0.000,0.800,-0.079,-0.002
22:04:08.129,SEARCHING,13.424,6.983,1.639,0.00,0.00,58.71,3.092,3.189,3.207,3.057,4.096,0,0,SEARCHING,0.000,0.800,-0.100,-0.009
22:04:08.330,SEARCHING,13.490,7.093,1.618,0.00,0.00,58.64,3.132,3.060,3.020,2.952,4.019,0,0,SEARCHING,0.000,0.800,-0.108,0.009
22:04:08.530,SEARCHING,13.557,7.202,1.596,0.00,0.00,59.02,5.187,2.876,2.890,2.819,3.947,0,0,SEARCHING,0.000,0.800,-0.122,0.123
22:04:08.733,SEARCHING,13.622,7.312,1.572,0.00,0.00,60.18,5.068,4.851,2.785,2.729,3.880,0,0,SEARCHING,0.000,0.800,-0.131,0.129
22:04:08.940,SEARCHING,13.684,7.424,1.545,0.00,0.00,61.39,5.585,5.073,2.660,2.590,3.773,0,0,SEARCHING,0.000,0.800,-0.145,0.158
22:04:09.143,SEARCHING,13.745,7.537,1.514,0.00,0.00,62.89,5.876,5.141,2.525,2.436,3.709,0,0,SEARCHING,0.000,0.800,-0.169,0.181
22:04:09.343,SEARCHING,13.801,7.652,1.479,0.00,0.00,64.55,6.060,4.953,2.678,2.330,3.677,0,0,SEARCHING,0.000,0.800,-0.189,0.167
22:04:09.543,SEARCHING,13.855,7.768,1.440,0.00,0.00,66.03,5.690,4.952,2.818,2.170,3.581,0,0,SEARCHING,0.000,0.800,-0.218,0.143
22:04:09.744,SEARCHING,13.906,7.885,1.395,0.00,0.00,67.31,5.466,4.833,2.999,2.014,3.422,0,0,SEARCHING,0.000,0.800,-0.245,0.120
22:04:09.944,SEARCHING,13.954,8.004,1.345,0.00,0.00,68.36,5.295,4.660,3.158,1.958,3.303,0,0,SEARCHING,0.000,0.800,-0.250,0.102
22:04:10.145,SEARCHING,14.001,8.123,1.294,0.00,0.00,69.24,5.115,4.565,3.329,1.912,3.224,0,0,SEARCHING,0.000,0.800,-0.255,0.084
22:04:12.056,SEARCHING,14.040,8.228,1.241,0.00,0.00,69.91,5.100,4.571,3.347,1.902,3.224,0,0,SEARCHING,0.000,0.800,-0.259,0.082
22:04:12.105,SEARCHING,14.067,8.303,1.192,0.00,0.00,70.38,5.037,4.486,3.519,1.982,3.117,0,0,SEARCHING,0.000,0.800,-0.221,0.069
22:04:12.279,SEARCHING,14.110,8.424,1.155,0.00,0.00,70.92,4.873,4.309,3.809,2.174,2.845,0,0,SEARCHING,0.000,0.800,-0.130,0.046
22:04:12.476,SEARCHING,14.151,8.545,1.130,0.00,0.00,71.33,4.781,4.169,3.876,2.275,2.768,0,0,SEARCHING,0.000,0.800,-0.094,0.039
22:04:12.676,SEARCHING,14.192,8.667,1.112,0.00,0.00,71.68,4.682,4.067,3.887,2.310,2.730,0,0,SEARCHING,0.000,0.800,-0.080,0.035
22:04:12.877,SEARCHING,14.232,8.788,1.097,0.00,0.00,72.00,4.600,3.975,3.822,2.347,2.693,0,0,SEARCHING,0.000,0.800,-0.066,0.035
22:04:13.078,SEARCHING,14.271,8.910,1.084,0.00,0.00,72.34,4.581,3.796,3.748,2.396,2.619,0,0,SEARCHING,0.000,0.800,-0.043,0.039
22:04:13.278,SEARCHING,14.309,9.032,1.077,0.00,0.00,72.69,4.526,3.705,3.681,2.414,2.649,0,0,SEARCHING,0.000,0.800,-0.044,0.041
22:04:13.480,SEARCHING,14.347,9.154,1.069,0.00,0.00,73.05,4.412,3.523,3.690,2.457,2.590,0,0,SEARCHING,0.000,0.800,-0.025,0.035
22:04:13.679,SEARCHING,14.384,9.277,1.064,0.00,0.00,73.36,4.333,3.419,3.774,2.326,2.599,0,0,SEARCHING,0.000,0.800,-0.054,0.027
22:04:13.880,SEARCHING,14.415,9.382,1.055,0.00,0.00,73.59,4.283,1.459,3.951,2.376,2.577,0,0,SEARCHING,0.000,0.766,-0.039,0.016
22:04:14.081,SEARCHING,14.433,9.442,1.049,0.00,0.00,74.35,4.223,2.426,3.843,2.325,2.574,0,0,INSPECT_LEFT,0.000,0.100,0.000,0.600
22:04:14.281,SEARCHING,14.467,9.566,1.042,0.00,0.00,74.65,4.165,2.879,3.249,2.379,2.556,0,0,SEARCHING,0.000,0.800,-0.035,0.054
22:04:14.482,SEARCHING,14.501,9.689,1.047,0.00,0.00,75.17,4.079,2.991,2.987,3.041,2.543,0,0,SEARCHING,0.000,0.800,0.077,0.072
22:04:14.682,SEARCHING,14.533,9.813,1.061,0.00,0.00,75.79,3.901,2.896,3.025,2.898,2.556,0,0,SEARCHING,0.000,0.800,0.055,0.059
22:04:14.884,SEARCHING,14.564,9.937,1.070,0.00,0.00,76.36,3.853,2.786,2.870,2.776,2.599,0,0,SEARCHING,0.000,0.800,0.029,0.071
22:04:15.086,SEARCHING,14.593,10.062,1.075,0.00,0.00,77.06,3.756,2.729,2.669,2.728,2.622,0,0,SEARCHING,0.000,0.800,0.018,0.087
22:04:15.285,SEARCHING,14.621,10.187,1.078,0.00,0.00,77.88,3.685,2.590,2.542,2.621,2.589,0,0,SEARCHING,0.000,0.800,0.006,0.098
22:04:15.487,SEARCHING,14.647,10.312,1.078,0.00,0.00,78.85,3.583,2.472,2.319,2.500,2.509,0,0,SEARCHING,0.000,0.800,-0.002,0.122
22:04:15.687,SEARCHING,14.671,10.438,1.077,0.00,0.00,79.98,3.473,2.374,2.254,2.328,2.347,0,0,SEARCHING,0.000,0.800,-0.004,0.125
22:04:15.889,SEARCHING,14.692,10.564,1.075,0.00,0.00,81.18,3.349,2.399,1.993,2.245,2.350,0,0,SEARCHING,0.000,0.800,-0.024,0.163
22:04:16.089,SEARCHING,14.710,10.691,1.071,0.00,0.00,82.69,3.232,5.358,1.930,2.229,2.518,0,0,SEARCHING,0.000,0.800,-0.062,0.167
22:04:16.289,SEARCHING,14.725,10.818,1.056,0.00,0.00,84.27,3.081,5.043,1.815,2.138,2.581,0,0,SEARCHING,0.000,0.800,-0.096,0.181
22:04:16.490,SEARCHING,14.736,10.945,1.035,0.00,0.00,85.97,2.954,4.787,1.730,2.038,2.548,0,0,SEARCHING,0.000,0.800,-0.118,0.192
22:04:16.693,SEARCHING,14.743,11.073,1.011,0.00,0.00,87.75,2.846,4.431,1.624,1.966,2.492,0,0,SEARCHING,0.000,0.800,-0.129,0.212
22:04:16.892,SEARCHING,14.746,11.201,0.984,0.00,0.00,89.84,2.712,4.039,1.517,1.926,2.375,0,0,SEARCHING,0.000,0.800,-0.118,0.232
22:04:17.093,SEARCHING,14.745,11.329,0.961,0.00,0.00,92.03,2.601,3.741,4.223,1.897,2.360,0,0,SEARCHING,0.000,0.800,-0.124,-0.118
22:04:17.294,SEARCHING,14.741,11.457,0.937,0.00,0.00,90.71,2.499,3.634,5.704,1.882,2.273,0,0,SEARCHING,0.000,0.800,-0.110,-0.180
22:04:17.494,SEARCHING,14.741,11.585,0.917,0.00,0.00,89.03,2.458,3.654,5.816,1.936,2.225,0,0,SEARCHING,0.000,0.800,-0.081,-0.188
22:04:17.694,SEARCHING,14.745,11.713,0.902,0.00,0.00,87.30,2.444,3.743,5.912,1.981,2.178,0,0,SEARCHING,0.000,0.800,-0.055,-0.192
22:04:17.896,SEARCHING,14.753,11.841,0.892,0.00,0.00,85.53,2.451,3.900,6.031,1.997,2.159,0,0,SEARCHING,0.000,0.800,-0.045,-0.194
22:04:18.096,SEARCHING,14.765,11.968,0.885,0.00,0.00,83.76,2.482,4.060,6.182,2.053,2.127,0,0,SEARCHING,0.000,0.800,-0.020,-0.193
22:04:18.297,SEARCHING,14.780,12.095,0.881,0.00,0.00,81.99,2.494,4.220,6.340,2.070,2.137,0,0,SEARCHING,0.000,0.800,-0.018,-0.195
22:04:18.497,SEARCHING,14.800,12.222,0.878,0.00,0.00,80.20,2.538,4.356,6.532,2.057,2.121,0,0,SEARCHING,0.000,0.800,-0.018,-0.193
22:04:18.699,SEARCHING,14.823,12.348,0.874,0.00,0.00,78.44,2.564,4.597,6.772,2.090,2.135,0,0,SEARCHING,0.000,0.800,-0.012,-0.194
22:04:18.899,SEARCHING,14.851,12.473,0.871,0.00,0.00,76.70,2.610,4.612,6.534,2.052,2.096,0,0,SEARCHING,0.000,0.800,-0.012,-0.184
22:04:19.100,SEARCHING,14.882,12.597,0.868,0.00,0.00,75.04,2.678,4.486,6.440,1.965,2.098,0,0,SEARCHING,0.000,0.800,-0.039,-0.175
22:04:19.301,SEARCHING,14.916,12.720,0.860,0.00,0.00,73.47,2.780,4.375,6.351,2.056,2.088,0,0,SEARCHING,0.000,0.800,-0.009,-0.162
22:04:19.502,SEARCHING,14.954,12.842,0.858,0.00,0.00,72.00,2.889,4.455,6.458,2.040,2.075,0,0,SEARCHING,0.000,0.800,-0.010,-0.153
22:04:19.702,SEARCHING,14.995,12.964,0.855,0.00,0.00,70.60,2.955,4.478,6.433,3.844,2.080,0,0,SEARCHING,0.000,0.800,0.265,-0.146
22:04:19.904,SEARCHING,15.039,13.084,0.913,0.00,0.00,69.28,3.031,4.565,6.615,3.826,2.183,0,0,SEARCHING,0.000,0.800,0.236,-0.143
22:04:20.103,SEARCHING,15.085,13.203,0.958,0.00,0.00,67.98,3.110,4.575,6.934,4.476,2.275,0,0,SEARCHING,0.000,0.800,0.259,-0.142
22:04:20.305,SEARCHING,15.134,13.321,1.009,0.00,0.00,66.65,3.224,4.660,7.454,4.627,2.462,0,0,SEARCHING,0.000,0.800,0.228,-0.141
22:04:20.504,SEARCHING,15.186,13.438,1.053,0.00,0.00,65.37,3.300,4.730,7.563,4.669,2.562,0,0,SEARCHING,0.000,0.800,0.211,-0.137
22:04:20.705,SEARCHING,15.241,13.554,1.095,0.00,0.00,64.10,3.180,4.866,7.388,4.813,2.675,0,0,SEARCHING,0.000,0.800,0.199,-0.143
22:04:20.906,SEARCHING,15.298,13.669,1.134,0.00,0.00,62.78,3.081,5.103,7.057,4.960,2.780,0,0,SEARCHING,0.000,0.800,0.190,-0.146
22:04:21.106,SEARCHING,15.358,13.782,1.171,0.00,0.00,61.44,3.036,5.753,6.648,4.925,2.887,0,0,SEARCHING,0.000,0.800,0.172,-0.143
22:04:21.308,SEARCHING,15.420,13.894,1.204,0.00,0.00,60.14,3.058,5.865,6.415,4.892,2.980,0,0,SEARCHING,0.000,0.800,0.157,-0.137
22:04:21.508,SEARCHING,15.485,14.004,1.235,0.00,0.00,58.88,3.087,6.060,6.363,4.756,3.045,0,0,SEARCHING,0.000,0.800,0.142,-0.133
22:04:21.709,SEARCHING,15.552,14.113,1.264,0.00,0.00,57.67,3.129,6.364,6.192,4.888,3.121,0,0,SEARCHING,0.000,0.800,0.139,-0.126
22:04:21.909,SEARCHING,15.621,14.221,1.291,0.00,0.00,56.54,3.092,7.286,5.899,4.815,3.197,0,0,SEARCHING,0.000,0.800,0.126,-0.123
22:04:22.109,SEARCHING,15.693,14.327,1.316,0.00,0.00,55.46,3.127,8.314,5.571,4.836,3.257,0,0,SEARCHING,0.000,0.800,0.120,-0.112
22:04:22.306,SEARCHING,15.766,14.432,1.339,0.00,0.00,54.47,3.187,9.052,5.131,4.782,3.304,0,0,SEARCHING,0.000,0.800,0.112,-0.095
22:04:22.506,SEARCHING,15.841,14.535,1.361,0.00,0.00,53.60,3.190,9.252,5.006,4.713,3.352,0,0,SEARCHING,0.000,0.800,0.103,-0.091
22:04:22.706,SEARCHING,15.918,14.638,1.382,0.00,0.00,52.78,3.240,9.202,4.948,4.566,3.365,0,0,SEARCHING,0.000,0.800,0.094,-0.085
22:04:22.907,SEARCHING,15.996,14.739,1.400,0.00,0.00,52.06,3.395,9.223,4.726,4.506,3.452,0,0,SEARCHING,0.000,0.800,0.081,-0.066
22:04:23.109,SEARCHING,16.075,14.840,1.417,0.00,0.00,51.47,3.664,8.787,4.671,4.495,3.457,0,0,SEARCHING,0.000,0.800,0.080,-0.047
22:04:23.309,SEARCHING,16.155,14.940,1.432,0.00,0.00,51.12,3.893,8.681,4.532,4.487,3.521,0,0,SEARCHING,0.000,0.800,0.073,-0.029
22:04:23.509,SEARCHING,16.235,15.039,1.447,0.00,0.00,50.85,3.897,8.438,4.610,4.488,3.521,0,0,SEARCHING,0.000,0.800,0.073,-0.032
22:04:23.709,SEARCHING,16.316,15.138,1.462,0.00,0.00,50.56,3.821,8.484,4.510,4.572,3.623,0,0,SEARCHING,0.000,0.800,0.069,-0.032
22:04:23.911,SEARCHING,16.398,15.237,1.475,0.00,0.00,50.25,3.834,8.319,4.537,4.554,3.649,0,0,SEARCHING,0.000,0.800,0.065,-0.032
22:04:24.111,SEARCHING,16.480,15.335,1.487,0.00,0.00,49.95,3.844,8.189,4.576,4.545,3.689,0,0,SEARCHING,0.000,0.800,0.061,-0.033
22:04:24.312,SEARCHING,16.563,15.433,1.499,0.00,0.00,49.66,3.829,7.996,4.576,4.488,3.745,0,0,SEARCHING,0.000,0.800,0.053,-0.034
22:04:24.512,SEARCHING,16.646,15.531,1.510,0.00,0.00,49.36,3.876,7.746,4.560,4.443,3.690,0,0,SEARCHING,0.000,0.800,0.055,-0.031
22:04:24.713,SEARCHING,16.729,15.627,1.521,0.00,0.00,49.08,3.908,7.633,4.488,4.485,3.751,0,0,SEARCHING,0.000,0.800,0.052,-0.026
22:04:24.914,SEARCHING,16.813,15.724,1.531,0.00,0.00,48.82,3.917,7.385,4.443,4.443,3.744,0,0,SEARCHING,0.000,0.800,0.050,-0.024
22:04:25.121,SEARCHING,16.898,15.820,1.541,0.00,0.00,48.61,3.900,7.280,4.349,4.401,3.770,0,0,SEARCHING,0.000,0.800,0.046,-0.021
22:04:25.320,SEARCHING,16.983,15.916,1.549,0.00,0.00,48.44,3.956,7.153,4.313,4.400,3.874,0,0,SEARCHING,0.000,0.800,0.037,-0.017
22:04:25.521,SEARCHING,17.068,16.012,1.557,0.00,0.00,48.32,3.944,7.056,4.165,4.403,3.876,0,0,SEARCHING,0.000,0.800,0.037,-0.011
22:04:25.721,SEARCHING,17.153,16.107,1.564,0.00,0.00,48.22,3.904,6.980,4.123,4.399,3.928,0,0,SEARCHING,0.000,0.800,0.033,-0.011
22:04:25.922,SEARCHING,17.238,16.203,1.571,0.00,0.00,48.15,3.962,6.935,4.018,4.359,3.879,0,0,SEARCHING,0.000,0.800,0.034,-0.003
22:04:26.122,SEARCHING,17.324,16.298,1.578,0.00,0.00,48.14,3.984,6.921,3.914,4.358,3.928,0,0,SEARCHING,0.000,0.800,0.030,0.004
22:04:26.325,SEARCHING,17.409,16.393,1.584,0.00,0.00,48.20,4.167,6.733,3.864,4.412,3.916,0,0,SEARCHING,0.000,0.800,0.034,0.015
22:04:26.524,SEARCHING,17.494,16.489,1.590,0.00,0.00,48.34,4.348,6.730,3.830,4.401,3.964,0,0,SEARCHING,0.000,0.800,0.030,0.025
22:04:26.724,SEARCHING,17.579,16.585,1.597,0.00,0.00,48.58,4.394,6.658,3.826,4.338,3.963,0,0,SEARCHING,0.000,0.800,0.026,0.027
22:04:26.925,SEARCHING,17.664,16.681,1.602,0.00,0.00,48.85,4.476,6.627,3.849,4.397,4.014,0,0,SEARCHING,0.000,0.800,0.026,0.029
22:04:27.126,SEARCHING,17.748,16.777,1.607,0.00,0.00,49.14,4.611,6.563,3.814,4.359,4.012,0,0,SEARCHING,0.000,0.800,0.024,0.036
22:04:27.326,SEARCHING,17.831,16.875,1.612,0.00,0.00,49.49,4.593,6.538,3.822,4.400,4.014,0,0,SEARCHING,0.000,0.800,0.026,0.035
22:04:27.527,SEARCHING,17.914,16.972,1.617,0.00,0.00,49.81,4.582,6.431,3.852,4.400,4.073,0,0,SEARCHING,0.000,0.800,0.022,0.033
22:04:27.728,SEARCHING,17.996,17.070,1.621,0.00,0.00,50.10,4.576,6.176,3.870,4.396,4.050,0,0,SEARCHING,0.000,0.800,0.023,0.032
22:04:27.928,SEARCHING,18.078,17.168,1.625,0.00,0.00,50.39,4.575,5.965,3.821,4.319,4.083,0,0,SEARCHING,0.000,0.800,0.016,0.035
22:04:28.128,SEARCHING,18.160,17.267,1.628,0.00,0.00,50.71,4.576,5.959,3.866,4.280,4.059,0,0,SEARCHING,0.000,0.800,0.015,0.032
22:04:28.329,SEARCHING,18.240,17.366,1.632,0.00,0.00,51.01,4.531,5.907,3.807,4.388,4.063,0,0,SEARCHING,0.000,0.800,0.022,0.034
22:04:28.530,SEARCHING,18.321,17.466,1.637,0.00,0.00,51.34,4.542,5.695,3.715,4.357,4.072,0,0,SEARCHING,0.000,0.800,0.019,0.039
22:04:28.730,SEARCHING,18.400,17.566,1.640,0.00,0.00,51.69,4.493,5.642,3.728,4.356,4.088,0,0,SEARCHING,0.000,0.800,0.018,0.037
22:04:28.930,SEARCHING,18.480,17.667,1.644,0.00,0.00,52.02,4.461,5.518,3.690,4.327,4.105,0,0,SEARCHING,0.000,0.800,0.015,0.037
22:04:29.130,SEARCHING,18.558,17.768,1.647,0.00,0.00,52.37,4.364,5.310,3.685,4.319,4.089,0,0,SEARCHING,0.000,0.800,0.016,0.034
22:04:29.332,SEARCHING,18.636,17.870,1.650,0.00,0.00,52.68,4.313,5.157,3.639,4.338,4.119,0,0,SEARCHING,0.000,0.800,0.015,0.034
22:04:29.532,SEARCHING,18.713,17.972,1.653,0.00,0.00,52.99,4.315,4.995,3.618,4.329,4.149,0,0,SEARCHING,0.000,0.800,0.012,0.036
22:04:29.732,SEARCHING,18.790,18.074,1.655,0.00,0.00,53.31,4.250,4.894,3.661,4.342,4.160,0,0,SEARCHING,0.000,0.800,0.012,0.030
22:04:29.933,SEARCHING,18.866,18.177,1.658,0.00,0.00,53.58,4.167,4.805,3.632,4.319,4.160,0,0,SEARCHING,0.000,0.800,0.011,0.028
22:04:30.134,SEARCHING,18.942,18.280,1.660,0.00,0.00,53.85,4.192,4.695,3.618,4.323,4.160,0,0,SEARCHING,0.000,0.800,0.011,0.030
22:04:30.335,SEARCHING,19.017,18.383,1.665,0.00,0.00,54.11,4.235,4.538,3.645,4.319,4.140,0,0,SEARCHING,0.000,0.800,0.012,0.031
22:04:30.535,SEARCHING,19.092,18.487,1.667,0.00,0.00,54.38,4.186,4.487,3.636,4.317,4.160,0,0,SEARCHING,0.000,0.800,0.011,0.029
22:04:30.735,SEARCHING,19.167,18.592,1.669,0.00,0.00,54.67,4.212,4.365,3.569,4.247,4.160,0,0,SEARCHING,0.000,0.800,0.006,0.034
22:04:30.936,SEARCHING,19.240,18.696,1.670,0.00,0.00,54.96,4.148,4.242,3.575,4.199,4.164,0,0,SEARCHING,0.000,0.800,0.002,0.031
22:04:31.136,SEARCHING,19.314,18.801,1.670,0.00,0.00,55.24,4.121,4.078,3.575,4.022,4.160,0,0,SEARCHING,0.000,0.800,-0.010,0.030
22:04:31.337,SEARCHING,19.386,18.906,1.669,0.00,0.00,55.51,4.082,3.923,3.597,3.914,4.053,0,0,SEARCHING,0.000,0.800,-0.010,0.026
22:04:31.538,SEARCHING,19.459,19.012,1.667,0.00,0.00,55.75,4.074,3.690,3.555,3.829,3.868,0,0,SEARCHING,0.000,0.800,-0.003,0.029
22:04:31.739,SEARCHING,19.530,19.118,1.666,0.00,0.00,56.02,4.012,3.545,3.565,3.672,3.704,0,0,SEARCHING,0.000,0.800,-0.003,0.025
22:04:31.939,SEARCHING,19.602,19.224,1.665,0.00,0.00,56.23,3.957,3.550,3.575,3.585,3.613,0,0,SEARCHING,0.000,0.800,-0.003,0.022
22:04:32.139,SEARCHING,19.673,19.331,1.664,0.00,0.00,56.44,3.950,3.436,3.572,3.444,3.498,0,0,SEARCHING,0.000,0.800,-0.005,0.021
22:04:32.340,SEARCHING,19.743,19.437,1.663,0.00,0.00,56.64,3.906,3.308,3.625,3.369,3.429,0,0,SEARCHING,0.000,0.800,-0.006,0.016
22:04:32.541,SEARCHING,19.814,19.544,1.662,0.00,0.00,56.77,3.879,3.193,3.632,3.235,3.256,0,0,SEARCHING,0.000,0.800,-0.002,0.014
22:04:32.741,SEARCHING,19.884,19.652,1.662,0.00,0.00,56.91,3.879,3.080,3.581,3.106,3.117,0,0,SEARCHING,0.000,0.800,-0.001,0.017
22:04:32.942,SEARCHING,19.953,19.759,1.661,0.00,0.00,57.07,3.867,2.997,3.614,3.013,3.029,0,0,SEARCHING,0.000,0.800,-0.002,0.014
22:04:33.142,SEARCHING,20.023,19.866,1.661,0.00,0.00,57.22,3.940,2.816,3.535,2.822,2.858,0,0,SEARCHING,0.000,0.800,-0.005,0.023
22:04:33.342,SEARCHING,20.092,19.974,1.660,0.00,0.00,57.42,3.920,2.733,3.527,2.743,2.746,0,0,SEARCHING,0.000,0.800,-0.001,0.023
22:04:33.544,SEARCHING,20.161,20.082,1.660,0.00,0.00,57.64,3.945,2.621,3.520,2.650,2.659,0,0,SEARCHING,0.000,0.800,-0.002,0.024
22:04:33.743,SEARCHING,20.229,20.190,1.659,0.00,0.00,57.86,3.921,2.450,3.509,2.484,2.499,0,0,SEARCHING,0.000,0.800,-0.003,0.024
22:04:33.944,SEARCHING,20.297,20.299,1.659,0.00,0.00,58.07,3.879,2.326,3.513,2.355,2.349,0,0,SEARCHING,0.000,0.800,0.001,0.021
22:04:34.146,SEARCHING,20.365,20.408,1.659,0.00,0.00,58.27,3.928,2.238,3.481,2.252,2.252,0,0,SEARCHING,0.000,0.800,0.000,0.026
22:04:34.346,SEARCHING,20.432,20.517,1.659,0.00,0.00,58.50,3.879,2.096,3.510,2.101,2.103,0,0,SEARCHING,0.000,0.800,-0.001,0.022
22:04:34.546,SEARCHING,20.498,20.626,1.659,0.00,0.00,58.70,3.837,1.987,3.477,2.001,1.990,0,0,SEARCHING,0.000,0.800,0.003,0.022
22:04:34.744,SEARCHING,20.565,20.735,1.659,0.00,0.00,58.89,3.817,1.843,3.480,1.843,1.844,0,0,SEARCHING,0.000,0.800,-0.000,0.020
22:04:34.943,SEARCHING,20.631,20.845,1.660,0.00,0.00,59.07,3.835,1.748,3.571,1.749,1.748,0,0,SEARCHING,0.000,0.800,0.001,0.015
22:04:35.146,SEARCHING,20.696,20.955,1.660,0.00,0.00,59.22,3.832,1.619,3.517,1.629,1.619,0,0,SEARCHING,0.000,0.799,0.005,0.019
22:04:35.345,SEARCHING,20.760,21.061,1.661,0.00,0.00,59.39,3.816,1.491,3.474,1.488,1.489,0,0,SEARCHING,0.000,0.713,-0.000,0.021
22:04:35.545,SEARCHING,20.813,21.151,1.661,0.00,0.00,59.29,2.079,1.377,3.510,1.374,1.376,0,0,SEARCHING,0.000,0.460,-0.001,-0.157
22:04:35.746,SEARCHING,20.848,21.208,1.661,0.00,0.00,57.31,1.437,1.285,3.375,1.285,1.286,0,0,SEARCHING,0.000,0.346,-0.001,-0.320
22:04:35.947,SEARCHING,20.878,21.253,1.661,0.00,0.00,54.24,1.287,1.215,3.150,1.214,1.212,0,0,SEARCHING,0.000,0.302,0.002,-0.368
22:04:36.149,SEARCHING,20.906,21.290,1.662,0.00,0.00,50.83,1.193,1.163,2.883,1.164,1.161,0,0,SEARCHING,0.000,0.273,0.003,-0.393
22:04:36.347,SEARCHING,20.934,21.323,1.662,0.00,0.00,47.14,1.102,1.138,2.646,1.126,1.146,0,0,SEARCHING,0.000,0.256,-0.018,-0.423
22:04:36.548,SEARCHING,20.964,21.353,1.661,0.00,0.00,43.25,1.047,1.260,2.456,1.278,1.286,0,0,SEARCHING,0.000,0.297,-0.006,-0.438
22:04:36.748,SEARCHING,21.030,21.410,1.615,0.00,0.00,39.17,0.964,3.388,2.286,2.410,3.383,0,0,SEARCHING,0.000,0.800,-0.143,-0.480
22:04:36.949,SEARCHING,21.132,21.488,1.602,0.00,0.00,34.53,0.849,3.112,2.147,3.102,3.096,0,0,SEARCHING,0.000,0.800,0.001,-0.570
22:04:37.150,SEARCHING,21.240,21.556,1.602,0.00,0.00,29.67,0.941,2.689,1.968,2.695,2.692,0,0,SEARCHING,0.000,0.800,0.000,-0.444
22:04:37.350,SEARCHING,21.353,21.617,1.602,0.00,0.00,28.71,4.202,2.372,1.806,2.373,2.400,0,0,SEARCHING,0.000,0.800,-0.006,0.253
22:04:37.552,SEARCHING,21.464,21.681,1.602,0.00,0.00,31.07,4.545,2.382,1.782,2.404,2.384,0,0,SEARCHING,0.000,0.800,0.004,0.273
22:04:37.752,SEARCHING,21.572,21.749,1.602,0.00,0.00,33.60,4.700,2.392,1.744,2.384,2.405,0,0,SEARCHING,0.000,0.800,-0.005,0.288
22:04:37.951,SEARCHING,21.677,21.822,1.601,0.00,0.00,36.34,5.084,2.483,1.677,2.459,2.455,0,0,SEARCHING,0.000,0.800,0.001,0.320
22:04:38.154,SEARCHING,21.778,21.900,1.601,0.00,0.00,39.32,5.567,2.537,1.660,2.527,2.535,0,0,SEARCHING,0.000,0.800,-0.001,0.338
22:04:38.353,SEARCHING,21.876,21.983,1.601,0.00,0.00,42.40,5.581,2.682,1.706,2.677,2.686,0,0,SEARCHING,0.000,0.800,-0.001,0.326
22:04:38.556,SEARCHING,21.968,22.072,1.601,0.00,0.00,45.38,5.548,2.941,1.715,2.971,2.978,0,0,SEARCHING,0.000,0.800,-0.001,0.322
22:04:38.757,SEARCHING,22.056,22.165,1.601,0.00,0.00,48.31,5.514,3.490,1.790,3.540,3.560,0,0,SEARCHING,0.000,0.800,-0.002,0.302
22:04:38.957,SEARCHING,22.139,22.262,1.601,0.00,0.00,51.06,5.491,3.739,1.835,3.820,3.741,0,0,SEARCHING,0.000,0.800,0.007,0.290
22:04:39.158,SEARCHING,22.217,22.363,1.602,0.00,0.00,53.67,5.449,4.220,1.904,4.200,3.972,0,0,SEARCHING,0.000,0.800,0.016,0.273
22:04:39.358,SEARCHING,22.291,22.468,1.606,0.00,0.00,56.13,5.369,4.687,2.002,4.464,4.013,0,0,SEARCHING,0.000,0.800,0.030,0.251
22:04:39.558,SEARCHING,22.361,22.575,1.613,0.00,0.00,58.39,5.095,4.942,2.228,4.486,4.008,0,0,SEARCHING,0.000,0.800,0.032,0.202
22:04:39.759,SEARCHING,22.426,22.685,1.619,0.00,0.00,60.04,4.825,4.908,2.626,4.441,4.059,0,0,SEARCHING,0.000,0.800,0.025,0.139
22:04:39.959,SEARCHING,22.489,22.797,1.624,0.00,0.00,61.28,4.771,4.818,2.717,4.437,4.081,0,0,SEARCHING,0.000,0.800,0.024,0.127
22:04:40.160,SEARCHING,22.550,22.910,1.629,0.00,0.00,62.42,4.584,4.683,2.753,4.413,4.086,0,0,SEARCHING,0.000,0.800,0.022,0.116
22:04:40.360,SEARCHING,22.608,23.024,1.633,0.00,0.00,63.46,4.505,4.588,2.835,4.401,4.086,0,0,SEARCHING,0.000,0.800,0.021,0.105
22:04:40.566,SEARCHING,22.664,23.139,1.637,0.00,0.00,64.40,4.407,4.492,2.919,4.400,4.085,0,0,SEARCHING,0.000,0.800,0.021,0.093
22:04:40.765,SEARCHING,22.719,23.254,1.642,0.00,0.00,65.21,4.314,4.362,3.018,4.362,4.141,0,0,SEARCHING,0.000,0.800,0.015,0.080
22:04:40.964,SEARCHING,22.772,23.371,1.644,0.00,0.00,65.91,4.164,4.278,3.177,4.253,4.089,0,0,SEARCHING,0.000,0.800,0.011,0.060
22:04:41.165,SEARCHING,22.824,23.488,1.647,0.00,0.00,66.43,4.087,4.238,3.216,4.238,4.091,0,0,SEARCHING,0.000,0.800,0.010,0.053
22:04:41.366,SEARCHING,22.875,23.605,1.649,0.00,0.00,66.87,3.975,4.106,3.322,4.106,4.060,0,0,SEARCHING,0.000,0.800,0.003,0.040
22:04:41.566,SEARCHING,22.925,23.723,1.649,0.00,0.00,67.21,3.810,4.002,3.356,3.985,3.954,0,0,SEARCHING,0.000,0.800,0.002,0.028
22:04:41.767,SEARCHING,22.974,23.841,1.649,0.00,0.00,67.47,3.753,3.883,3.307,3.883,3.849,0,0,SEARCHING,0.000,0.800,0.003,0.029
22:04:41.969,SEARCHING,23.023,23.960,1.650,0.00,0.00,67.73,3.667,3.768,3.279,3.785,3.783,0,0,SEARCHING,0.000,0.800,0.000,0.026
22:04:42.169,SEARCHING,23.071,24.078,1.650,0.00,0.00,67.96,3.621,3.663,3.242,3.649,3.666,0,0,SEARCHING,0.000,0.800,-0.001,0.026
22:04:42.368,SEARCHING,23.119,24.197,1.650,0.00,0.00,68.21,3.536,3.552,3.120,3.552,3.550,0,0,SEARCHING,0.000,0.800,0.000,0.030
22:04:42.569,SEARCHING,23.166,24.316,1.650,0.00,0.00,68.50,3.448,3.445,3.024,3.445,3.432,0,0,SEARCHING,0.000,0.800,0.001,0.033
22:04:42.771,SEARCHING,23.213,24.435,1.650,0.00,0.00,68.81,3.389,3.324,2.921,3.324,3.308,0,0,SEARCHING,0.000,0.800,0.002,0.038
22:04:42.971,SEARCHING,23.259,24.555,1.651,0.00,0.00,69.17,3.323,3.207,2.814,3.207,3.187,0,0,SEARCHING,0.000,0.800,0.002,0.044
22:04:43.176,SEARCHING,23.304,24.674,1.651,0.00,0.00,69.57,3.249,3.079,2.719,3.077,3.077,0,0,SEARCHING,0.000,0.800,-0.000,0.048
22:04:43.374,SEARCHING,23.348,24.794,1.651,0.00,0.00,70.03,3.173,2.950,2.621,2.949,2.978,0,0,SEARCHING,0.000,0.800,-0.004,0.053
22:04:43.574,SEARCHING,23.391,24.915,1.650,0.00,0.00,70.52,3.095,2.872,2.507,2.867,2.872,0,0,SEARCHING,0.000,0.800,-0.001,0.061
22:04:43.775,SEARCHING,23.433,25.036,1.650,0.00,0.00,71.09,3.014,2.779,2.402,2.779,2.779,0,0,SEARCHING,0.000,0.800,-0.000,0.068
22:04:43.976,SEARCHING,23.474,25.157,1.650,0.00,0.00,71.71,2.917,2.678,2.316,2.680,2.667,0,0,SEARCHING,0.000,0.800,0.002,0.071
22:04:44.176,SEARCHING,23.514,25.279,1.651,0.00,0.00,72.39,2.847,2.549,2.216,2.556,2.562,0,0,SEARCHING,0.000,0.800,-0.001,0.080
22:04:44.376,SEARCHING,23.552,25.401,1.650,0.00,0.00,73.15,2.762,2.415,2.099,2.431,2.446,0,0,SEARCHING,0.000,0.800,-0.003,0.091
22:04:44.577,SEARCHING,23.588,25.524,1.650,0.00,0.00,74.00,2.675,2.349,2.020,2.351,2.344,0,0,SEARCHING,0.000,0.800,0.002,0.097
22:04:44.777,SEARCHING,23.623,25.647,1.650,0.00,0.00,74.89,2.546,2.254,1.923,2.253,2.243,0,0,SEARCHING,0.000,0.800,0.002,0.102
22:04:44.977,SEARCHING,23.655,25.771,1.650,0.00,0.00,75.84,2.444,2.136,1.822,2.142,2.138,0,0,SEARCHING,0.000,0.800,0.001,0.112
22:04:45.178,SEARCHING,23.686,25.895,1.651,0.00,0.00,76.90,2.357,2.042,1.727,2.042,2.055,0,0,SEARCHING,0.000,0.784,-0.004,0.124
22:04:45.379,SEARCHING,23.712,26.015,1.650,0.00,0.00,78.07,2.261,1.968,1.629,1.960,1.961,0,0,SEARCHING,0.000,0.722,-0.000,0.137
22:04:45.579,SEARCHING,23.735,26.125,1.651,0.00,0.00,79.34,2.173,1.871,1.560,1.870,1.861,0,0,SEARCHING,0.000,0.654,0.003,0.145
22:04:45.780,SEARCHING,23.752,26.226,1.651,0.00,0.00,80.69,2.094,1.798,1.485,1.798,1.798,0,0,SEARCHING,0.000,0.602,0.000,0.157
22:04:45.980,SEARCHING,23.767,26.320,1.651,0.00,0.00,82.15,2.014,1.733,1.424,1.730,1.730,0,0,SEARCHING,0.000,0.559,0.000,0.165
22:04:46.180,SEARCHING,23.778,26.407,1.651,0.00,0.00,83.67,1.935,1.682,1.366,1.681,1.670,0,0,SEARCHING,0.000,0.524,0.005,0.172
22:04:46.381,SEARCHING,23.786,26.489,1.652,0.00,0.00,85.26,1.838,1.629,1.304,1.626,1.627,0,0,SEARCHING,0.000,0.489,-0.000,0.179
22:04:46.582,SEARCHING,23.791,26.566,1.651,0.00,0.00,86.89,1.772,1.579,1.273,1.590,1.596,0,0,SEARCHING,0.000,0.461,-0.002,0.177
22:04:46.783,SEARCHING,23.794,26.639,1.651,0.00,0.00,88.53,1.717,1.559,1.228,1.563,1.563,0,0,SEARCHING,0.000,0.446,-0.000,0.186
22:04:46.983,SEARCHING,23.795,26.709,1.651,0.00,0.00,90.23,1.641,1.531,1.200,1.531,1.534,0,0,SEARCHING,0.000,0.429,-0.001,0.179
22:04:47.184,SEARCHING,23.794,26.778,1.651,0.00,0.00,91.85,1.576,1.511,1.167,1.504,1.511,0,0,SEARCHING,0.000,0.416,-0.004,0.178
22:04:47.384,SEARCHING,23.791,26.843,1.650,0.00,0.00,93.49,1.524,1.478,1.137,1.481,1.483,0,0,SEARCHING,0.000,0.398,-0.001,0.179
22:04:47.585,SEARCHING,23.787,26.906,1.650,0.00,0.00,95.11,1.460,1.467,1.110,1.473,1.463,0,0,SEARCHING,0.000,0.389,0.005,0.173
22:04:47.785,SEARCHING,23.780,26.968,1.651,0.00,0.00,96.68,1.412,1.462,1.086,1.458,1.458,0,0,SEARCHING,0.000,0.385,0.000,0.170
22:04:47.988,SEARCHING,23.772,27.029,1.651,0.00,0.00,98.25,1.357,1.452,1.072,1.453,1.450,0,0,SEARCHING,0.000,0.379,0.001,0.157
22:04:48.187,SEARCHING,23.763,27.088,1.651,0.00,0.00,99.68,1.308,1.448,1.044,1.433,1.444,0,0,SEARCHING,0.000,0.374,-0.006,0.154
22:04:48.387,SEARCHING,23.753,27.147,1.650,0.00,0.00,101.08,1.263,1.427,1.031,1.428,1.426,0,0,SEARCHING,0.000,0.363,0.001,0.143
22:04:48.588,SEARCHING,23.741,27.203,1.651,0.00,0.00,102.37,1.211,1.406,1.010,1.417,1.413,0,0,SEARCHING,0.000,0.352,0.003,0.132
22:04:48.789,SEARCHING,23.728,27.258,1.651,0.00,0.00,103.55,1.173,1.389,0.991,1.392,1.394,0,0,SEARCHING,0.000,0.343,-0.001,0.125
22:04:48.988,SEARCHING,23.715,27.310,1.650,0.00,0.00,104.67,1.123,1.324,0.975,1.324,1.326,0,0,SEARCHING,0.000,0.315,-0.002,0.108
22:04:49.189,SEARCHING,23.702,27.358,1.650,0.00,0.00,105.60,1.086,1.277,0.968,1.272,1.278,0,0,SEARCHING,0.000,0.295,-0.005,0.090
22:04:49.390,SEARCHING,23.690,27.402,1.650,0.00,0.00,106.40,1.043,1.219,0.949,1.221,1.221,0,0,SEARCHING,0.000,0.271,-0.000,0.076
22:04:49.591,SEARCHING,23.677,27.443,1.650,0.00,0.00,107.06,1.013,1.179,0.935,1.180,1.180,0,0,SEARCHING,0.000,0.256,-0.000,0.066
22:04:49.791,SEARCHING,23.665,27.482,1.649,0.00,0.00,107.63,0.979,1.136,0.925,1.135,1.135,0,0,SEARCHING,0.000,0.250,0.000,0.048
22:04:49.992,SEARCHING,23.653,27.520,1.649,0.00,0.00,108.04,0.946,1.095,0.909,1.095,1.097,0,0,SEARCHING,0.000,0.250,-0.001,0.034
22:04:50.193,SEARCHING,23.641,27.558,1.649,0.00,0.00,108.32,0.914,1.057,0.895,1.055,1.058,0,0,SEARCHING,0.000,0.250,-0.003,0.018
22:04:50.393,SEARCHING,23.628,27.596,1.649,0.00,0.00,108.47,0.884,1.020,0.874,1.019,1.020,0,0,SEARCHING,0.000,0.250,-0.000,0.010
22:04:50.593,SEARCHING,23.615,27.634,1.649,0.00,0.00,108.55,0.850,0.981,0.856,0.981,0.983,0,0,SEARCHING,0.000,0.250,-0.003,-0.007
22:04:50.794,SEARCHING,23.603,27.672,1.648,0.00,0.00,108.45,0.818,0.945,0.837,0.945,0.947,0,0,SEARCHING,0.000,0.250,-0.003,-0.022
22:04:50.994,SEARCHING,23.590,27.710,1.648,0.00,0.00,108.22,0.786,0.907,0.816,0.908,0.911,0,0,SEARCHING,0.000,0.250,-0.003,-0.037
22:04:51.197,SEARCHING,23.578,27.748,1.648,0.00,0.00,107.84,0.756,0.874,0.797,0.876,0.876,0,0,SEARCHING,0.000,0.250,0.000,-0.054
22:04:51.397,SEARCHING,23.566,27.786,1.648,0.00,0.00,107.33,0.723,0.841,0.770,0.841,0.841,0,0,SEARCHING,0.000,0.250,-0.000,-0.067
22:04:51.597,SEARCHING,23.554,27.824,1.648,0.00,0.00,106.71,0.693,0.805,0.740,0.806,0.804,0,0,SEARCHING,0.000,0.250,0.004,-0.073
22:04:51.798,INSPECTING,23.547,27.847,1.673,0.00,0.00,106.37,0.666,0.778,0.715,0.778,0.778,0,0,INSPECT_TOP,0.000,0.100,0.500,0.000
22:04:51.998,INSPECTING,23.542,27.862,1.777,0.00,0.00,106.37,0.654,0.763,0.705,0.765,0.763,0,0,INSPECT_TOP,0.000,0.100,0.500,0.000
22:04:52.199,INSPECTING,23.538,27.878,1.769,0.00,0.00,106.37,0.643,0.751,0.697,0.750,0.750,0,0,INSPECT_BOTTOM,0.000,0.100,-0.500,0.000
22:04:52.400,INSPECTING,23.533,27.893,1.777,0.00,0.00,106.37,0.629,0.736,0.689,0.736,0.735,0,0,INSPECT_TOP,0.000,0.100,0.500,0.000
22:04:52.599,INSPECTING,23.529,27.909,1.877,0.00,0.00,106.37,0.617,0.721,0.677,0.720,0.720,0,0,INSPECT_TOP,0.000,0.100,0.500,0.000
22:04:52.800,INSPECTING,23.524,27.924,1.869,0.00,0.00,106.37,0.604,0.706,0.665,0.706,0.705,0,0,INSPECT_TOP,0.000,0.100,0.500,0.000
22:04:53.001,INSPECTING,23.520,27.939,1.977,0.00,0.00,106.37,0.592,0.691,0.663,0.690,0.690,0,0,INSPECT_TOP,0.000,0.100,0.500,0.000
22:04:53.202,INSPECTING,23.515,27.955,2.077,0.00,0.00,106.37,0.580,0.678,0.661,0.676,0.678,0,0,INSPECT_BOTTOM,0.000,0.100,-0.500,0.000
22:04:53.409,TURNING,23.513,27.963,2.023,0.00,0.00,107.98,0.565,0.661,0.651,0.662,0.661,0,0,TURNING,0.000,0.050,0.000,1.400
22:04:53.608,TURNING,23.510,27.971,2.023,0.00,0.00,120.81,0.566,0.630,0.700,0.631,0.630,0,0,TURNING,0.000,0.050,0.000,1.400
22:04:53.809,TURNING,23.505,27.977,2.023,0.00,0.00,133.64,0.592,0.616,0.641,0.616,0.616,0,0,TURNING,0.000,0.050,0.000,1.400
22:04:54.010,TURNING,23.499,27.982,2.023,0.00,0.00,146.48,0.637,0.614,0.593,0.615,0.614,0,0,TURNING,0.000,0.050,0.000,1.400
22:04:54.211,TURNING,23.492,27.986,2.023,0.00,0.00,159.31,0.785,0.624,0.564,0.625,0.626,0,0,TURNING,0.000,0.050,0.000,1.400
22:04:54.411,TURNING,23.484,27.988,2.023,0.00,0.00,172.15,0.934,0.676,0.567,0.675,0.676,0,0,TURNING,0.000,0.050,0.000,1.400
22:04:54.610,TURNING,23.476,27.988,2.023,0.00,-0.00,-175.02,1.071,0.895,0.607,0.900,0.895,0,0,TURNING,0.000,0.050,0.000,1.400
22:04:54.811,TURNING,23.468,27.987,2.023,0.00,-0.00,-162.18,1.331,1.011,0.787,1.010,1.010,0,0,TURNING,0.000,0.050,0.000,1.400
22:04:55.018,TURNING,23.461,27.984,2.023,0.00,-0.00,-149.35,1.842,1.219,0.894,1.214,1.211,0,0,TURNING,0.000,0.050,0.000,1.400
22:04:55.217,TURNING,23.455,27.979,2.023,0.00,-0.00,-136.52,3.791,1.592,1.051,1.600,1.608,0,0,TURNING,0.000,0.050,0.000,1.400
22:04:55.417,TURNING,23.449,27.973,2.023,0.00,-0.00,-123.68,4.730,2.675,1.344,2.659,2.655,0,0,TURNING,0.000,0.050,0.000,1.400
22:04:55.618,TURNING,23.446,27.966,2.023,0.00,-0.00,-110.85,4.937,4.905,1.951,3.412,4.909,0,0,TURNING,0.000,0.050,0.000,1.400
22:04:55.819,TURNING,23.443,27.958,2.023,0.00,-0.00,-98.01,3.707,5.123,4.437,3.401,4.985,0,0,TURNING,0.000,0.050,0.000,1.400
22:04:56.018,TURNING,23.443,27.950,2.023,0.00,-0.00,-85.18,3.139,4.440,4.786,3.442,4.428,0,0,TURNING,0.000,0.050,0.000,1.400
22:04:56.260,RETURNING,23.444,27.946,2.023,0.00,-0.00,-78.76,2.759,3.752,5.162,3.416,3.728,0,0,RETURNING,0.000,0.800,-0.029,-0.135
22:04:56.464,RETURNING,23.444,27.946,2.015,0.00,-0.00,-78.76,2.757,3.734,5.319,3.460,3.706,0,0,RETURNING,0.000,0.800,-0.023,-0.140
22:04:56.667,RETURNING,23.444,27.946,2.010,0.00,-0.00,-78.76,2.757,3.722,5.321,3.467,3.708,0,0,RETURNING,0.000,0.800,-0.023,-0.140
22:04:56.865,RETURNING,23.450,27.915,2.006,0.00,-0.00,-79.08,2.740,3.725,5.321,3.466,3.721,0,0,RETURNING,0.000,0.800,-0.024,-0.142
22:04:57.068,RETURNING,23.450,27.915,2.001,0.00,-0.00,-79.08,2.747,3.708,5.339,3.467,3.712,0,0,RETURNING,0.000,0.800,-0.023,-0.141
22:04:57.269,RETURNING,23.450,27.915,1.996,0.00,-0.00,-79.08,2.729,3.733,5.326,3.484,3.725,0,0,RETURNING,0.000,0.800,-0.022,-0.143
22:04:57.461,RETURNING,23.450,27.915,1.992,0.00,-0.00,-79.08,2.743,3.712,5.337,3.511,3.739,0,0,RETURNING,0.000,0.800,-0.021,-0.142
22:04:57.657,RETURNING,23.450,27.915,1.988,0.00,-0.00,-79.08,2.747,3.712,5.322,3.518,3.712,0,0,RETURNING,0.000,0.800,-0.018,-0.141
22:04:57.872,RETURNING,23.450,27.915,1.984,0.00,-0.00,-79.08,2.731,3.742,5.321,3.520,3.739,0,0,RETURNING,0.000,0.800,-0.020,-0.143
22:04:58.077,RETURNING,23.456,27.883,1.981,0.00,-0.00,-79.41,2.735,3.710,5.321,3.535,3.712,0,0,RETURNING,0.000,0.800,-0.016,-0.142
22:04:58.258,RETURNING,23.459,27.868,1.977,0.00,-0.00,-79.57,2.722,3.691,5.365,3.564,3.692,0,0,RETURNING,0.000,0.800,-0.012,-0.145
22:04:58.470,RETURNING,23.459,27.868,1.975,0.00,-0.00,-79.57,2.715,3.676,5.356,3.553,3.692,0,0,RETURNING,0.000,0.800,-0.013,-0.145
22:04:58.667,RETURNING,23.459,27.868,1.973,0.00,-0.00,-79.57,2.715,3.698,5.311,3.561,3.691,0,0,RETURNING,0.000,0.800,-0.012,-0.144
22:04:58.868,RETURNING,23.459,27.868,1.970,0.00,-0.00,-79.57,2.716,3.689,5.357,3.554,3.698,0,0,RETURNING,0.000,0.800,-0.013,-0.145
22:04:59.073,RETURNING,23.467,27.820,1.968,0.00,-0.00,-80.07,2.724,3.687,5.394,3.561,3.693,0,0,RETURNING,0.000,0.800,-0.012,-0.145
22:04:59.270,RETURNING,23.467,27.820,1.965,0.00,-0.00,-80.07,2.707,3.656,5.444,3.560,3.714,0,0,RETURNING,0.000,0.800,-0.014,-0.149
22:04:59.465,RETURNING,23.467,27.820,1.962,0.00,-0.00,-80.07,2.707,3.650,5.481,3.572,3.715,0,0,RETURNING,0.000,0.800,-0.013,-0.150
22:04:59.676,RETURNING,23.467,27.820,1.960,0.00,-0.00,-80.07,2.706,3.642,5.441,3.575,3.715,0,0,RETURNING,0.000,0.800,-0.013,-0.149
22:04:59.872,RETURNING,23.467,27.820,1.958,0.00,-0.00,-80.07,2.706,3.679,5.432,3.607,3.685,0,0,RETURNING,0.000,0.800,-0.007,-0.148
22:05:00.078,RETURNING,23.467,27.820,1.956,0.00,-0.00,-80.07,2.706,3.656,5.481,3.579,3.703,0,0,RETURNING,0.000,0.800,-0.011,-0.150
22:05:00.272,RETURNING,23.473,27.789,1.954,0.00,-0.00,-80.41,2.674,3.664,5.483,3.575,3.668,0,0,RETURNING,0.000,0.800,-0.008,-0.153
22:05:00.469,RETURNING,23.473,27.789,1.953,0.00,-0.00,-80.41,2.672,3.673,5.449,3.585,3.689,0,0,RETURNING,0.000,0.800,-0.009,-0.153
22:05:00.676,RETURNING,23.473,27.789,1.950,0.00,-0.00,-80.41,2.670,3.674,5.416,3.613,3.694,0,0,RETURNING,0.000,0.800,-0.007,-0.152
22:05:00.881,RETURNING,23.478,27.757,1.949,0.00,-0.00,-80.76,2.691,3.650,5.497,3.631,3.674,0,0,RETURNING,0.000,0.800,-0.004,-0.152
22:05:01.070,RETURNING,23.478,27.757,1.948,0.00,-0.00,-80.76,2.672,3.666,5.136,3.618,3.680,0,0,RETURNING,0.000,0.800,-0.006,-0.144
22:05:01.278,RETURNING,23.478,27.757,1.947,0.00,-0.00,-80.76,2.676,3.673,5.398,3.600,3.682,0,0,RETURNING,0.000,0.800,-0.007,-0.151
22:05:01.472,RETURNING,23.478,27.757,1.946,0.00,-0.00,-80.76,2.676,3.673,5.177,3.632,3.690,0,0,RETURNING,0.000,0.800,-0.005,-0.144
22:05:01.669,RETURNING,23.481,27.742,1.945,0.00,-0.00,-80.93,2.676,3.659,5.225,3.604,3.654,0,0,RETURNING,0.000,0.800,-0.005,-0.146
22:05:01.881,RETURNING,23.481,27.742,1.944,0.00,-0.00,-80.93,2.680,3.678,5.383,3.630,3.675,0,0,RETURNING,0.000,0.800,-0.004,-0.150
22:05:02.076,RETURNING,23.481,27.742,1.943,0.00,-0.00,-80.93,2.663,3.661,5.326,3.625,3.674,0,0,RETURNING,0.000,0.800,-0.004,-0.150
22:05:02.283,RETURNING,23.481,27.742,1.942,0.00,-0.00,-80.93,2.676,3.653,5.376,3.618,3.654,0,0,RETURNING,0.000,0.800,-0.003,-0.150
22:05:02.484,RETURNING,23.486,27.710,1.942,0.00,-0.00,-81.27,2.661,3.652,5.324,3.632,3.644,0,0,RETURNING,0.000,0.800,-0.001,-0.150
22:05:02.683,RETURNING,23.490,27.678,1.941,0.00,-0.00,-81.60,2.655,3.664,4.895,3.632,3.645,0,0,RETURNING,0.000,0.800,-0.001,-0.138
22:05:02.881,RETURNING,23.493,27.662,1.940,0.00,-0.00,-81.76,2.637,3.638,4.546,3.661,3.645,0,0,RETURNING,0.000,0.800,0.001,-0.127
22:05:03.082,RETURNING,23.493,27.662,1.940,0.00,-0.00,-81.76,2.653,3.635,4.626,3.632,3.639,0,0,RETURNING,0.000,0.800,-0.001,-0.129
22:05:03.281,RETURNING,23.493,27.662,1.940,0.00,-0.00,-81.76,2.647,3.632,4.635,3.636,3.661,0,0,RETURNING,0.000,0.800,-0.002,-0.130
22:05:03.493,RETURNING,23.493,27.662,1.940,0.00,-0.00,-81.76,2.641,3.632,4.552,3.661,3.632,0,0,RETURNING,0.000,0.800,0.003,-0.127
22:05:03.680,RETURNING,23.493,27.662,1.940,0.00,-0.00,-81.76,2.653,3.632,4.631,3.632,3.661,0,0,RETURNING,0.000,0.800,-0.003,-0.129
22:05:03.882,RETURNING,23.497,27.631,1.940,0.00,-0.00,-82.05,2.639,3.632,4.540,3.637,3.632,0,0,RETURNING,0.000,0.800,0.000,-0.127
22:05:04.092,RETURNING,23.500,27.615,1.940,0.00,-0.00,-82.19,2.634,3.632,4.567,3.632,3.639,0,0,RETURNING,0.000,0.800,-0.001,-0.129
22:05:04.287,RETURNING,23.504,27.583,1.940,0.00,-0.00,-82.49,2.645,3.632,4.458,3.634,3.647,0,0,RETURNING,0.000,0.800,-0.001,-0.123
22:05:04.489,RETURNING,23.508,27.552,1.940,0.00,-0.00,-82.77,2.633,3.647,4.538,3.604,3.630,0,0,RETURNING,0.000,0.800,-0.002,-0.128
22:05:04.693,RETURNING,23.510,27.536,1.940,0.00,-0.00,-82.92,2.623,3.615,4.581,3.576,3.614,0,0,RETURNING,0.000,0.800,-0.004,-0.130
22:05:04.884,RETURNING,23.514,27.504,1.939,0.00,-0.00,-83.22,2.594,3.567,4.620,3.577,3.595,0,0,RETURNING,0.000,0.800,-0.002,-0.135
22:05:05.087,RETURNING,23.516,27.488,1.939,0.00,-0.00,-83.38,2.580,3.549,4.616,3.575,3.576,0,0,RETURNING,0.000,0.800,-0.000,-0.137
22:05:05.287,RETURNING,23.516,27.488,1.939,0.00,-0.00,-83.38,2.592,3.561,4.555,3.575,3.574,0,0,RETURNING,0.000,0.800,0.000,-0.133
22:05:05.489,RETURNING,23.516,27.488,1.939,0.00,-0.00,-83.38,2.593,3.560,4.551,3.575,3.562,0,0,RETURNING,0.000,0.800,0.001,-0.133
22:05:05.712,RETURNING,23.518,27.472,1.939,0.00,-0.00,-83.53,2.582,3.542,4.520,3.574,3.542,0,0,RETURNING,0.000,0.800,0.003,-0.133
22:05:05.895,RETURNING,23.519,27.456,1.940,0.00,-0.00,-83.68,2.559,3.523,4.502,3.568,3.537,0,0,RETURNING,0.000,0.800,0.003,-0.135
22:05:06.101,RETURNING,23.523,27.424,1.940,0.00,-0.00,-83.99,2.557,3.520,4.487,3.566,3.521,0,0,RETURNING,0.000,0.800,0.004,-0.135
22:05:06.314,RETURNING,23.528,27.377,1.941,0.00,-0.00,-84.45,2.564,3.507,4.346,3.522,3.520,0,0,RETURNING,0.000,0.800,0.000,-0.128
22:05:06.500,RETURNING,23.531,27.345,1.941,0.00,-0.00,-84.75,2.543,3.470,4.323,3.519,3.510,0,0,RETURNING,0.000,0.800,0.001,-0.130
22:05:06.699,RETURNING,23.537,27.281,1.941,0.00,-0.00,-85.34,2.520,3.435,4.241,3.467,3.464,0,0,RETURNING,0.000,0.800,0.000,-0.129
22:05:06.897,RETURNING,23.541,27.217,1.941,0.00,-0.00,-85.93,2.528,3.412,4.131,3.418,3.452,0,0,RETURNING,0.000,0.800,-0.003,-0.123
22:05:07.100,RETURNING,23.541,27.217,1.941,0.00,-0.00,-85.93,2.528,3.407,4.009,3.371,3.369,0,0,RETURNING,0.000,0.800,0.000,-0.117
22:05:07.301,RETURNING,23.541,27.217,1.941,0.00,-0.00,-85.93,2.539,3.408,3.990,3.365,3.365,0,0,RETURNING,0.000,0.800,0.000,-0.115
22:05:07.505,RETURNING,23.546,27.153,1.941,0.00,-0.00,-86.46,2.528,3.371,4.002,3.392,3.365,0,0,RETURNING,0.000,0.800,0.003,-0.117
22:05:07.703,RETURNING,23.550,27.089,1.941,0.00,-0.00,-86.99,2.542,3.319,3.921,3.331,3.350,0,0,RETURNING,0.000,0.800,-0.002,-0.111
22:05:07.904,RETURNING,23.550,27.074,1.941,0.00,-0.00,-87.12,2.520,3.310,3.895,3.291,3.341,0,0,RETURNING,0.000,0.800,-0.006,-0.112
22:05:08.105,RETURNING,23.551,27.058,1.940,0.00,-0.00,-87.25,2.539,3.309,3.953,3.272,3.278,0,0,RETURNING,0.000,0.800,-0.001,-0.113
22:05:08.305,RETURNING,23.553,27.026,1.940,0.00,-0.00,-87.51,2.509,3.316,3.822,3.319,3.277,0,0,RETURNING,0.000,0.800,0.005,-0.110
22:05:08.502,RETURNING,23.554,26.994,1.941,0.00,-0.00,-87.76,2.488,3.316,3.817,3.303,3.276,0,0,RETURNING,0.000,0.800,0.003,-0.112
22:05:08.713,RETURNING,23.555,26.962,1.941,0.00,-0.00,-88.03,2.488,3.310,3.904,3.313,3.310,0,0,RETURNING,0.000,0.800,0.000,-0.117
22:05:08.918,RETURNING,23.556,26.930,1.941,0.00,-0.00,-88.29,2.487,3.339,3.723,3.302,3.333,0,0,RETURNING,0.000,0.800,-0.003,-0.107
22:05:09.102,RETURNING,23.557,26.914,1.941,0.00,-0.00,-88.41,2.465,3.305,3.696,3.289,3.291,0,0,RETURNING,0.000,0.800,-0.000,-0.108
22:05:09.306,RETURNING,23.557,26.914,1.941,0.00,-0.00,-88.41,2.477,3.309,3.695,3.316,3.311,0,0,RETURNING,0.000,0.800,0.001,-0.106
22:05:09.510,RETURNING,23.557,26.914,1.941,0.00,-0.00,-88.41,2.461,3.315,3.768,3.315,3.318,0,0,RETURNING,0.000,0.800,-0.000,-0.113
22:05:09.705,RETURNING,23.557,26.914,1.941,0.00,-0.00,-88.41,2.464,3.288,3.621,3.292,3.288,0,0,RETURNING,0.000,0.800,0.000,-0.104
22:05:09.918,RETURNING,23.558,26.850,1.941,0.00,-0.00,-88.90,2.475,3.283,3.584,3.310,3.283,0,0,RETURNING,0.000,0.800,0.003,-0.100
22:05:10.111,RETURNING,23.559,26.818,1.941,0.00,-0.00,-89.14,2.461,3.282,3.662,3.300,3.314,0,0,RETURNING,0.000,0.800,-0.002,-0.107
22:05:10.310,RETURNING,23.559,26.818,1.941,0.00,-0.00,-89.14,2.440,3.293,3.703,3.314,3.270,0,0,RETURNING,0.000,0.800,0.005,-0.112
22:05:10.507,RETURNING,23.560,26.754,1.942,0.00,-0.00,-89.65,2.456,3.305,3.722,3.275,3.293,0,0,RETURNING,0.000,0.800,-0.002,-0.111
22:05:10.706,RETURNING,23.560,26.722,1.942,0.00,-0.00,-89.90,2.431,3.269,3.616,3.302,3.269,0,0,RETURNING,0.000,0.800,0.004,-0.108
22:05:10.913,RETURNING,23.560,26.722,1.942,0.00,-0.00,-89.90,2.410,3.257,3.578,3.247,3.299,0,0,RETURNING,0.000,0.800,-0.006,-0.108
22:05:11.119,RETURNING,23.560,26.706,1.941,0.00,-0.00,-90.02,2.397,3.251,3.477,3.223,3.273,0,0,RETURNING,0.000,0.800,-0.006,-0.104
22:05:11.309,RETURNING,23.560,26.674,1.940,0.00,-0.00,-90.27,2.396,3.246,3.524,3.234,3.241,0,0,RETURNING,0.000,0.800,-0.001,-0.107
22:05:11.515,RETURNING,23.559,26.626,1.940,0.00,-0.00,-90.63,2.386,3.234,3.452,3.240,3.229,0,0,RETURNING,0.000,0.800,0.001,-0.104
22:05:11.715,RETURNING,23.559,26.594,1.941,0.00,-0.00,-90.87,2.365,3.233,3.561,3.266,3.220,0,0,RETURNING,0.000,0.800,0.005,-0.114
22:05:11.943,RETURNING,23.559,26.562,1.941,0.00,-0.00,-91.13,2.367,3.268,3.521,3.216,3.228,0,0,RETURNING,0.000,0.800,-0.001,-0.111
22:05:12.122,RETURNING,23.558,26.546,1.941,0.00,-0.00,-91.26,2.357,3.213,3.522,3.236,3.215,0,0,RETURNING,0.000,0.800,0.002,-0.112
22:05:12.332,RETURNING,23.558,26.514,1.942,0.00,-0.00,-91.52,2.359,3.219,3.551,3.231,3.219,0,0,RETURNING,0.000,0.800,0.001,-0.114
22:05:12.531,RETURNING,23.556,26.466,1.942,0.00,-0.00,-91.91,2.341,3.249,3.489,3.251,3.226,0,0,RETURNING,0.000,0.800,0.003,-0.112
22:05:12.720,RETURNING,23.556,26.450,1.942,0.00,-0.00,-92.04,2.333,3.245,3.435,3.256,3.238,0,0,RETURNING,0.000,0.800,0.002,-0.110
22:05:12.937,RETURNING,23.553,26.386,1.943,0.00,-0.00,-92.54,2.329,3.241,3.402,3.217,3.235,0,0,RETURNING,0.000,0.800,-0.002,-0.108
22:05:13.121,RETURNING,23.552,26.354,1.943,0.00,-0.00,-92.78,2.335,3.201,3.259,3.220,3.223,0,0,RETURNING,0.000,0.800,-0.000,-0.097
22:05:13.321,RETURNING,23.552,26.354,1.944,0.00,-0.00,-92.78,2.324,3.261,3.162,3.197,3.256,0,0,RETURNING,0.000,0.800,-0.007,-0.091
22:05:13.517,RETURNING,23.552,26.354,1.942,0.00,-0.00,-92.78,2.315,3.233,3.172,3.204,3.250,0,0,RETURNING,0.000,0.800,-0.005,-0.093
22:05:13.715,RETURNING,23.552,26.354,1.942,0.00,-0.00,-92.78,2.326,3.251,3.207,3.206,3.236,0,0,RETURNING,0.000,0.800,-0.003,-0.094
22:05:13.939,RETURNING,23.552,26.354,1.941,0.00,-0.00,-92.78,2.327,3.253,3.208,3.181,3.259,0,0,RETURNING,0.000,0.800,-0.009,-0.094
22:05:14.138,RETURNING,23.550,26.322,1.940,0.00,-0.00,-93.00,2.321,3.250,3.212,3.203,3.250,0,0,RETURNING,0.000,0.800,-0.005,-0.096
22:05:14.332,RETURNING,23.547,26.274,1.939,0.00,-0.00,-93.34,2.292,3.232,3.288,3.242,3.230,0,0,RETURNING,0.000,0.800,0.001,-0.106
22:05:14.526,RETURNING,23.545,26.226,1.939,0.00,-0.00,-93.67,2.278,3.212,3.046,3.226,3.204,0,0,RETURNING,0.000,0.800,0.003,-0.089
22:05:14.731,RETURNING,23.545,26.226,1.939,0.00,-0.00,-93.67,2.229,3.266,3.091,3.250,3.248,0,0,RETURNING,0.000,0.800,0.000,-0.100
22:05:14.939,RETURNING,23.540,26.162,1.939,0.00,-0.00,-94.14,2.216,3.246,3.078,3.241,3.222,0,0,RETURNING,0.000,0.800,0.002,-0.101
22:05:15.167,RETURNING,23.538,26.130,1.939,0.00,-0.00,-94.38,2.157,3.252,3.043,3.219,3.212,0,0,RETURNING,0.000,0.800,0.001,-0.108
22:05:15.388,RETURNING,23.535,26.098,1.939,0.00,-0.00,-94.63,2.108,3.235,3.156,3.200,3.225,0,0,RETURNING,0.000,0.800,-0.003,-0.126
22:05:15.583,RETURNING,23.531,26.050,1.938,0.00,-0.00,-95.06,2.076,3.239,3.223,3.221,3.252,0,0,RETURNING,0.000,0.800,-0.003,-0.137
22:05:15.777,RETURNING,23.529,26.027,1.937,0.00,-0.00,-95.30,2.049,3.235,3.146,3.260,3.267,0,0,RETURNING,0.000,0.800,-0.001,-0.136
22:05:15.976,RETURNING,23.529,26.027,1.937,0.00,-0.00,-95.30,2.021,3.238,3.161,3.237,3.268,0,0,RETURNING,0.000,0.800,-0.004,-0.143
22:05:16.186,RETURNING,23.529,26.027,1.936,0.00,-0.00,-95.30,2.015,3.236,3.170,3.214,3.246,0,0,RETURNING,0.000,0.800,-0.004,-0.145
22:05:16.397,RETURNING,23.524,25.971,1.935,0.00,-0.00,-95.88,2.033,3.237,3.189,3.242,3.257,0,0,RETURNING,0.000,0.800,-0.002,-0.143
22:05:18.696,RETURNING,23.522,25.955,1.935,0.00,-0.00,-96.04,2.021,3.229,3.120,3.224,3.228,0,0,RETURNING,0.000,0.800,-0.000,-0.139
22:05:18.905,RETURNING,23.519,25.923,1.934,0.00,-0.00,-96.36,2.012,3.223,3.110,3.269,3.269,0,0,RETURNING,0.000,0.800,-0.000,-0.140
22:05:19.119,RETURNING,23.515,25.891,1.934,0.00,-0.00,-96.68,1.998,3.262,3.009,3.279,3.269,0,0,RETURNING,0.000,0.800,0.001,-0.135
22:05:19.339,RETURNING,23.515,25.891,1.934,0.00,-0.00,-96.68,2.005,3.269,3.065,3.275,3.275,0,0,RETURNING,0.000,0.800,0.000,-0.138
22:05:19.540,RETURNING,23.512,25.860,1.934,0.00,-0.00,-96.98,2.015,3.275,3.024,3.293,3.276,0,0,RETURNING,0.000,0.800,0.002,-0.133
22:05:19.754,RETURNING,23.508,25.828,1.934,0.00,-0.00,-97.29,2.009,3.281,2.977,3.289,3.282,0,0,RETURNING,0.000,0.800,0.001,-0.130
22:05:19.979,RETURNING,23.502,25.788,1.934,0.00,-0.00,-97.65,2.024,3.302,2.930,3.297,3.291,0,0,RETURNING,0.000,0.800,0.001,-0.122
22:05:20.192,RETURNING,23.506,25.812,1.934,0.00,-0.00,-97.43,2.023,3.315,2.934,3.315,3.303,0,0,RETURNING,0.000,0.800,0.001,-0.123
22:05:20.320,RETURNING,23.501,25.780,1.934,0.00,-0.00,-97.72,2.020,3.304,2.934,3.328,3.313,0,0,RETURNING,0.000,0.800,0.002,-0.123
22:05:20.531,RETURNING,23.500,25.772,1.935,0.00,-0.00,-97.81,1.998,3.327,2.968,3.316,3.316,0,0,RETURNING,0.000,0.800,0.000,-0.131
22:05:20.731,RETURNING,23.498,25.756,1.935,0.00,-0.00,-97.96,1.997,3.320,2.934,3.318,3.322,0,0,RETURNING,0.000,0.800,-0.000,-0.128
