timestamp,state,x,y,z,roll_deg,pitch_deg,yaw_deg,dist_left,dist_center,dist_right,dist_top,dist_bottom,dtof_alert,collision_event,best_dir,max_space,cmd_vx,cmd_vz,cmd_yaw
20:31:15.669,SEARCHING,0.032,0.000,1.000,0.00,0.00,0.00,10.000,10.000,10.000,10.000,10.000,0,0,SEARCHING,0.000,0.800,0.000,0.000
20:31:15.872,SEARCHING,0.096,0.000,1.023,0.00,0.00,0.83,2.434,3.814,1.045,3.878,2.487,0,0,SEARCHING,0.000,0.800,0.173,0.382
20:31:16.072,SEARCHING,0.160,0.002,1.055,0.00,0.00,2.59,2.359,3.632,1.017,3.632,2.571,0,0,SEARCHING,0.000,0.800,0.136,0.392
20:31:16.274,SEARCHING,0.224,0.005,1.080,0.00,0.00,4.40,2.311,3.415,1.022,3.467,2.630,0,0,SEARCHING,0.000,0.800,0.110,0.382
20:31:16.474,SEARCHING,0.288,0.011,1.100,0.00,0.00,6.16,2.288,3.223,1.022,3.223,2.661,0,0,SEARCHING,0.000,0.800,0.079,0.379
20:31:16.674,SEARCHING,0.351,0.019,1.114,0.00,0.00,7.91,2.243,3.011,1.031,3.011,2.724,0,0,SEARCHING,0.000,0.800,0.042,0.367
20:31:16.875,SEARCHING,0.414,0.028,1.121,0.00,0.00,9.63,2.222,2.896,4.400,2.896,2.724,0,0,SEARCHING,0.000,0.800,0.026,-0.156
20:31:17.075,SEARCHING,0.478,0.039,1.125,0.00,0.00,8.90,2.119,2.860,4.400,2.860,2.757,0,0,SEARCHING,0.000,0.800,0.016,-0.171
20:31:17.278,SEARCHING,0.541,0.048,1.128,0.00,0.00,8.10,2.061,2.825,4.400,2.860,2.757,0,0,SEARCHING,0.000,0.800,0.016,-0.180
20:31:17.478,SEARCHING,0.604,0.057,1.131,0.00,0.00,7.26,1.973,2.860,0.490,2.860,2.757,0,0,SEARCHING,0.000,0.800,0.016,0.800
20:31:17.678,SEARCHING,0.668,0.066,1.133,0.00,0.00,8.68,1.973,2.724,4.086,2.724,2.724,0,0,SEARCHING,0.000,0.800,0.000,-0.184
20:31:17.879,SEARCHING,0.731,0.075,1.133,0.00,0.00,7.81,1.891,2.724,4.237,2.724,2.724,0,0,SEARCHING,0.000,0.800,0.000,-0.205
20:31:18.080,SEARCHING,0.794,0.084,1.134,0.00,0.00,6.85,1.845,2.757,4.317,2.757,2.692,0,0,SEARCHING,0.000,0.800,0.010,-0.217
20:31:18.280,SEARCHING,0.858,0.091,1.134,0.00,0.00,5.86,1.831,2.790,4.237,2.790,2.661,0,0,SEARCHING,0.000,0.800,0.021,-0.217
20:31:18.481,SEARCHING,0.922,0.097,1.137,0.00,0.00,4.86,1.845,2.790,4.400,2.757,2.757,0,0,SEARCHING,0.000,0.800,0.000,-0.220
20:31:18.683,SEARCHING,0.985,0.102,1.137,0.00,0.00,3.85,1.831,2.825,4.400,2.790,2.790,0,0,SEARCHING,0.000,0.800,0.000,-0.223
20:31:18.883,SEARCHING,1.049,0.106,1.137,0.00,0.00,2.82,1.831,2.860,4.400,2.860,2.790,0,0,SEARCHING,0.000,0.800,0.010,-0.223
20:31:19.082,SEARCHING,1.113,0.109,1.140,0.00,0.00,4.14,1.788,2.757,4.400,2.757,2.757,0,0,SEARCHING,0.000,0.800,0.000,-0.232
20:31:19.281,SEARCHING,1.177,0.113,1.141,0.00,0.00,3.09,1.747,2.757,4.237,2.790,2.757,0,0,SEARCHING,0.000,0.800,0.005,-0.236
20:31:19.483,SEARCHING,1.241,0.116,1.142,0.00,0.00,2.01,1.774,2.724,4.317,2.757,2.757,0,0,SEARCHING,0.000,0.800,0.000,-0.232
20:31:19.682,SEARCHING,1.305,0.118,1.143,0.00,0.00,3.31,1.670,2.600,3.945,2.600,2.571,0,0,SEARCHING,0.000,0.800,0.005,-0.242
20:31:19.882,SEARCHING,1.369,0.121,1.143,0.00,0.00,2.21,1.708,2.630,4.160,2.692,2.692,0,0,SEARCHING,0.000,0.800,0.000,-0.242
20:31:20.083,SEARCHING,1.433,0.123,1.143,0.00,0.00,1.10,1.720,2.724,4.317,2.692,2.692,0,0,SEARCHING,0.000,0.800,0.000,-0.245
20:31:20.284,SEARCHING,1.497,0.125,1.142,0.00,0.00,2.37,1.611,2.460,3.751,2.514,2.514,0,0,SEARCHING,0.000,0.800,0.000,-0.248
20:31:20.484,SEARCHING,1.561,0.127,1.142,0.00,0.00,1.23,1.658,2.600,3.945,2.542,2.571,0,0,SEARCHING,0.000,0.800,-0.005,-0.245
20:31:20.685,SEARCHING,1.625,0.128,1.142,0.00,0.00,0.11,1.646,2.571,4.014,2.571,2.571,0,0,SEARCHING,0.000,0.800,0.000,-0.251
20:31:20.885,SEARCHING,1.689,0.127,1.142,0.00,0.00,-1.07,1.658,2.542,6.022,2.514,2.571,0,0,SEARCHING,0.000,0.800,-0.010,-0.306
20:31:21.085,SEARCHING,1.753,0.125,1.141,0.00,0.00,-2.47,1.682,2.514,6.538,2.514,2.514,0,0,SEARCHING,0.000,0.800,0.000,-0.309
20:31:21.286,SEARCHING,1.817,0.122,1.140,0.00,0.00,-3.88,1.708,2.571,6.730,2.542,2.571,0,0,SEARCHING,0.000,0.800,-0.005,-0.306
20:31:21.486,SEARCHING,1.881,0.117,1.140,0.00,0.00,-5.29,1.733,2.571,6.730,2.600,2.542,0,0,SEARCHING,0.000,0.800,0.010,-0.300
20:31:22.342,SEARCHING,1.928,0.113,1.142,0.00,0.00,-6.32,1.747,2.630,7.151,2.661,2.630,0,0,SEARCHING,0.000,0.800,0.005,-0.303
20:31:22.436,SEARCHING,2.016,0.102,1.143,0.00,0.00,-8.23,1.802,2.661,6.934,2.661,2.661,0,0,SEARCHING,0.000,0.800,0.000,-0.288
20:31:22.620,SEARCHING,2.079,0.092,1.143,0.00,0.00,-9.55,1.816,2.724,7.381,2.692,2.692,0,0,SEARCHING,0.000,0.800,0.000,-0.291
20:31:22.819,SEARCHING,2.142,0.081,1.143,0.00,0.00,-10.87,1.860,2.757,7.627,2.790,2.757,0,0,SEARCHING,0.000,0.800,0.005,-0.285
20:31:23.020,SEARCHING,2.205,0.068,1.143,0.00,0.00,-12.18,1.860,2.790,7.890,2.825,2.757,0,0,SEARCHING,0.000,0.800,0.010,-0.288
20:31:23.221,SEARCHING,2.267,0.054,1.147,0.00,0.00,-13.51,1.816,2.896,8.475,2.896,2.790,0,0,SEARCHING,0.000,0.800,0.016,-0.303
20:31:23.421,SEARCHING,2.329,0.039,1.150,0.00,0.00,-14.90,1.816,2.972,8.172,2.934,2.571,0,0,SEARCHING,0.000,0.800,0.058,-0.300
20:31:23.621,SEARCHING,2.391,0.022,1.159,0.00,0.00,-16.24,1.845,3.011,6.538,3.011,2.757,0,0,SEARCHING,0.000,0.800,0.037,-0.272
20:31:23.822,SEARCHING,2.452,0.003,1.166,0.00,0.00,-17.48,1.831,3.092,5.720,3.051,2.896,0,0,SEARCHING,0.000,0.800,0.021,-0.260
20:31:24.022,SEARCHING,2.513,-0.017,1.170,0.00,0.00,-18.65,1.876,3.134,5.448,3.092,2.860,0,0,SEARCHING,0.000,0.800,0.031,-0.245
20:31:24.222,SEARCHING,2.574,-0.037,1.181,0.00,0.00,-19.77,1.891,5.581,5.321,4.974,2.934,0,0,SEARCHING,0.000,0.800,0.168,-0.239
20:31:24.423,SEARCHING,2.634,-0.060,1.217,0.00,0.00,-20.84,1.923,5.581,5.085,5.321,3.011,0,0,SEARCHING,0.000,0.800,0.173,-0.226
20:31:24.623,SEARCHING,2.693,-0.083,1.251,0.00,0.00,-21.87,1.956,5.720,4.974,5.321,3.092,0,0,SEARCHING,0.000,0.800,0.163,-0.217
20:31:24.824,SEARCHING,2.753,-0.107,1.282,0.00,0.00,-22.86,1.956,5.867,4.767,5.200,3.178,0,0,SEARCHING,0.000,0.800,0.147,-0.211
20:31:25.024,SEARCHING,2.811,-0.132,1.310,0.00,0.00,-23.82,1.973,6.184,4.670,4.974,3.178,0,0,SEARCHING,0.000,0.800,0.136,-0.205
20:31:25.225,SEARCHING,2.870,-0.158,1.337,0.00,0.00,-24.75,2.007,6.356,4.576,3.178,3.316,0,0,SEARCHING,0.000,0.800,-0.016,-0.196
20:31:25.426,SEARCHING,2.928,-0.185,1.346,0.00,0.00,-25.64,2.043,6.538,4.487,4.086,3.316,0,0,SEARCHING,0.000,0.800,0.068,-0.187
20:31:25.626,SEARCHING,2.985,-0.213,1.360,0.00,0.00,-26.49,2.080,6.538,4.400,4.767,3.365,0,0,SEARCHING,0.000,0.800,0.105,-0.177
20:31:25.827,SEARCHING,3.042,-0.242,1.382,0.00,0.00,-27.30,2.080,6.022,4.317,4.237,3.415,0,0,SEARCHING,0.000,0.800,0.068,-0.174
20:31:26.026,SEARCHING,3.099,-0.272,1.398,0.00,0.00,-28.08,2.159,6.184,4.237,4.160,3.467,0,0,SEARCHING,0.000,0.800,0.058,-0.159
20:31:26.227,SEARCHING,3.155,-0.302,1.408,0.00,0.00,-28.81,2.119,5.867,4.160,4.576,3.467,0,0,SEARCHING,0.000,0.800,0.084,-0.162
20:31:26.428,SEARCHING,3.211,-0.333,1.424,0.00,0.00,-29.52,2.159,5.720,4.014,4.317,3.520,0,0,SEARCHING,0.000,0.800,0.063,-0.150
20:31:26.628,SEARCHING,3.267,-0.365,1.437,0.00,0.00,-30.22,2.159,5.581,3.945,4.160,3.575,0,0,SEARCHING,0.000,0.800,0.047,-0.147
20:31:26.828,SEARCHING,3.322,-0.398,1.446,0.00,0.00,-30.87,2.243,5.448,3.814,4.317,3.632,0,0,SEARCHING,0.000,0.800,0.052,-0.128
20:31:27.029,SEARCHING,3.377,-0.431,1.457,0.00,0.00,-31.26,3.092,5.085,3.751,4.086,3.632,0,0,SEARCHING,0.000,0.800,0.037,-0.040
20:31:27.231,SEARCHING,3.432,-0.464,1.465,0.00,0.00,-31.44,3.691,5.085,3.751,4.400,3.691,0,0,SEARCHING,0.000,0.800,0.052,-0.003
20:31:27.434,SEARCHING,3.486,-0.497,1.475,0.00,0.00,-31.44,3.814,4.868,3.691,4.317,3.751,0,0,SEARCHING,0.000,0.800,0.042,0.006
20:31:27.635,SEARCHING,3.541,-0.531,1.483,0.00,0.00,-31.41,3.878,4.487,3.691,4.317,3.751,0,0,SEARCHING,0.000,0.800,0.042,0.009
20:31:27.833,SEARCHING,3.595,-0.564,1.492,0.00,0.00,-31.35,4.086,4.576,3.632,4.086,3.691,0,0,SEARCHING,0.000,0.800,0.031,0.021
20:31:28.032,SEARCHING,3.650,-0.597,1.499,0.00,0.00,-31.26,4.014,4.487,3.691,4.237,3.751,0,0,SEARCHING,0.000,0.800,0.037,0.015
20:31:28.231,SEARCHING,3.705,-0.631,1.506,0.00,0.00,-31.19,4.086,4.400,3.691,4.160,3.751,0,0,SEARCHING,0.000,0.800,0.031,0.018
20:31:28.433,SEARCHING,3.760,-0.664,1.512,0.00,0.00,-31.11,4.014,4.400,3.632,4.014,3.751,0,0,SEARCHING,0.000,0.800,0.021,0.018
20:31:28.634,SEARCHING,3.814,-0.697,1.516,0.00,0.00,-31.03,3.878,4.317,3.632,3.415,3.751,0,0,SEARCHING,0.000,0.800,-0.031,0.012
20:31:28.834,SEARCHING,3.869,-0.730,1.513,0.00,0.00,-30.97,4.014,4.400,3.632,3.691,3.691,0,0,SEARCHING,0.000,0.800,0.000,0.018
20:31:29.038,SEARCHING,3.924,-0.763,1.512,0.00,0.00,-30.90,3.878,4.160,3.575,3.691,3.814,0,0,SEARCHING,0.000,0.800,-0.010,0.015
20:31:29.238,SEARCHING,3.979,-0.795,1.514,0.00,0.00,-30.85,3.751,5.085,3.575,3.691,3.814,0,0,SEARCHING,0.000,0.800,-0.010,0.009
20:31:29.438,SEARCHING,4.034,-0.828,1.511,0.00,0.00,-30.81,3.814,5.720,3.575,3.691,3.751,0,0,SEARCHING,0.000,0.800,-0.005,0.012
20:31:29.639,SEARCHING,4.089,-0.861,1.514,0.00,0.00,-30.76,3.751,5.448,3.632,3.575,3.814,0,0,SEARCHING,0.000,0.800,-0.021,0.006
20:31:29.839,SEARCHING,4.144,-0.894,1.511,0.00,0.00,-30.73,3.691,5.321,3.575,3.575,3.691,0,0,SEARCHING,0.000,0.800,-0.010,0.006
20:31:30.039,SEARCHING,4.199,-0.926,1.507,0.00,0.00,-30.70,3.691,6.184,3.575,3.575,3.751,0,0,SEARCHING,0.000,0.800,-0.016,0.006
20:31:30.239,SEARCHING,4.254,-0.959,1.503,0.00,0.00,-30.67,3.632,6.184,3.520,3.467,3.691,0,0,SEARCHING,0.000,0.800,-0.021,0.006
20:31:30.440,SEARCHING,4.309,-0.992,1.498,0.00,0.00,-30.64,3.632,6.184,3.520,3.467,3.691,0,0,SEARCHING,0.000,0.800,-0.021,0.006
20:31:30.641,SEARCHING,4.364,-1.024,1.493,0.00,0.00,-30.61,3.632,6.356,3.467,3.365,3.691,0,0,SEARCHING,0.000,0.800,-0.031,0.009
20:31:30.841,SEARCHING,4.419,-1.057,1.487,0.00,0.00,-30.57,3.575,6.356,3.520,3.365,3.691,0,0,SEARCHING,0.000,0.800,-0.031,0.003
20:31:31.042,SEARCHING,4.474,-1.089,1.479,0.00,0.00,-30.55,3.632,6.184,3.467,3.223,3.691,0,0,SEARCHING,0.000,0.800,-0.047,0.009
20:31:31.243,SEARCHING,4.530,-1.122,1.470,0.00,0.00,-30.50,3.632,6.356,3.467,3.178,3.632,0,0,SEARCHING,0.000,0.800,-0.047,0.009
20:31:31.443,SEARCHING,4.585,-1.154,1.460,0.00,0.00,-30.46,3.632,6.356,3.415,3.134,3.691,0,0,SEARCHING,0.000,0.800,-0.058,0.012
20:31:31.644,SEARCHING,4.640,-1.187,1.449,0.00,0.00,-30.41,3.575,6.356,3.415,3.011,3.575,0,0,SEARCHING,0.000,0.800,-0.063,0.009
20:31:31.845,SEARCHING,4.695,-1.219,1.435,0.00,0.00,-30.37,3.575,6.184,3.365,2.896,3.575,0,0,SEARCHING,0.000,0.800,-0.079,0.012
20:31:32.047,SEARCHING,4.750,-1.252,1.419,0.00,0.00,-30.31,3.575,6.356,3.365,2.896,3.467,0,0,SEARCHING,0.000,0.800,-0.068,0.012
20:31:32.245,SEARCHING,4.806,-1.284,1.405,0.00,0.00,-30.26,3.575,6.022,3.365,2.860,3.467,0,0,SEARCHING,0.000,0.800,-0.073,0.012
20:31:32.446,SEARCHING,4.861,-1.316,1.391,0.00,0.00,-30.20,3.575,6.022,3.365,2.757,3.415,0,0,SEARCHING,0.000,0.800,-0.084,0.012
20:31:32.646,SEARCHING,4.916,-1.348,1.374,0.00,0.00,-30.15,3.520,6.022,3.316,2.692,3.365,0,0,SEARCHING,0.000,0.800,-0.089,0.012
20:31:32.847,SEARCHING,4.971,-1.380,1.356,0.00,0.00,-30.10,3.467,6.022,3.365,2.630,3.316,0,0,SEARCHING,0.000,0.800,-0.094,0.006
20:31:33.047,SEARCHING,5.027,-1.412,1.336,0.00,0.00,-30.07,3.575,6.022,3.316,2.542,3.223,0,0,SEARCHING,0.000,0.800,-0.100,0.015
20:31:33.247,SEARCHING,5.082,-1.445,1.315,0.00,0.00,-30.01,3.520,6.022,3.316,2.487,3.223,0,0,SEARCHING,0.000,0.800,-0.110,0.012
20:31:33.447,SEARCHING,5.138,-1.477,1.290,0.00,0.00,-29.96,3.520,5.867,3.316,2.409,3.134,0,0,SEARCHING,0.000,0.800,-0.115,0.012
20:31:33.649,SEARCHING,5.193,-1.508,1.267,0.00,0.00,-29.92,3.467,5.720,3.415,2.359,3.092,0,0,SEARCHING,0.000,0.800,-0.121,0.003
20:31:33.848,SEARCHING,5.249,-1.540,1.242,0.00,0.00,-29.89,3.467,5.720,3.415,2.288,3.011,0,0,SEARCHING,0.000,0.800,-0.126,0.003
20:31:34.050,SEARCHING,5.304,-1.572,1.216,0.00,0.00,-29.86,3.467,5.581,3.223,2.243,2.972,0,0,SEARCHING,0.000,0.800,-0.131,0.015
20:31:34.251,SEARCHING,5.360,-1.604,1.190,0.00,0.00,-29.84,3.415,5.581,3.691,2.243,2.896,0,0,SEARCHING,0.000,0.800,-0.121,-0.015
20:31:34.451,SEARCHING,5.415,-1.636,1.165,0.00,0.00,-29.89,3.467,5.448,3.751,2.266,2.825,0,0,SEARCHING,0.000,0.800,-0.105,-0.015
20:31:34.655,SEARCHING,5.471,-1.668,1.144,0.00,0.00,-29.96,3.467,5.448,3.945,2.266,2.757,0,0,SEARCHING,0.000,0.800,-0.094,-0.024
20:31:34.856,SEARCHING,5.526,-1.700,1.126,0.00,0.00,-30.07,3.467,5.321,3.945,2.266,2.724,0,0,SEARCHING,0.000,0.800,-0.089,-0.024
20:31:35.057,SEARCHING,5.581,-1.732,1.108,0.00,0.00,-30.17,3.467,5.321,3.751,2.288,2.692,0,0,SEARCHING,0.000,0.800,-0.079,-0.015
20:31:35.256,SEARCHING,5.637,-1.764,1.095,0.00,0.00,-30.29,3.467,5.321,4.014,2.335,2.630,0,0,SEARCHING,0.000,0.800,-0.058,-0.028
20:31:35.459,SEARCHING,5.692,-1.797,1.084,0.00,0.00,-30.41,3.520,5.321,4.974,2.359,2.630,0,0,SEARCHING,0.000,0.800,-0.052,-0.058
20:31:35.658,SEARCHING,5.747,-1.829,1.073,0.00,0.00,-30.55,3.467,5.448,4.576,2.409,2.600,0,0,SEARCHING,0.000,0.800,-0.037,-0.049
20:31:35.857,SEARCHING,5.802,-1.862,1.066,0.00,0.00,-30.85,3.467,5.321,5.720,2.434,2.600,0,0,SEARCHING,0.000,0.800,-0.031,-0.080
20:31:36.055,SEARCHING,5.857,-1.895,1.061,0.00,0.00,-31.22,3.520,5.321,5.720,2.460,2.600,0,0,SEARCHING,0.000,0.800,-0.026,-0.076
20:31:36.257,SEARCHING,5.912,-1.928,1.056,0.00,0.00,-31.47,3.467,5.448,5.720,2.487,2.571,0,0,SEARCHING,0.000,0.800,-0.016,-0.080
20:31:36.457,SEARCHING,5.966,-1.961,1.053,0.00,0.00,-31.84,3.467,5.321,5.720,2.487,2.571,0,0,SEARCHING,0.000,0.800,-0.016,-0.080
20:31:36.658,SEARCHING,6.021,-1.995,1.051,0.00,0.00,-32.19,3.467,5.321,5.720,2.514,2.600,0,0,SEARCHING,0.000,0.800,-0.016,-0.080
20:31:36.858,SEARCHING,6.075,-2.029,1.047,0.00,0.00,-32.57,3.415,5.321,5.867,2.514,2.571,0,0,SEARCHING,0.000,0.800,-0.010,-0.086
20:31:37.059,SEARCHING,6.128,-2.064,1.045,0.00,0.00,-32.96,3.415,5.321,5.720,2.514,2.571,0,0,SEARCHING,0.000,0.800,-0.010,-0.083
20:31:37.260,SEARCHING,6.182,-2.099,1.043,0.00,0.00,-33.34,3.415,5.321,5.581,2.514,2.571,0,0,SEARCHING,0.000,0.800,-0.010,-0.080
20:31:37.460,SEARCHING,6.235,-2.134,1.040,0.00,0.00,-33.71,3.365,5.321,5.581,2.487,2.571,0,0,SEARCHING,0.000,0.800,-0.016,-0.083
20:31:37.660,SEARCHING,6.289,-2.170,1.044,0.00,0.00,-34.07,3.415,5.321,5.448,2.460,2.571,0,0,SEARCHING,0.000,0.800,-0.021,-0.076
20:31:37.861,SEARCHING,6.341,-2.206,1.040,0.00,0.00,-34.42,3.467,5.321,5.200,2.487,2.542,0,0,SEARCHING,0.000,0.800,-0.010,-0.067
20:31:38.062,SEARCHING,6.394,-2.242,1.038,0.00,0.00,-34.73,3.467,5.448,5.321,2.514,2.542,0,0,SEARCHING,0.000,0.800,-0.005,-0.070
20:31:38.261,SEARCHING,6.447,-2.279,1.037,0.00,0.00,-35.05,3.415,5.448,5.321,2.460,2.542,0,0,SEARCHING,0.000,0.800,-0.016,-0.073
20:31:38.463,SEARCHING,6.499,-2.316,1.033,0.00,0.00,-35.38,3.467,5.581,5.085,2.434,2.514,0,0,SEARCHING,0.000,0.800,-0.016,-0.064
20:31:38.663,SEARCHING,6.551,-2.353,1.030,0.00,0.00,-35.68,3.467,5.581,5.085,2.487,2.514,0,0,SEARCHING,0.000,0.800,-0.005,-0.064
20:31:38.863,SEARCHING,6.603,-2.390,1.029,0.00,0.00,-35.98,3.415,5.720,5.085,2.434,2.542,0,0,SEARCHING,0.000,0.800,-0.021,-0.067
20:31:39.063,SEARCHING,6.655,-2.428,1.028,0.00,0.00,-36.29,3.415,5.720,4.974,2.409,2.514,0,0,SEARCHING,0.000,0.800,-0.021,-0.064
20:31:39.264,SEARCHING,6.706,-2.466,1.024,0.00,0.00,-36.57,3.415,5.581,4.974,2.434,2.514,0,0,SEARCHING,0.000,0.800,-0.016,-0.064
20:31:39.464,SEARCHING,6.758,-2.504,1.020,0.00,0.00,-36.86,3.520,5.720,4.974,3.691,2.514,0,0,SEARCHING,0.000,0.800,0.152,-0.058
20:31:39.665,SEARCHING,6.809,-2.543,1.053,0.00,0.00,-37.12,3.520,5.720,4.974,2.311,2.600,0,0,SEARCHING,0.000,0.800,-0.058,-0.058
20:31:39.867,SEARCHING,6.860,-2.581,1.062,0.00,0.00,-37.39,3.520,5.867,4.974,3.632,2.571,0,0,SEARCHING,0.000,0.800,0.136,-0.058
20:31:40.065,SEARCHING,6.911,-2.620,1.088,0.00,0.00,-37.66,3.520,5.867,5.085,3.632,2.661,0,0,SEARCHING,0.000,0.800,0.121,-0.061
20:31:40.266,SEARCHING,6.961,-2.660,1.110,0.00,0.00,-37.93,3.575,5.867,4.868,3.520,2.692,0,0,SEARCHING,0.000,0.800,0.105,-0.052
20:31:40.466,SEARCHING,7.012,-2.699,1.132,0.00,0.00,-38.17,3.520,5.867,4.868,3.520,2.757,0,0,SEARCHING,0.000,0.800,0.094,-0.055
20:31:40.667,SEARCHING,7.062,-2.739,1.152,0.00,0.00,-38.42,3.520,3.878,4.767,3.520,2.724,0,0,SEARCHING,0.000,0.800,0.100,-0.052
20:31:40.868,SEARCHING,7.112,-2.778,1.168,0.00,0.00,-38.66,3.467,3.751,4.767,3.520,2.934,0,0,SEARCHING,0.000,0.800,0.068,-0.055
20:31:41.068,SEARCHING,7.162,-2.818,1.181,0.00,0.00,-38.92,3.467,3.691,4.767,3.415,2.896,0,0,SEARCHING,0.000,0.800,0.063,-0.055
20:31:41.269,SEARCHING,7.211,-2.859,1.193,0.00,0.00,-39.16,3.467,3.632,4.670,3.365,2.896,0,0,SEARCHING,0.000,0.800,0.058,-0.052
20:31:41.469,SEARCHING,7.261,-2.899,1.203,0.00,0.00,-39.41,3.415,3.520,4.576,3.269,2.972,0,0,SEARCHING,0.000,0.800,0.037,-0.052
20:31:41.669,SEARCHING,7.310,-2.940,1.210,0.00,0.00,-39.65,3.365,3.415,4.576,3.223,2.972,0,0,SEARCHING,0.000,0.800,0.031,-0.055
20:31:41.870,SEARCHING,7.360,-2.981,1.215,0.00,0.00,-39.90,3.415,3.365,4.576,3.051,3.051,0,0,SEARCHING,0.000,0.800,0.000,-0.052
20:31:42.069,SEARCHING,7.409,-3.022,1.216,0.00,0.00,-40.14,3.316,3.269,4.487,2.934,3.011,0,0,SEARCHING,0.000,0.800,-0.010,-0.055
20:31:42.271,SEARCHING,7.458,-3.063,1.213,0.00,0.00,-40.38,3.365,6.022,4.576,2.934,3.011,0,0,SEARCHING,0.000,0.800,-0.010,-0.055
20:31:42.470,SEARCHING,7.506,-3.105,1.210,0.00,0.00,-40.63,3.316,6.022,4.487,2.860,3.011,0,0,SEARCHING,0.000,0.800,-0.021,-0.055
20:31:42.671,SEARCHING,7.555,-3.147,1.205,0.00,0.00,-40.89,3.365,5.867,4.487,2.790,3.011,0,0,SEARCHING,0.000,0.800,-0.031,-0.052
20:31:42.871,SEARCHING,7.603,-3.189,1.198,0.00,0.00,-41.12,3.365,5.867,4.487,2.757,2.972,0,0,SEARCHING,0.000,0.800,-0.031,-0.052
20:31:43.072,SEARCHING,7.651,-3.231,1.191,0.00,0.00,-41.35,3.316,5.581,4.400,2.724,2.934,0,0,SEARCHING,0.000,0.800,-0.031,-0.052
20:31:43.273,SEARCHING,7.699,-3.273,1.184,0.00,0.00,-41.59,3.316,5.720,4.400,2.724,2.934,0,0,SEARCHING,0.000,0.800,-0.031,-0.052
20:31:43.474,SEARCHING,7.747,-3.316,1.177,0.00,0.00,-41.83,3.316,5.720,4.400,2.661,2.896,0,0,SEARCHING,0.000,0.800,-0.037,-0.052
20:31:43.674,SEARCHING,7.795,-3.358,1.169,0.00,0.00,-42.07,3.365,5.448,4.317,2.571,2.934,0,0,SEARCHING,0.000,0.800,-0.058,-0.046
20:31:43.876,SEARCHING,7.842,-3.401,1.158,0.00,0.00,-42.28,3.316,5.581,4.317,2.571,2.860,0,0,SEARCHING,0.000,0.800,-0.047,-0.049
20:31:44.077,SEARCHING,7.889,-3.445,1.148,0.00,0.00,-42.51,3.316,5.321,4.317,2.487,2.860,0,0,SEARCHING,0.000,0.800,-0.063,-0.049
20:31:44.277,SEARCHING,7.936,-3.488,1.134,0.00,0.00,-42.72,3.269,5.321,4.317,2.384,2.790,0,0,SEARCHING,0.000,0.800,-0.073,-0.052
20:31:44.478,SEARCHING,7.983,-3.531,1.120,0.00,0.00,-42.96,3.316,5.321,4.237,2.359,2.724,0,0,SEARCHING,0.000,0.800,-0.068,-0.046
20:31:44.679,SEARCHING,8.030,-3.575,1.105,0.00,0.00,-43.15,3.316,5.200,4.237,2.311,2.692,0,0,SEARCHING,0.000,0.800,-0.073,-0.046
20:31:44.880,SEARCHING,8.077,-3.619,1.089,0.00,0.00,-43.36,3.316,5.200,4.160,2.222,2.661,0,0,SEARCHING,0.000,0.800,-0.089,-0.043
20:31:45.082,SEARCHING,8.123,-3.663,1.070,0.00,0.00,-43.56,3.316,5.200,4.237,2.159,2.600,0,0,SEARCHING,0.000,0.800,-0.094,-0.046
20:31:45.282,SEARCHING,8.170,-3.707,1.052,0.00,0.00,-43.75,3.316,5.085,4.160,2.119,2.542,0,0,SEARCHING,0.000,0.800,-0.094,-0.043
20:31:45.481,SEARCHING,8.216,-3.751,1.032,0.00,0.00,-43.95,3.316,5.085,4.160,2.043,2.487,0,0,SEARCHING,0.000,0.800,-0.105,-0.043
20:31:45.681,SEARCHING,8.262,-3.796,1.010,0.00,0.00,-44.15,3.316,4.868,4.086,1.990,2.434,0,0,SEARCHING,0.000,0.800,-0.110,-0.040
20:31:45.882,SEARCHING,8.308,-3.840,0.988,0.00,0.00,-44.34,3.269,5.085,4.014,1.923,2.409,0,0,SEARCHING,0.000,0.800,-0.126,-0.040
20:31:46.083,SEARCHING,8.353,-3.885,0.964,0.00,0.00,-44.53,3.223,4.868,4.014,1.860,2.311,0,0,SEARCHING,0.000,0.800,-0.126,-0.043
20:31:46.284,SEARCHING,8.399,-3.930,0.938,0.00,0.00,-44.73,3.269,4.767,4.086,1.816,2.222,0,0,SEARCHING,0.000,0.800,-0.121,-0.043
20:31:46.484,SEARCHING,8.444,-3.975,0.915,0.00,0.00,-44.92,3.269,4.767,4.014,1.816,2.179,0,0,SEARCHING,0.000,0.800,-0.110,-0.040
20:31:46.684,SEARCHING,8.490,-4.021,0.894,0.00,0.00,-45.09,3.269,4.576,4.014,1.845,2.138,0,0,SEARCHING,0.000,0.800,-0.089,-0.040
20:31:46.885,SEARCHING,8.535,-4.066,0.878,0.00,0.00,-45.28,3.269,4.767,3.945,1.876,2.138,0,0,SEARCHING,0.000,0.800,-0.079,-0.037
20:31:47.084,SEARCHING,8.580,-4.111,0.862,0.00,0.00,-45.44,3.316,4.317,4.014,1.876,2.080,0,0,SEARCHING,0.000,0.800,-0.063,-0.037
20:31:47.285,SEARCHING,8.625,-4.157,0.901,0.00,0.00,-45.61,3.316,4.400,4.014,1.802,2.200,0,0,SEARCHING,0.000,0.800,-0.121,-0.037
20:31:47.486,SEARCHING,8.669,-4.203,0.925,0.00,0.00,-45.77,3.316,4.237,4.014,1.733,2.200,0,0,SEARCHING,0.000,0.800,-0.147,-0.037
20:31:47.686,SEARCHING,8.714,-4.249,0.945,0.00,0.00,-45.92,3.316,4.086,4.014,1.682,2.288,0,0,SEARCHING,0.000,0.800,-0.189,-0.037
20:31:47.887,SEARCHING,8.758,-4.295,0.961,0.00,0.00,-46.08,3.269,3.878,3.814,1.646,2.335,0,0,SEARCHING,0.000,0.800,-0.215,-0.031
20:31:48.087,SEARCHING,8.803,-4.341,0.974,0.00,0.00,-46.22,3.269,3.878,3.878,1.600,2.359,0,0,SEARCHING,0.000,0.800,-0.241,-0.034
20:31:48.288,SEARCHING,8.847,-4.387,0.983,0.00,0.00,-46.37,3.365,3.751,3.751,6.022,2.384,0,0,SEARCHING,0.000,0.800,0.304,-0.021
20:31:48.488,SEARCHING,8.891,-4.434,1.041,0.00,0.00,-46.47,3.365,3.691,3.575,1.439,2.661,0,0,SEARCHING,0.000,0.800,-0.383,-0.012
20:31:48.689,SEARCHING,8.935,-4.480,1.033,0.00,0.00,-46.55,3.365,3.691,3.520,5.867,2.542,0,0,SEARCHING,0.000,0.800,0.267,-0.009
20:31:48.889,SEARCHING,8.979,-4.526,1.085,0.00,0.00,-46.57,3.365,3.365,3.223,1.330,2.630,0,0,SEARCHING,0.000,0.800,-0.446,0.009
20:31:49.090,SEARCHING,9.023,-4.573,1.068,0.00,0.00,-46.55,3.365,3.467,3.178,5.720,2.600,0,0,SEARCHING,0.000,0.800,0.252,0.012
20:31:49.290,SEARCHING,9.067,-4.619,1.117,0.00,0.00,-46.50,3.365,3.269,3.134,5.720,2.724,0,0,SEARCHING,0.000,0.800,0.231,0.015
20:31:49.491,SEARCHING,9.111,-4.666,1.162,0.00,0.00,-46.43,3.365,3.223,3.092,5.581,2.825,0,0,SEARCHING,0.000,0.800,0.210,0.018
20:31:49.691,SEARCHING,9.155,-4.712,1.103,0.00,0.00,-46.35,3.316,3.134,3.011,5.720,2.661,0,0,SEARCHING,0.000,0.800,0.241,0.021
20:31:49.891,SEARCHING,9.200,-4.758,1.162,0.00,0.00,-46.26,3.178,3.051,2.972,5.448,2.896,0,0,SEARCHING,0.000,0.800,0.194,0.015
20:31:50.093,SEARCHING,9.244,-4.805,1.199,0.00,0.00,-46.17,3.223,3.178,3.011,5.448,2.972,0,0,SEARCHING,0.000,0.800,0.184,0.015
20:31:50.293,SEARCHING,9.288,-4.851,1.236,0.00,0.00,-46.12,3.092,3.178,4.317,5.321,2.972,0,0,SEARCHING,0.000,0.800,0.178,-0.064
20:31:50.492,SEARCHING,9.333,-4.897,1.272,0.00,0.00,-46.31,3.178,3.134,4.160,5.200,2.896,0,0,SEARCHING,0.000,0.800,0.184,-0.052
20:31:50.693,SEARCHING,9.377,-4.943,1.310,0.00,0.00,-46.56,3.134,4.974,4.400,5.085,2.790,0,0,SEARCHING,0.000,0.800,0.194,-0.064
20:31:50.894,SEARCHING,9.421,-4.990,1.349,0.00,0.00,-46.86,3.134,5.200,4.487,4.974,2.661,0,0,SEARCHING,0.000,0.800,0.210,-0.067
20:31:51.095,SEARCHING,9.464,-5.037,1.391,0.00,0.00,-47.16,3.134,5.448,4.400,4.868,2.571,0,0,SEARCHING,0.000,0.800,0.220,-0.064
20:31:51.295,SEARCHING,9.508,-5.084,1.437,0.00,0.00,-47.45,3.223,5.720,4.317,4.767,2.434,0,0,SEARCHING,0.000,0.800,0.241,-0.055
20:31:51.496,SEARCHING,9.551,-5.131,1.486,0.00,0.00,-47.70,3.223,5.581,4.237,4.670,2.487,0,0,SEARCHING,0.000,0.800,0.226,-0.052
20:31:51.696,SEARCHING,9.594,-5.178,1.529,0.00,0.00,-47.95,3.223,5.581,4.576,4.576,2.434,0,0,SEARCHING,0.000,0.800,0.231,-0.064
20:31:51.898,SEARCHING,9.637,-5.226,1.469,0.00,0.00,-48.25,3.223,5.448,4.487,4.670,2.384,0,0,SEARCHING,0.000,0.800,0.246,-0.061
20:31:52.098,SEARCHING,9.679,-5.274,1.532,0.00,0.00,-48.53,3.178,5.448,4.487,4.576,2.359,0,0,SEARCHING,0.000,0.800,0.246,-0.064
20:31:52.300,SEARCHING,9.721,-5.322,1.581,0.00,0.00,-48.82,3.134,5.448,4.317,4.487,2.288,0,0,SEARCHING,0.000,0.800,0.257,-0.061
20:31:52.501,SEARCHING,9.759,-5.368,1.624,-4.50,6.84,-48.79,3.178,5.200,4.868,4.400,2.359,0,0,SEARCHING,0.000,0.800,0.236,-0.076
20:31:52.701,SEARCHING,9.770,-5.400,1.660,-27.42,27.50,-49.20,2.434,3.092,4.576,3.316,2.409,0,0,SEARCHING,0.000,0.800,0.136,-0.135
20:31:52.904,SEARCHING,9.778,-5.436,1.690,-43.67,36.85,-46.43,2.288,2.384,2.757,2.384,2.335,0,0,SEARCHING,0.000,0.800,0.010,-0.052
20:31:53.103,SEARCHING,9.805,-5.472,1.693,-48.35,40.00,-37.97,2.007,2.434,2.409,2.434,2.266,0,0,SEARCHING,0.000,0.800,0.037,-0.058
20:31:53.303,SEARCHING,9.852,-5.509,1.700,-49.77,40.74,-36.05,1.973,2.409,2.384,2.409,2.222,0,0,SEARCHING,0.000,0.800,0.042,-0.061
20:31:53.503,SEARCHING,9.904,-5.547,1.708,-49.77,40.74,-36.33,1.956,2.384,2.359,2.384,2.243,0,0,SEARCHING,0.000,0.800,0.031,-0.061
20:31:53.703,SEARCHING,9.955,-5.585,1.713,-49.77,40.74,-36.61,1.939,2.311,2.311,2.311,2.243,0,0,SEARCHING,0.000,0.800,0.016,-0.058
20:31:53.904,SEARCHING,10.006,-5.623,1.716,-49.77,40.74,-36.87,1.939,2.266,2.266,2.266,2.222,0,0,SEARCHING,0.000,0.800,0.010,-0.052
20:31:54.104,SEARCHING,10.058,-5.662,1.717,-49.77,40.74,-37.10,1.939,2.222,2.222,2.222,2.159,0,0,SEARCHING,0.000,0.800,0.016,-0.046
20:31:54.305,SEARCHING,10.109,-5.701,1.721,-49.77,40.74,-37.31,1.923,2.179,2.222,2.179,2.119,0,0,SEARCHING,0.000,0.800,0.016,-0.049
20:31:54.506,SEARCHING,10.159,-5.739,1.724,-49.77,40.74,-37.53,1.907,2.099,2.179,2.099,2.025,0,0,SEARCHING,0.000,0.800,0.021,-0.046
20:31:55.700,SEARCHING,10.197,-5.769,1.728,-49.77,40.74,-37.69,1.907,2.080,2.179,2.080,2.007,0,0,SEARCHING,0.000,0.800,0.021,-0.046
20:31:55.765,SEARCHING,10.235,-5.798,1.732,-49.77,40.74,-37.85,1.891,2.061,2.200,2.061,1.973,0,0,SEARCHING,0.000,0.800,0.026,-0.052
20:31:55.943,SEARCHING,10.286,-5.837,1.738,-49.77,40.74,-38.09,1.891,1.990,2.200,1.990,1.891,0,0,SEARCHING,0.000,0.800,0.031,-0.052
20:31:56.142,SEARCHING,10.336,-5.877,1.745,-49.77,40.74,-38.32,1.876,1.956,2.222,1.956,1.831,0,0,SEARCHING,0.000,0.800,0.042,-0.058
20:31:56.342,SEARCHING,10.386,-5.917,1.754,-49.77,40.74,-38.60,1.860,1.907,2.266,1.907,1.774,0,0,SEARCHING,0.000,0.800,0.047,-0.067
20:31:56.542,SEARCHING,10.436,-5.957,1.763,-49.77,40.74,-38.93,1.845,1.860,2.311,1.860,1.733,0,0,SEARCHING,0.000,0.800,0.047,-0.076
20:31:56.743,SEARCHING,10.486,-5.997,1.773,-49.77,40.74,-39.28,1.845,1.816,2.335,1.816,1.708,0,0,SEARCHING,0.000,0.800,0.042,-0.080
20:31:56.944,SEARCHING,10.535,-6.038,1.782,-49.77,40.74,-39.64,1.831,1.774,2.335,1.774,1.658,0,0,SEARCHING,0.000,0.800,0.047,-0.083
20:31:57.145,SEARCHING,10.585,-6.079,1.791,-49.77,40.74,-40.03,1.788,1.733,2.359,1.733,1.623,0,0,SEARCHING,0.000,0.800,0.047,-0.095
20:31:57.345,SEARCHING,10.633,-6.120,1.801,-49.77,40.74,-40.49,1.720,1.695,2.409,1.695,1.589,0,0,SEARCHING,0.000,0.800,0.047,-0.116
20:31:57.545,SEARCHING,10.682,-6.162,1.810,-49.77,40.74,-41.05,1.646,1.634,2.434,1.634,1.546,0,0,SEARCHING,0.000,0.800,0.042,-0.138
20:31:57.746,SEARCHING,10.730,-6.204,1.819,-49.77,40.74,-41.70,1.589,1.611,2.434,1.611,1.505,0,0,SEARCHING,0.000,0.800,0.052,-0.153
20:31:57.946,SEARCHING,10.778,-6.247,1.831,-49.77,40.73,-42.42,1.546,1.623,2.460,1.623,1.457,0,0,SEARCHING,0.000,0.800,0.084,-0.168
20:31:58.148,SEARCHING,10.825,-6.290,1.850,-49.76,40.73,-43.22,1.505,1.658,2.487,1.658,1.421,0,0,SEARCHING,0.000,0.800,0.121,-0.184
20:31:58.348,SEARCHING,10.871,-6.334,1.877,-49.76,40.73,-44.08,1.467,1.708,2.600,1.708,1.404,0,0,SEARCHING,0.000,0.800,0.152,-0.208
20:31:58.548,SEARCHING,10.917,-6.379,1.908,-49.76,40.73,-45.06,1.421,1.747,2.692,1.747,1.439,0,0,SEARCHING,0.000,0.800,0.147,-0.232
20:31:58.748,SEARCHING,10.962,-6.425,1.937,-49.76,40.73,-46.15,1.387,1.816,2.790,1.816,1.486,0,0,SEARCHING,0.000,0.800,0.147,-0.254
20:31:58.949,SEARCHING,11.006,-6.471,1.966,-49.76,40.73,-47.34,1.387,1.860,2.896,1.860,1.536,0,0,SEARCHING,0.000,0.800,0.136,-0.263
20:31:59.149,SEARCHING,11.049,-6.519,1.994,-49.76,40.73,-48.54,1.421,1.923,2.972,1.923,1.567,0,0,SEARCHING,0.000,0.800,0.142,-0.257
20:31:59.350,SEARCHING,11.091,-6.567,2.022,-49.76,40.73,-49.70,1.457,1.956,2.896,1.956,1.611,0,0,SEARCHING,0.000,0.800,0.131,-0.239
20:31:59.550,SEARCHING,11.132,-6.616,2.047,-49.75,40.73,-50.78,1.486,2.007,2.860,2.007,1.646,0,0,SEARCHING,0.000,0.800,0.131,-0.226
20:31:59.750,SEARCHING,11.172,-6.666,2.074,-49.75,40.73,-51.80,1.525,2.043,2.825,2.043,1.682,0,0,SEARCHING,0.000,0.800,0.126,-0.211
20:31:59.950,SEARCHING,11.211,-6.716,2.099,-49.75,40.73,-52.76,1.557,2.099,2.825,2.099,1.720,0,0,SEARCHING,0.000,0.800,0.126,-0.202
20:32:00.151,SEARCHING,11.249,-6.768,2.124,-49.75,40.73,-53.68,1.600,2.138,2.790,2.138,1.760,0,0,SEARCHING,0.000,0.800,0.121,-0.187
20:32:00.353,SEARCHING,11.287,-6.819,2.147,-49.75,40.73,-54.52,1.623,2.179,2.790,2.179,1.788,0,0,SEARCHING,0.000,0.800,0.121,-0.180
20:32:00.554,SEARCHING,11.324,-6.872,2.171,-49.75,40.73,-55.34,1.658,2.222,2.757,2.222,1.831,0,0,SEARCHING,0.000,0.800,0.115,-0.168
20:32:00.759,SEARCHING,11.360,-6.925,2.195,-49.75,40.73,-56.10,1.682,2.266,2.724,2.266,1.876,0,0,SEARCHING,0.000,0.800,0.110,-0.159
20:32:00.957,SEARCHING,11.396,-6.978,2.217,-49.75,40.73,-56.81,1.708,2.335,2.692,2.335,1.891,0,0,SEARCHING,0.000,0.800,0.121,-0.150
20:32:01.156,SEARCHING,11.430,-7.032,2.241,-49.75,40.73,-57.49,1.733,2.630,2.692,2.630,1.939,0,0,SEARCHING,0.000,0.800,0.163,-0.144
20:32:01.355,SEARCHING,11.464,-7.086,2.274,-49.75,40.73,-58.12,1.788,2.692,2.630,2.692,1.973,0,0,SEARCHING,0.000,0.800,0.163,-0.125
20:32:01.556,SEARCHING,11.498,-7.140,2.306,-49.75,40.73,-58.68,1.831,2.630,2.600,2.630,2.007,0,0,SEARCHING,0.000,0.800,0.142,-0.113
20:32:01.755,SEARCHING,11.531,-7.195,2.332,-49.75,40.73,-59.18,1.860,2.542,2.542,2.542,2.061,0,0,SEARCHING,0.000,0.800,0.110,-0.101
20:32:01.956,SEARCHING,11.564,-7.250,2.353,-49.75,40.73,-59.63,1.891,2.514,2.514,2.514,2.099,0,0,SEARCHING,0.000,0.800,0.094,-0.092
20:32:02.157,SEARCHING,11.596,-7.305,2.372,-49.75,40.73,-60.05,1.923,2.460,2.514,2.460,2.138,0,0,SEARCHING,0.000,0.800,0.073,-0.086
20:32:02.358,SEARCHING,11.628,-7.361,2.384,-49.75,40.73,-60.44,1.939,2.434,2.542,2.434,2.600,0,0,SEARCHING,0.000,0.800,-0.031,-0.086
20:32:02.558,SEARCHING,11.659,-7.417,2.375,-49.75,40.73,-60.84,1.923,2.384,2.571,2.384,2.630,0,0,SEARCHING,0.000,0.800,-0.047,-0.092
20:32:02.758,SEARCHING,11.690,-7.473,2.365,-49.75,40.73,-61.27,1.923,2.335,2.661,2.335,2.661,0,0,SEARCHING,0.000,0.800,-0.063,-0.101
20:32:02.959,SEARCHING,11.721,-7.529,2.353,-49.75,40.73,-61.72,2.119,2.311,2.724,2.311,2.630,0,0,SEARCHING,0.000,0.800,-0.063,-0.073
20:32:03.159,SEARCHING,11.751,-7.585,2.339,-49.75,40.73,-62.07,2.119,2.266,2.860,2.266,2.630,0,0,SEARCHING,0.000,0.800,-0.073,-0.086
20:32:03.360,SEARCHING,11.781,-7.642,2.324,-49.75,40.73,-62.46,2.159,2.222,2.934,2.222,2.600,0,0,SEARCHING,0.000,0.800,-0.079,-0.086
20:32:03.560,SEARCHING,11.810,-7.699,2.308,-49.75,40.73,-62.86,2.159,2.159,3.011,2.159,2.542,0,0,SEARCHING,0.000,0.800,-0.084,-0.092
20:32:03.762,SEARCHING,11.839,-7.756,2.291,-49.75,40.73,-63.29,2.179,2.119,3.134,2.119,2.514,0,0,SEARCHING,0.000,0.800,-0.089,-0.098
20:32:03.963,SEARCHING,11.868,-7.813,2.273,-49.75,40.73,-63.75,2.159,2.061,3.316,2.061,2.487,0,0,SEARCHING,0.000,0.800,-0.100,-0.113
20:32:04.168,SEARCHING,11.896,-7.870,2.252,-49.74,40.73,-64.31,2.080,2.025,3.575,2.025,2.487,0,0,SEARCHING,0.000,0.800,-0.110,-0.141
20:32:04.368,SEARCHING,11.924,-7.928,2.231,-49.74,40.73,-64.98,2.007,1.990,3.751,1.990,2.460,0,0,SEARCHING,0.000,0.800,-0.115,-0.162
20:32:04.569,SEARCHING,11.950,-7.986,2.208,-49.74,40.73,-65.74,1.956,1.973,3.945,1.973,2.409,0,0,SEARCHING,0.000,0.800,-0.110,-0.180
20:32:04.768,SEARCHING,11.976,-8.045,2.185,-49.74,40.73,-66.58,1.907,1.956,4.487,1.956,2.384,0,0,SEARCHING,0.000,0.800,-0.110,-0.211
20:32:04.969,SEARCHING,12.001,-8.104,2.165,-49.74,40.73,-67.60,1.845,2.080,5.200,2.080,2.359,0,0,SEARCHING,0.000,0.800,-0.068,-0.245
20:32:05.169,SEARCHING,12.025,-8.163,2.155,-49.74,40.72,-68.73,1.802,2.266,5.085,2.266,2.359,0,0,SEARCHING,0.000,0.800,-0.021,-0.251
20:32:05.370,SEARCHING,12.048,-8.223,2.154,-49.74,40.72,-69.90,1.747,2.409,5.200,2.409,2.359,0,0,SEARCHING,0.000,0.800,0.010,-0.266
20:32:05.570,SEARCHING,12.070,-8.283,2.159,-49.74,40.72,-71.12,1.695,2.600,5.085,2.600,2.335,0,0,SEARCHING,0.000,0.800,0.052,-0.275
20:32:05.771,SEARCHING,12.090,-8.344,2.170,-49.74,40.72,-72.40,1.646,2.825,5.200,2.825,2.359,0,0,SEARCHING,0.000,0.800,0.084,-0.291
20:32:05.971,SEARCHING,12.109,-8.405,2.189,-49.73,40.72,-73.74,1.695,3.092,5.321,3.092,2.434,0,0,SEARCHING,0.000,0.800,0.105,-0.281
20:32:06.175,SEARCHING,12.126,-8.467,2.212,-49.73,40.72,-74.92,1.760,3.269,3.878,3.269,2.487,0,0,SEARCHING,0.000,0.800,0.115,-0.217
20:32:06.377,SEARCHING,12.142,-8.529,2.234,-49.73,40.72,-75.85,1.831,3.316,3.223,3.316,2.630,0,0,SEARCHING,0.000,0.800,0.094,-0.165
20:32:06.576,SEARCHING,12.158,-8.591,2.252,-49.73,40.72,-76.53,1.973,3.415,3.051,3.415,2.724,0,0,SEARCHING,0.000,0.800,0.089,-0.125
20:32:06.777,SEARCHING,12.172,-8.653,2.269,-49.73,40.72,-77.07,2.007,3.415,2.757,3.415,2.790,0,0,SEARCHING,0.000,0.800,0.079,-0.095
20:32:06.980,SEARCHING,12.187,-8.715,2.285,-49.73,40.72,-77.46,2.119,3.520,2.630,3.520,2.790,0,0,SEARCHING,0.000,0.800,0.089,-0.064
20:32:07.181,SEARCHING,12.200,-8.778,2.303,-49.73,40.72,-77.74,2.179,3.575,2.542,3.575,2.825,0,0,SEARCHING,0.000,0.800,0.089,-0.046
20:32:07.382,SEARCHING,12.214,-8.840,2.320,-49.73,40.72,-77.94,2.222,3.632,2.514,3.632,2.860,0,0,SEARCHING,0.000,0.800,0.089,-0.037
20:32:07.583,SEARCHING,12.227,-8.903,2.338,-49.73,40.72,-78.09,2.266,3.632,2.460,3.632,2.896,0,0,SEARCHING,0.000,0.800,0.084,-0.024
20:32:07.784,SEARCHING,12.240,-8.966,2.355,-49.73,40.72,-78.19,2.335,3.691,2.409,3.691,2.896,0,0,SEARCHING,0.000,0.800,0.089,-0.009
20:32:07.984,SEARCHING,12.253,-9.028,2.373,-49.73,40.72,-78.20,2.434,3.751,2.311,3.751,2.934,0,0,SEARCHING,0.000,0.800,0.089,0.015
20:32:08.183,SEARCHING,12.266,-9.091,2.391,-49.73,40.72,-78.12,2.434,3.751,2.266,3.751,2.934,0,0,SEARCHING,0.000,0.800,0.089,0.021
20:32:08.384,SEARCHING,12.280,-9.154,2.408,-49.73,40.72,-78.02,2.460,3.814,2.222,3.814,2.972,0,0,SEARCHING,0.000,0.800,0.089,0.031
20:32:08.585,SEARCHING,12.293,-9.216,2.426,-49.73,40.72,-77.88,2.487,3.814,2.200,3.814,3.011,0,0,SEARCHING,0.000,0.800,0.084,0.037
20:32:08.785,SEARCHING,12.307,-9.279,2.443,-49.73,40.72,-77.70,2.571,3.878,2.159,3.878,3.011,0,0,SEARCHING,0.000,0.800,0.089,0.052
20:32:08.985,SEARCHING,12.320,-9.341,2.459,-49.73,40.72,-77.46,2.571,3.878,2.138,3.878,3.051,0,0,SEARCHING,0.000,0.800,0.084,0.055
20:32:09.183,SEARCHING,12.334,-9.404,2.477,-49.73,40.72,-77.20,2.600,3.945,2.099,3.945,3.051,0,0,SEARCHING,0.000,0.800,0.089,0.064
20:32:09.383,SEARCHING,12.349,-9.466,2.494,-49.73,40.72,-76.90,2.600,3.878,2.061,3.878,3.134,0,0,SEARCHING,0.000,0.800,0.073,0.070
20:32:09.584,SEARCHING,12.363,-9.528,2.509,-49.73,40.72,-76.57,2.571,4.014,2.007,4.014,3.223,0,0,SEARCHING,0.000,0.800,0.073,0.076
