timestamp,state,x,y,z,roll_deg,pitch_deg,yaw_deg,dist_left,dist_center,dist_right,dist_top,dist_bottom,dtof_alert,collision_event,best_dir,max_space,cmd_vx,cmd_vz,cmd_yaw
19:37:00.879,SEARCHING,0.032,0.000,1.000,0.00,0.00,0.00,10.000,10.000,10.000,10.000,10.000,0,0,SEARCHING,10.000,0.800,0.030,0.000
19:37:01.122,SEARCHING,0.192,0.000,1.000,0.00,0.00,0.00,1.054,0.986,3.415,0.982,0.986,0,0,SEARCHING,0.982,0.316,-0.010,-0.328
19:37:01.431,SEARCHING,0.304,-0.000,1.000,0.00,0.00,-1.88,0.930,0.877,1.105,0.873,0.873,0,0,SEARCHING,0.873,0.281,0.000,-0.085
19:37:01.737,INSPECTING,0.378,-0.004,1.000,0.00,0.00,-3.86,0.795,0.795,3.134,0.789,0.792,0,0,SEARCHING,0.789,0.000,0.000,0.000
19:37:02.069,INSPECTING,0.444,-0.010,1.000,0.00,0.00,-7.86,0.689,0.729,2.825,0.733,0.729,0,0,RIGHT,2.825,0.150,0.000,-1.100
19:37:02.228,INSPECTING,0.449,-0.011,1.000,0.00,0.00,-8.38,0.650,0.743,2.630,0.738,0.741,0,0,RIGHT,2.630,0.150,0.000,-1.100
19:37:02.533,INSPECTING,0.485,-0.021,1.000,0.00,0.00,-24.14,0.683,2.724,1.600,2.692,2.434,0,0,TOP,2.692,0.150,1.000,0.000
19:37:02.822,SEARCHING,0.517,-0.041,1.000,0.00,0.00,-39.89,2.222,1.600,1.271,1.589,1.600,0,0,SEARCHING,1.271,0.512,-0.010,0.337
19:37:02.990,SEARCHING,0.548,-0.073,1.000,0.00,0.00,-48.72,2.061,1.546,1.230,1.546,1.546,0,0,SEARCHING,1.230,0.495,0.000,0.328
19:37:03.191,SEARCHING,0.696,-0.213,1.000,0.00,0.00,-38.79,2.896,1.589,1.192,1.578,1.589,0,0,SEARCHING,1.192,0.508,-0.010,0.494
19:37:03.391,SEARCHING,0.778,-0.273,1.000,0.00,0.00,-33.20,3.092,1.646,1.186,1.634,1.634,0,0,SEARCHING,1.186,0.527,0.000,0.520
19:37:03.589,SEARCHING,0.868,-0.326,1.000,0.00,0.00,-27.27,3.365,1.816,1.230,1.802,1.816,0,0,SEARCHING,1.230,0.581,-0.010,0.516
19:37:03.791,SEARCHING,0.978,-0.376,1.000,0.00,0.00,-21.32,4.086,2.460,1.285,2.460,2.434,0,0,SEARCHING,1.285,0.787,0.010,0.533
19:37:03.988,SEARCHING,1.124,-0.425,1.000,0.00,0.00,-15.21,5.581,2.825,1.346,2.790,2.460,0,0,SEARCHING,1.346,0.800,0.106,0.564
19:37:04.195,SEARCHING,1.280,-0.459,1.000,0.00,0.00,-9.18,5.321,2.934,1.845,2.934,2.487,0,0,SEARCHING,1.845,0.800,0.135,0.354
19:37:04.395,SEARCHING,1.439,-0.479,1.000,0.00,0.00,-5.03,4.767,3.316,2.179,3.316,2.460,0,0,SEARCHING,2.179,0.800,0.231,0.249
19:37:04.585,SEARCHING,1.598,-0.489,1.000,0.00,0.00,-2.02,4.317,3.691,2.119,3.632,2.460,0,0,SEARCHING,2.119,0.800,0.288,0.240
19:37:04.797,SEARCHING,1.758,-0.491,1.000,0.00,0.00,0.71,4.014,3.945,2.025,3.575,2.460,0,0,SEARCHING,2.025,0.800,0.279,0.245
19:37:04.994,SEARCHING,1.918,-0.486,1.000,0.00,0.00,3.35,3.691,6.934,2.159,6.022,2.434,0,0,SEARCHING,2.159,0.800,0.538,0.192
19:37:05.195,SEARCHING,2.078,-0.474,1.000,0.00,0.00,5.61,3.415,6.184,2.288,6.022,2.434,0,0,SEARCHING,2.288,0.800,0.538,0.144
19:37:05.399,SEARCHING,2.237,-0.456,1.000,0.00,0.00,7.31,3.269,5.581,2.359,5.581,2.487,0,0,SEARCHING,2.359,0.800,0.490,0.118
19:37:05.595,SEARCHING,2.395,-0.434,1.000,0.00,0.00,8.64,3.134,5.085,2.487,5.200,2.434,0,0,SEARCHING,2.434,0.800,0.481,0.083
19:37:05.805,SEARCHING,2.553,-0.408,1.000,0.00,0.00,9.58,2.972,4.868,2.542,4.868,2.335,0,0,SEARCHING,2.335,0.800,0.490,0.057
19:37:06.004,SEARCHING,2.711,-0.381,1.000,0.00,0.00,10.25,2.896,4.670,2.542,4.767,2.434,0,0,SEARCHING,2.434,0.800,0.442,0.000
19:37:06.198,SEARCHING,2.868,-0.352,1.000,0.00,0.00,10.43,2.790,4.576,2.460,4.576,2.460,0,0,SEARCHING,2.460,0.800,0.413,0.000
19:37:06.400,SEARCHING,3.026,-0.323,1.000,0.00,0.00,10.01,2.790,4.487,6.022,4.487,2.460,0,0,SEARCHING,2.460,0.800,0.404,-0.192
19:37:06.595,SEARCHING,3.184,-0.298,1.000,0.00,0.00,7.91,2.860,4.670,4.160,4.670,2.434,0,0,SEARCHING,2.434,0.800,0.433,-0.109
19:37:06.797,SEARCHING,3.342,-0.278,1.000,0.00,0.00,6.48,2.896,4.767,4.086,4.868,2.409,0,0,SEARCHING,2.409,0.800,0.462,-0.101
19:37:06.995,SEARCHING,3.501,-0.261,1.000,0.00,0.00,5.32,2.934,4.868,3.814,4.868,2.434,0,0,SEARCHING,2.434,0.800,0.452,-0.079
19:37:07.200,SEARCHING,3.661,-0.248,1.000,0.00,0.00,4.42,2.934,4.974,3.691,4.974,2.460,0,0,SEARCHING,2.460,0.800,0.452,-0.070
19:37:07.398,SEARCHING,3.820,-0.236,1.000,0.00,0.00,3.65,2.896,5.085,3.632,5.085,2.434,0,0,SEARCHING,2.434,0.800,0.471,-0.070
19:37:07.599,SEARCHING,3.980,-0.227,1.000,0.00,0.00,2.84,2.825,5.085,3.520,5.200,2.460,0,0,SEARCHING,2.460,0.800,0.471,-0.070
19:37:07.800,SEARCHING,4.140,-0.220,1.000,0.00,0.00,2.02,2.825,5.200,3.467,5.200,2.243,0,0,SEARCHING,2.243,0.800,0.558,-0.066
19:37:08.003,SEARCHING,4.300,-0.215,1.000,0.00,0.00,1.22,2.825,5.321,3.365,5.321,2.460,0,0,SEARCHING,2.460,0.800,0.481,-0.057
19:37:08.217,SEARCHING,4.460,-0.213,1.000,0.00,0.00,0.53,2.790,5.321,3.316,5.321,2.460,0,0,SEARCHING,2.460,0.800,0.481,-0.057
19:37:08.401,SEARCHING,4.620,-0.212,1.000,0.00,0.00,-0.11,2.825,5.321,3.269,5.200,2.487,0,0,SEARCHING,2.487,0.800,0.462,0.000
19:37:08.601,SEARCHING,4.780,-0.213,1.000,0.00,0.00,-0.11,2.757,5.085,3.316,5.085,2.434,0,0,SEARCHING,2.434,0.800,0.471,-0.061
19:37:08.817,SEARCHING,4.940,-0.213,1.000,0.00,0.00,-0.61,2.757,4.974,3.316,4.974,2.434,0,0,SEARCHING,2.434,0.800,0.462,-0.061
19:37:09.002,SEARCHING,5.100,-0.216,1.000,0.00,0.00,-1.32,2.790,4.974,3.269,4.974,2.460,0,0,SEARCHING,2.460,0.800,0.452,-0.052
19:37:09.201,SEARCHING,5.260,-0.220,1.000,0.00,0.00,-1.82,2.757,4.868,3.223,4.868,2.434,0,0,SEARCHING,2.434,0.800,0.452,-0.052
19:37:09.404,SEARCHING,5.420,-0.226,1.000,0.00,0.00,-2.12,2.724,4.868,3.269,4.767,2.409,0,0,SEARCHING,2.409,0.800,0.452,-0.061
19:37:09.627,SEARCHING,5.580,-0.232,1.000,0.00,0.00,-2.61,2.757,4.767,3.269,4.670,2.409,0,0,SEARCHING,2.409,0.800,0.442,-0.057
19:37:09.810,SEARCHING,5.739,-0.239,1.000,0.00,0.00,3.74,2.630,4.487,0.291,4.487,2.460,0,0,SEARCHING,0.291,0.800,0.404,3.059
19:37:10.015,SEARCHING,5.895,-0.210,1.000,0.00,0.00,20.58,1.760,2.487,4.160,2.487,2.434,0,0,SEARCHING,1.760,0.796,0.019,-0.328
19:37:10.210,SEARCHING,6.046,-0.158,1.000,0.00,0.00,16.90,1.747,2.571,4.160,2.542,2.460,0,0,SEARCHING,1.747,0.800,0.029,-0.332
19:37:10.419,SEARCHING,6.201,-0.116,1.000,0.00,0.00,13.08,1.747,2.724,4.400,2.757,2.460,0,0,SEARCHING,1.747,0.800,0.096,-0.345
19:37:10.619,SEARCHING,6.358,-0.085,1.000,0.00,0.00,9.17,1.802,2.972,4.868,2.972,2.460,0,0,SEARCHING,1.802,0.800,0.154,-0.350
19:37:10.807,SEARCHING,6.516,-0.064,1.000,0.00,0.00,5.18,1.860,3.365,6.022,3.365,2.434,0,0,SEARCHING,1.860,0.800,0.250,-0.371
19:37:11.026,SEARCHING,6.676,-0.055,1.000,0.00,0.00,0.91,1.990,3.365,7.890,3.365,2.460,0,0,SEARCHING,1.990,0.800,0.240,-0.376
19:37:11.218,SEARCHING,6.836,-0.058,1.000,0.00,0.00,-3.50,2.222,3.520,8.172,3.520,2.460,0,0,SEARCHING,2.222,0.800,0.269,-0.328
19:37:11.417,SEARCHING,6.996,-0.055,1.000,0.00,0.00,0.73,1.973,3.051,8.172,3.051,2.434,0,0,SEARCHING,1.973,0.800,0.183,-0.385
19:37:11.613,SEARCHING,7.156,-0.059,1.000,0.00,0.00,-3.70,2.159,3.316,0.264,3.316,2.384,0,0,SEARCHING,0.264,0.800,0.260,3.321
19:37:11.811,SEARCHING,7.314,-0.051,1.000,0.00,0.00,13.33,1.457,2.311,3.365,2.311,2.311,0,0,SEARCHING,1.457,0.740,0.000,-0.389
19:37:12.022,SEARCHING,7.464,-0.021,1.000,0.00,0.00,9.09,1.515,2.514,3.632,2.487,2.460,0,0,SEARCHING,1.515,0.800,0.010,-0.385
19:37:12.219,SEARCHING,7.620,-0.001,1.000,0.00,0.00,4.69,1.578,2.409,3.878,2.409,2.384,0,0,SEARCHING,1.578,0.771,0.010,-0.376
19:37:12.425,SEARCHING,7.775,0.006,1.000,0.00,0.00,0.16,1.708,2.434,7.890,2.434,2.434,0,0,SEARCHING,1.708,0.779,0.000,-0.459
19:37:12.620,SEARCHING,7.931,0.000,1.000,0.00,0.00,-5.07,1.956,2.692,0.249,2.692,2.460,0,0,SEARCHING,0.249,0.800,0.077,3.501
19:37:12.817,SEARCHING,8.089,0.006,1.000,0.00,0.00,21.62,1.387,1.990,2.972,1.990,1.990,0,0,SEARCHING,1.387,0.637,0.000,-0.385
19:37:13.014,SEARCHING,8.199,0.070,1.000,0.00,0.00,30.53,0.949,1.264,1.788,1.278,1.264,0,0,SEARCHING,0.949,0.405,0.019,-0.494
19:37:13.229,SEARCHING,8.272,0.108,1.000,0.00,0.00,24.94,0.953,1.323,1.760,1.315,1.308,0,0,SEARCHING,0.953,0.423,0.010,-0.481
19:37:13.442,SEARCHING,8.349,0.140,1.000,0.00,0.00,19.41,0.974,1.430,1.802,1.439,1.439,0,0,SEARCHING,0.974,0.458,0.000,-0.472
19:37:13.620,SEARCHING,8.436,0.167,1.000,0.00,0.00,14.01,1.012,1.536,1.956,1.567,1.567,0,0,SEARCHING,1.012,0.491,0.000,-0.476
19:37:13.826,SEARCHING,8.531,0.186,1.000,0.00,0.00,8.55,1.059,1.496,2.159,1.486,1.496,0,0,SEARCHING,1.059,0.479,-0.010,-0.481
19:37:14.026,SEARCHING,8.626,0.196,1.000,0.00,0.00,3.08,1.156,1.457,2.571,1.457,1.457,0,0,SEARCHING,1.156,0.466,0.000,-0.476
19:37:14.246,SEARCHING,8.720,0.197,1.000,0.00,0.00,-2.30,1.257,1.557,6.730,1.546,1.557,0,0,SEARCHING,1.257,0.498,-0.010,-0.647
19:37:14.427,SEARCHING,8.819,0.190,1.000,0.00,0.00,0.83,1.105,1.682,0.231,1.670,1.646,0,0,SEARCHING,0.231,0.538,0.019,3.431
19:37:14.667,SEARCHING,8.913,0.219,1.000,0.00,0.00,31.53,0.702,0.930,1.100,0.930,0.938,0,0,SEARCHING,0.702,0.298,-0.019,-0.258
19:37:14.984,SEARCHING,8.972,0.253,1.000,0.00,0.00,27.42,0.693,0.942,1.064,0.934,0.938,0,0,SEARCHING,0.693,0.301,-0.010,-0.251
19:37:15.301,SEARCHING,9.039,0.285,1.000,0.00,0.00,23.76,0.681,0.953,1.017,0.946,0.946,0,0,SEARCHING,0.681,0.305,0.000,-0.243
19:37:15.491,SEARCHING,9.067,0.297,1.000,0.00,0.00,22.32,0.671,0.949,0.995,0.953,0.949,0,0,SEARCHING,0.671,0.304,0.010,-0.243
19:37:15.873,SEARCHING,9.123,0.318,1.000,0.00,0.00,19.49,0.663,0.857,0.995,0.851,0.860,0,0,SEARCHING,0.663,0.274,-0.029,-0.251
19:37:16.048,INSPECTING,9.166,0.333,1.000,0.00,0.00,17.41,0.661,0.795,0.995,0.792,0.797,0,0,SEARCHING,0.661,0.000,0.000,0.000
19:37:16.217,INSPECTING,9.224,0.350,1.000,0.00,0.00,14.59,0.667,0.743,0.991,0.738,0.743,0,0,RIGHT,0.991,0.150,0.000,-1.100
19:37:16.390,INSPECTING,9.266,0.360,1.000,0.00,0.00,12.44,0.669,0.691,1.022,0.685,0.691,0,0,RIGHT,1.022,0.150,0.000,-1.100
19:37:16.728,INSPECTING,9.334,0.373,1.000,0.00,0.00,6.58,0.601,0.797,1.505,0.795,0.800,0,0,RIGHT,1.505,0.150,0.000,-1.100
19:37:16.934,SEARCHING,9.356,0.374,1.000,0.00,0.00,-2.88,0.632,1.084,5.720,1.074,1.045,0,0,RIGHT,5.720,0.150,0.000,-1.100
19:37:17.113,SEARCHING,9.393,0.367,1.000,0.00,0.00,-18.63,0.995,5.867,8.172,6.022,2.359,0,0,SEARCHING,0.995,0.800,0.567,-0.883
19:37:17.288,SEARCHING,9.420,0.355,1.000,0.00,0.00,-31.24,1.891,7.151,4.974,3.415,2.460,0,0,SEARCHING,1.891,0.800,0.250,-0.328
19:37:17.467,SEARCHING,9.483,0.296,1.000,0.00,0.00,-50.26,6.730,6.022,2.661,3.178,2.460,0,0,SEARCHING,2.460,0.800,0.202,0.227
19:37:17.639,SEARCHING,9.611,0.101,1.000,0.00,0.00,-60.27,7.151,5.085,2.359,3.134,2.460,0,0,SEARCHING,2.359,0.800,0.192,0.284
19:37:17.842,SEARCHING,9.781,-0.170,1.000,0.00,0.00,-54.80,7.151,5.200,2.311,5.085,2.434,0,0,SEARCHING,2.311,0.800,0.471,0.293
19:37:18.043,SEARCHING,9.876,-0.298,1.000,0.00,0.00,-51.42,7.151,5.321,2.311,5.321,2.434,0,0,SEARCHING,2.311,0.800,0.490,0.293
19:37:18.240,SEARCHING,9.979,-0.421,1.000,0.00,0.00,-48.42,7.381,6.538,3.878,5.321,2.460,0,0,SEARCHING,2.460,0.800,0.481,0.122
19:37:18.438,SEARCHING,10.087,-0.539,1.000,0.00,0.00,-47.05,7.627,6.934,3.878,6.022,2.460,0,0,SEARCHING,2.460,0.800,0.529,0.127
19:37:18.638,SEARCHING,10.197,-0.655,1.000,0.00,0.00,-45.65,6.356,7.151,3.814,6.022,2.409,0,0,SEARCHING,2.409,0.800,0.548,0.105
19:37:18.837,SEARCHING,10.310,-0.768,1.000,0.00,0.00,-44.43,6.356,6.934,3.814,6.022,2.434,0,0,SEARCHING,2.434,0.800,0.538,0.105
19:37:19.038,SEARCHING,10.425,-0.879,1.000,0.00,0.00,-43.28,6.022,6.730,3.878,6.022,2.434,0,0,SEARCHING,2.434,0.800,0.538,0.092
19:37:19.239,SEARCHING,10.543,-0.988,1.000,0.00,0.00,-42.23,6.184,6.730,3.814,5.867,2.434,0,0,SEARCHING,2.434,0.800,0.529,0.101
19:37:19.450,SEARCHING,10.662,-1.095,1.000,0.00,0.00,-41.15,6.356,6.356,3.878,6.022,2.434,0,0,SEARCHING,2.434,0.800,0.538,0.101
19:37:19.637,SEARCHING,10.783,-1.199,1.000,0.00,0.00,-40.03,5.867,6.730,3.751,6.022,2.434,0,0,SEARCHING,2.434,0.800,0.538,0.096
19:37:19.841,SEARCHING,10.907,-1.301,1.000,0.00,0.00,-38.94,5.720,6.730,3.878,6.022,2.384,0,0,SEARCHING,2.384,0.800,0.558,0.083
19:37:20.047,SEARCHING,11.032,-1.400,1.000,0.00,0.00,-37.98,5.867,6.022,3.945,6.022,2.409,0,0,SEARCHING,2.409,0.800,0.548,0.083
19:37:20.245,SEARCHING,11.159,-1.498,1.000,0.00,0.00,-37.05,6.022,7.381,5.321,6.022,2.434,0,0,SEARCHING,2.434,0.800,0.538,0.000
19:37:20.443,SEARCHING,11.287,-1.594,1.000,0.00,0.00,-37.05,5.867,8.172,5.581,6.022,2.434,0,0,SEARCHING,2.434,0.800,0.538,0.000
19:37:20.649,SEARCHING,11.414,-1.691,1.000,0.00,0.00,-37.05,5.720,8.172,5.581,6.022,2.434,0,0,SEARCHING,2.434,0.800,0.538,0.000
19:37:20.855,SEARCHING,11.542,-1.787,1.000,0.00,0.00,-37.05,5.720,7.890,5.581,6.184,2.409,0,0,SEARCHING,2.409,0.800,0.558,0.000
19:37:21.054,SEARCHING,11.670,-1.883,1.000,0.00,0.00,-37.05,5.720,7.890,5.321,5.867,2.409,0,0,SEARCHING,2.409,0.800,0.538,0.000
19:37:21.243,SEARCHING,11.797,-1.980,1.000,0.00,0.00,-37.05,5.720,8.172,5.085,6.184,2.359,0,0,SEARCHING,2.359,0.800,0.577,0.000
19:37:21.449,SEARCHING,11.925,-2.076,1.000,0.00,0.00,-37.05,5.720,7.890,4.974,6.184,2.384,0,0,SEARCHING,2.384,0.800,0.567,0.000
19:37:21.668,SEARCHING,12.053,-2.173,1.000,0.00,0.00,-37.05,5.720,7.627,4.670,6.184,2.434,0,0,SEARCHING,2.434,0.800,0.548,0.000
19:37:21.846,SEARCHING,12.181,-2.269,1.000,0.00,0.00,-37.05,4.086,7.627,4.670,6.184,2.460,0,0,SEARCHING,2.460,0.800,0.538,0.000
19:37:22.051,SEARCHING,12.308,-2.365,1.000,0.00,0.00,-37.05,5.720,7.381,4.670,6.022,2.487,0,0,SEARCHING,2.487,0.800,0.519,0.000
19:37:22.262,SEARCHING,12.436,-2.462,1.000,0.00,0.00,-37.05,4.400,7.627,4.160,6.022,2.384,0,0,SEARCHING,2.384,0.800,0.558,0.000
19:37:22.462,SEARCHING,12.564,-2.558,1.000,0.00,0.00,-36.91,4.160,7.627,4.160,6.022,2.434,0,0,SEARCHING,2.434,0.800,0.538,0.000
19:37:22.680,SEARCHING,12.692,-2.654,1.000,0.00,0.00,-36.70,4.487,7.381,4.086,6.022,2.460,0,0,SEARCHING,2.460,0.800,0.529,0.000
19:37:22.875,SEARCHING,12.820,-2.750,1.000,0.00,0.00,-36.49,4.400,6.934,3.632,6.022,2.487,0,0,SEARCHING,2.487,0.800,0.519,0.000
19:37:23.066,SEARCHING,12.949,-2.844,1.000,0.00,0.00,-36.23,4.868,7.151,3.691,6.022,2.460,0,0,SEARCHING,2.460,0.800,0.529,0.066
19:37:23.259,SEARCHING,13.078,-2.939,1.000,0.00,0.00,-35.62,4.974,6.934,3.467,6.022,2.409,0,0,SEARCHING,2.409,0.800,0.548,0.087
19:37:23.463,SEARCHING,13.209,-3.031,1.000,0.00,0.00,-34.64,4.868,7.151,3.467,6.022,2.460,0,0,SEARCHING,2.460,0.800,0.529,0.083
19:37:23.656,SEARCHING,13.341,-3.121,1.000,0.00,0.00,-33.72,4.317,6.730,3.316,6.022,2.434,0,0,SEARCHING,2.434,0.800,0.538,0.070
19:37:23.860,SEARCHING,13.475,-3.209,1.000,0.00,0.00,-32.91,4.317,6.538,3.632,6.184,2.434,0,0,SEARCHING,2.434,0.800,0.548,0.000
19:37:24.056,SEARCHING,13.610,-3.295,1.000,0.00,0.00,-32.72,4.576,6.356,4.487,6.022,2.487,0,0,SEARCHING,2.487,0.800,0.519,0.000
19:37:24.257,SEARCHING,13.744,-3.382,1.000,0.00,0.00,-32.72,4.400,6.184,4.868,6.022,2.409,0,0,SEARCHING,2.409,0.800,0.548,0.000
19:37:24.465,SEARCHING,13.879,-3.468,1.000,0.00,0.00,-32.72,4.237,6.022,6.356,5.867,2.434,0,0,SEARCHING,2.434,0.800,0.529,-0.079
19:37:24.652,SEARCHING,14.013,-3.555,1.000,0.00,0.00,-33.37,4.086,6.022,6.538,6.022,2.434,0,0,SEARCHING,2.434,0.800,0.538,-0.092
19:37:24.851,SEARCHING,14.146,-3.644,1.000,0.00,0.00,-34.36,3.814,6.184,5.867,6.022,2.409,0,0,SEARCHING,2.409,0.800,0.548,-0.092
19:37:25.072,SEARCHING,14.278,-3.735,1.000,0.00,0.00,-35.28,3.814,6.184,5.448,5.867,2.384,0,0,SEARCHING,2.384,0.800,0.548,-0.079
19:37:25.256,SEARCHING,14.408,-3.829,1.000,0.00,0.00,-36.14,3.814,6.538,5.085,6.022,2.460,0,0,SEARCHING,2.460,0.800,0.529,-0.066
19:37:25.454,SEARCHING,14.536,-3.924,1.000,0.00,0.00,-36.95,3.814,6.538,5.200,6.022,2.460,0,0,SEARCHING,2.460,0.800,0.529,-0.070
19:37:25.669,SEARCHING,14.663,-4.021,1.000,0.00,0.00,-37.74,3.751,6.356,4.974,6.022,2.487,0,0,SEARCHING,2.487,0.800,0.519,-0.066
19:37:25.868,SEARCHING,14.789,-4.120,1.000,0.00,0.00,-38.47,3.751,6.184,5.085,5.867,2.434,0,0,SEARCHING,2.434,0.800,0.529,-0.070
19:37:26.071,SEARCHING,14.914,-4.220,1.000,0.00,0.00,-39.25,3.751,6.022,4.974,6.022,2.460,0,0,SEARCHING,2.460,0.800,0.529,-0.066
19:37:26.275,SEARCHING,15.037,-4.322,1.000,0.00,0.00,-40.00,3.751,5.867,4.868,6.022,2.460,0,0,SEARCHING,2.460,0.800,0.529,-0.061
19:37:26.467,SEARCHING,15.159,-4.425,1.000,0.00,0.00,-40.74,3.751,5.720,4.974,5.867,2.434,0,0,SEARCHING,2.434,0.800,0.529,-0.066
19:37:26.666,SEARCHING,15.280,-4.530,1.000,0.00,0.00,-41.48,3.691,5.581,5.200,6.022,2.434,0,0,SEARCHING,2.434,0.800,0.538,-0.079
19:37:26.882,SEARCHING,15.399,-4.637,1.000,0.00,0.00,-42.33,3.751,5.321,5.085,6.022,2.409,0,0,SEARCHING,2.409,0.800,0.548,-0.070
19:37:27.062,SEARCHING,15.517,-4.746,1.000,0.00,0.00,-43.12,3.751,5.085,4.400,5.581,2.434,0,0,SEARCHING,2.434,0.800,0.510,0.000
19:37:27.271,SEARCHING,15.633,-4.855,1.000,0.00,0.00,-43.44,3.814,4.974,5.321,5.581,2.434,0,0,SEARCHING,2.434,0.800,0.510,-0.074
19:37:27.458,SEARCHING,15.749,-4.966,1.000,0.00,0.00,-44.20,3.751,4.767,5.581,5.200,2.409,0,0,SEARCHING,2.409,0.800,0.490,-0.087
19:37:27.662,SEARCHING,15.863,-5.078,1.000,0.00,0.00,-45.16,3.814,4.487,5.867,4.974,2.434,0,0,SEARCHING,2.434,0.800,0.462,-0.092
19:37:29.081,SEARCHING,15.975,-5.193,1.000,0.00,0.00,-46.23,3.814,4.576,5.581,4.868,2.409,0,0,SEARCHING,2.409,0.800,0.462,-0.083
19:37:29.192,SEARCHING,16.030,-5.251,1.000,0.00,0.00,-46.76,3.814,4.487,5.720,4.868,2.460,0,0,SEARCHING,2.460,0.800,0.442,-0.087
19:37:29.377,SEARCHING,16.192,-5.428,1.000,0.00,0.00,-48.30,5.085,4.160,6.022,4.317,2.460,0,0,SEARCHING,2.460,0.800,0.385,0.000
19:37:29.572,SEARCHING,16.349,-5.609,1.000,0.00,0.00,-49.57,5.720,4.014,5.321,4.086,2.460,0,0,SEARCHING,2.460,0.800,0.356,0.000
19:37:29.761,SEARCHING,16.505,-5.791,1.000,0.00,0.00,-49.57,5.720,3.814,5.867,3.878,2.460,0,0,SEARCHING,2.460,0.800,0.327,0.000
19:37:29.969,SEARCHING,16.609,-5.913,1.000,0.00,0.00,-49.57,5.581,3.632,6.022,3.751,2.384,0,0,SEARCHING,2.384,0.800,0.337,0.000
19:37:30.162,SEARCHING,16.713,-6.035,1.000,0.00,0.00,-49.57,5.581,3.520,6.022,3.520,2.409,0,0,SEARCHING,2.409,0.800,0.288,0.000
19:37:30.356,SEARCHING,16.816,-6.157,1.000,0.00,0.00,-49.57,5.581,3.365,5.867,3.365,2.434,0,0,SEARCHING,2.434,0.800,0.250,0.000
19:37:30.561,SEARCHING,16.920,-6.279,1.000,0.00,0.00,-49.57,5.448,3.223,6.022,3.178,2.384,0,0,SEARCHING,2.384,0.800,0.231,0.000
19:37:30.763,SEARCHING,17.024,-6.400,1.000,0.00,0.00,-49.57,5.448,3.092,6.022,3.051,2.434,0,0,SEARCHING,2.434,0.800,0.183,0.000
19:37:30.968,SEARCHING,17.128,-6.522,1.000,0.00,0.00,-49.57,5.448,2.896,5.867,2.860,2.384,0,0,SEARCHING,2.384,0.800,0.154,0.000
19:37:31.164,SEARCHING,17.231,-6.644,1.000,0.00,0.00,-49.57,5.321,2.757,5.867,2.757,2.434,0,0,SEARCHING,2.434,0.800,0.106,0.000
19:37:31.366,SEARCHING,17.335,-6.766,1.000,0.00,0.00,-49.57,5.321,2.600,5.867,2.542,2.409,0,0,SEARCHING,2.409,0.800,0.048,0.000
19:37:31.588,SEARCHING,17.439,-6.887,1.000,0.00,0.00,-49.57,5.321,2.266,6.022,2.266,2.384,0,0,SEARCHING,2.266,0.725,-0.048,0.000
19:37:31.771,SEARCHING,17.537,-7.002,1.000,0.00,0.00,-49.57,5.321,2.288,5.720,2.266,2.288,0,0,SEARCHING,2.266,0.732,-0.010,0.000
19:37:31.963,SEARCHING,17.631,-7.113,1.000,0.00,0.00,-49.57,5.321,2.061,5.720,2.159,2.159,0,0,SEARCHING,2.061,0.660,0.000,0.000
19:37:32.170,SEARCHING,17.717,-7.214,1.000,0.00,0.00,-49.57,5.448,1.939,5.581,1.939,2.007,0,0,SEARCHING,1.939,0.621,-0.038,0.000
19:37:32.376,SEARCHING,17.798,-7.309,1.000,0.00,0.00,-49.57,5.448,1.891,5.581,1.907,1.891,0,0,SEARCHING,1.891,0.605,0.010,0.000
19:37:32.565,SEARCHING,17.876,-7.401,1.000,0.00,0.00,-49.57,5.448,1.774,5.720,1.774,1.774,0,0,SEARCHING,1.774,0.568,0.000,0.000
19:37:32.770,SEARCHING,17.950,-7.488,1.000,0.00,0.00,-49.57,5.581,1.682,5.581,1.682,1.682,0,0,SEARCHING,1.682,0.538,0.000,0.000
19:37:32.970,SEARCHING,18.021,-7.570,1.000,0.00,0.00,-49.24,5.720,1.578,5.581,1.578,1.578,0,0,SEARCHING,1.578,0.505,0.000,0.000
19:37:33.176,SEARCHING,18.087,-7.645,1.000,0.00,0.00,-47.23,5.321,1.457,1.486,1.457,1.457,0,0,SEARCHING,1.457,0.466,0.000,0.485
19:37:33.381,SEARCHING,18.154,-7.711,1.000,0.00,0.00,-41.78,4.400,1.387,1.362,1.387,1.395,0,0,SEARCHING,1.362,0.444,-0.010,0.507
19:37:33.576,SEARCHING,18.223,-7.768,1.000,0.00,0.00,-35.88,3.878,1.264,1.192,1.330,1.308,0,0,SEARCHING,1.192,0.405,0.029,0.581
19:37:33.773,SEARCHING,18.299,-7.817,1.000,0.00,0.00,-29.31,3.575,5.581,1.111,5.720,2.460,0,0,SEARCHING,1.111,0.800,0.510,0.621
19:37:33.965,SEARCHING,18.442,-7.887,1.000,0.00,0.00,-22.21,3.269,4.400,0.982,4.400,2.434,0,0,SEARCHING,0.982,0.800,0.404,0.712
19:37:34.184,SEARCHING,18.594,-7.939,1.000,0.00,0.00,-16.28,3.316,3.751,6.356,3.751,2.460,0,0,SEARCHING,2.460,0.800,0.308,-0.144
19:37:34.374,SEARCHING,18.747,-7.986,1.000,0.00,0.00,-18.02,3.134,3.632,6.538,3.632,2.460,0,0,SEARCHING,2.460,0.800,0.288,-0.166
19:37:34.575,SEARCHING,18.898,-8.037,1.000,0.00,0.00,-19.89,2.896,3.691,6.538,3.691,2.460,0,0,SEARCHING,2.460,0.800,0.298,-0.192
19:37:34.785,SEARCHING,19.047,-8.094,1.000,0.00,0.00,-22.05,2.825,3.691,6.538,3.691,2.460,0,0,SEARCHING,2.460,0.800,0.298,-0.201
19:37:34.990,SEARCHING,19.195,-8.157,1.000,0.00,0.00,-24.35,2.790,3.632,6.934,3.751,2.434,0,0,SEARCHING,2.434,0.800,0.317,-0.214
19:37:35.184,SEARCHING,19.339,-8.226,1.000,0.00,0.00,-26.83,2.724,3.814,7.151,3.814,2.434,0,0,SEARCHING,2.434,0.800,0.327,-0.227
19:37:35.381,SEARCHING,19.480,-8.301,1.000,0.00,0.00,-29.45,2.600,4.237,7.627,4.317,2.434,0,0,SEARCHING,2.434,0.800,0.394,-0.253
19:37:35.581,SEARCHING,19.618,-8.382,1.000,0.00,0.00,-32.30,2.692,4.670,7.627,4.670,2.460,0,0,SEARCHING,2.460,0.800,0.423,-0.240
19:37:35.793,SEARCHING,19.751,-8.471,1.000,0.00,0.00,-35.10,2.724,4.974,7.890,4.974,2.460,0,0,SEARCHING,2.460,0.800,0.452,-0.240
19:37:35.990,SEARCHING,19.880,-8.566,1.000,0.00,0.00,-37.87,2.724,5.200,7.627,5.200,2.434,0,0,SEARCHING,2.434,0.800,0.481,-0.236
19:37:36.179,SEARCHING,20.004,-8.667,1.000,0.00,0.00,-40.59,2.896,5.720,7.890,5.720,2.434,0,0,SEARCHING,2.434,0.800,0.519,-0.219
19:37:36.385,SEARCHING,20.124,-8.773,1.000,0.00,0.00,-43.09,3.178,6.184,7.890,6.022,2.434,0,0,SEARCHING,2.434,0.800,0.538,-0.188
19:37:36.576,SEARCHING,20.239,-8.885,1.000,0.00,0.00,-45.22,3.520,6.356,7.890,6.022,2.384,0,0,SEARCHING,2.384,0.800,0.558,-0.157
19:37:36.780,SEARCHING,20.350,-9.000,1.000,0.00,0.00,-47.05,3.751,6.934,7.890,5.867,2.384,0,0,SEARCHING,2.384,0.800,0.548,-0.140
19:37:36.980,SEARCHING,20.457,-9.118,1.000,0.00,0.00,-48.67,3.814,6.934,7.627,6.022,2.384,0,0,SEARCHING,2.384,0.800,0.558,-0.131
19:37:37.181,SEARCHING,20.561,-9.240,1.000,0.00,0.00,-50.20,3.814,7.151,7.890,5.867,2.434,0,0,SEARCHING,2.434,0.800,0.529,-0.135
19:37:37.380,SEARCHING,20.662,-9.364,1.000,0.00,0.00,-51.73,4.014,7.381,7.627,6.022,2.434,0,0,SEARCHING,2.434,0.800,0.538,-0.118
19:37:37.580,SEARCHING,20.760,-9.490,1.000,0.00,0.00,-53.10,4.317,7.627,7.381,6.022,2.434,0,0,SEARCHING,2.434,0.800,0.538,-0.096
19:37:37.783,SEARCHING,20.855,-9.619,1.000,0.00,0.00,-54.23,4.400,7.627,7.381,6.022,2.409,0,0,SEARCHING,2.409,0.800,0.548,-0.092
19:37:37.979,SEARCHING,20.947,-9.750,1.000,0.00,0.00,-55.22,4.487,7.627,6.934,6.184,2.434,0,0,SEARCHING,2.434,0.800,0.548,-0.079
19:37:38.194,SEARCHING,21.038,-9.882,1.000,0.00,0.00,-56.12,4.576,7.627,6.730,6.184,2.434,0,0,SEARCHING,2.434,0.800,0.548,-0.070
19:37:38.395,SEARCHING,21.126,-10.015,1.000,0.00,0.00,-56.93,4.576,7.381,6.538,6.184,2.434,0,0,SEARCHING,2.434,0.800,0.548,-0.066
19:37:38.591,SEARCHING,21.212,-10.150,1.000,0.00,0.00,-57.70,4.670,8.172,6.538,6.022,2.409,0,0,SEARCHING,2.409,0.800,0.548,-0.061
19:37:38.781,SEARCHING,21.297,-10.286,1.000,0.00,0.00,-58.41,4.670,7.890,6.184,6.022,2.460,0,0,SEARCHING,2.460,0.800,0.529,-0.052
19:37:38.987,SEARCHING,21.380,-10.422,1.000,0.00,0.00,-59.03,4.767,7.627,6.356,6.022,2.409,0,0,SEARCHING,2.409,0.800,0.548,-0.052
19:37:39.190,SEARCHING,21.462,-10.560,1.000,0.00,0.00,-59.53,4.767,7.627,6.022,6.022,2.460,0,0,SEARCHING,2.460,0.800,0.529,0.000
19:37:39.393,SEARCHING,21.543,-10.698,1.000,0.00,0.00,-59.53,4.767,7.381,6.022,6.184,2.384,0,0,SEARCHING,2.384,0.800,0.567,0.000
19:37:39.597,SEARCHING,21.624,-10.836,1.000,0.00,0.00,-59.53,4.767,7.627,6.184,6.022,2.409,0,0,SEARCHING,2.409,0.800,0.548,0.000
19:37:39.793,SEARCHING,21.705,-10.974,1.000,0.00,0.00,-59.53,4.670,7.627,6.022,6.022,2.434,0,0,SEARCHING,2.434,0.800,0.538,0.000
19:37:39.990,SEARCHING,21.786,-11.112,1.000,0.00,0.00,-59.53,4.767,7.381,5.867,6.022,2.460,0,0,SEARCHING,2.460,0.800,0.529,0.000
19:37:40.196,SEARCHING,21.868,-11.249,1.000,0.00,0.00,-59.65,4.670,7.151,5.867,6.022,2.460,0,0,SEARCHING,2.460,0.800,0.529,0.000
19:37:40.392,SEARCHING,21.948,-11.388,1.000,0.00,0.00,-59.83,4.767,7.151,5.720,6.184,2.409,0,0,SEARCHING,2.409,0.800,0.558,0.000
19:37:40.587,SEARCHING,22.029,-11.526,1.000,0.00,0.00,-59.83,4.767,6.934,5.867,6.184,2.460,0,0,SEARCHING,2.460,0.800,0.538,0.000
19:37:40.789,SEARCHING,22.109,-11.664,1.000,0.00,0.00,-59.83,4.767,6.934,5.867,6.184,2.409,0,0,SEARCHING,2.409,0.800,0.558,0.000
19:37:40.993,SEARCHING,22.189,-11.803,1.000,0.00,0.00,-59.83,4.767,6.730,5.867,6.184,2.409,0,0,SEARCHING,2.409,0.800,0.558,0.000
19:37:41.189,SEARCHING,22.270,-11.941,1.000,0.00,0.00,-59.83,4.767,6.538,5.867,6.184,2.460,0,0,SEARCHING,2.460,0.800,0.538,0.000
19:37:41.392,SEARCHING,22.350,-12.079,1.000,0.00,0.00,-59.83,4.670,6.538,5.867,6.022,2.460,0,0,SEARCHING,2.460,0.800,0.529,0.000
19:37:41.598,SEARCHING,22.431,-12.218,1.000,0.00,0.00,-59.83,4.670,6.356,5.867,6.022,2.434,0,0,SEARCHING,2.434,0.800,0.538,0.000
19:37:41.791,SEARCHING,22.511,-12.356,1.000,0.00,0.00,-59.83,4.767,6.356,5.720,5.867,2.384,0,0,SEARCHING,2.384,0.800,0.548,0.000
19:37:41.986,SEARCHING,22.591,-12.494,1.000,0.00,0.00,-59.83,4.767,6.356,5.720,5.720,2.487,0,0,SEARCHING,2.487,0.800,0.500,0.000
19:37:42.205,SEARCHING,22.672,-12.633,1.000,0.00,0.00,-59.83,4.868,6.022,5.720,5.720,2.434,0,0,SEARCHING,2.434,0.800,0.519,0.000
19:37:42.394,SEARCHING,22.752,-12.771,1.000,0.00,0.00,-59.83,4.868,5.867,5.720,5.581,2.460,0,0,SEARCHING,2.460,0.800,0.500,0.000
19:37:42.603,SEARCHING,22.833,-12.909,1.000,0.00,0.00,-59.83,4.767,5.720,5.720,5.321,2.460,0,0,SEARCHING,2.460,0.800,0.481,0.000
19:37:42.798,SEARCHING,22.913,-13.048,1.000,0.00,0.00,-59.83,4.868,5.581,5.867,5.200,2.335,0,0,SEARCHING,2.335,0.800,0.519,0.000
19:37:42.993,SEARCHING,22.994,-13.186,1.000,0.00,0.00,-59.83,4.868,5.581,5.867,4.974,2.487,0,0,SEARCHING,2.487,0.800,0.442,0.000
19:37:43.195,SEARCHING,23.074,-13.324,1.000,0.00,0.00,-59.83,4.868,5.448,5.720,4.868,2.460,0,0,SEARCHING,2.460,0.800,0.442,0.000
19:37:43.400,SEARCHING,23.154,-13.463,1.000,0.00,0.00,-59.83,4.868,5.448,5.581,4.670,2.434,0,0,SEARCHING,2.434,0.800,0.433,0.000
19:37:43.601,SEARCHING,23.235,-13.601,1.000,0.00,0.00,-59.83,4.767,5.321,5.321,4.576,2.434,0,0,SEARCHING,2.434,0.800,0.423,0.000
19:37:43.797,SEARCHING,23.315,-13.739,1.000,0.00,0.00,-59.83,4.767,5.448,5.448,4.400,2.460,0,0,SEARCHING,2.460,0.800,0.394,0.000
19:37:44.004,SEARCHING,23.396,-13.878,1.000,0.00,0.00,-59.83,4.767,5.581,5.448,4.317,2.487,0,0,SEARCHING,2.487,0.800,0.375,0.000
19:37:44.207,SEARCHING,23.476,-14.016,1.000,0.00,0.00,-59.83,4.767,5.720,5.581,4.160,2.434,0,0,SEARCHING,2.434,0.800,0.375,0.000
19:37:44.397,SEARCHING,23.556,-14.154,1.000,0.00,0.00,-59.83,4.767,6.184,5.867,4.014,2.434,0,0,SEARCHING,2.434,0.800,0.356,0.000
19:37:44.623,SEARCHING,23.637,-14.293,1.000,0.00,0.00,-59.83,4.767,7.151,5.867,3.878,2.243,0,0,SEARCHING,2.243,0.800,0.413,0.000
19:37:44.803,SEARCHING,23.717,-14.431,1.000,0.00,0.00,-59.83,4.670,7.381,5.867,3.632,2.460,0,0,SEARCHING,2.460,0.800,0.288,0.000
19:37:45.009,SEARCHING,23.798,-14.569,1.000,0.00,0.00,-59.83,4.670,7.890,5.867,3.575,2.460,0,0,SEARCHING,2.460,0.800,0.279,0.000
19:37:45.204,SEARCHING,23.878,-14.707,1.000,0.00,0.00,-59.83,4.670,7.890,5.720,3.467,2.434,0,0,SEARCHING,2.434,0.800,0.269,0.000
19:37:45.404,SEARCHING,23.959,-14.846,1.000,0.00,0.00,-59.83,4.767,7.627,5.720,3.316,2.434,0,0,SEARCHING,2.434,0.800,0.240,0.000
19:37:45.620,SEARCHING,24.039,-14.984,1.000,0.00,0.00,-59.83,4.670,7.381,5.720,3.134,2.460,0,0,SEARCHING,2.460,0.800,0.192,0.000
19:37:45.801,SEARCHING,24.119,-15.122,1.000,0.00,0.00,-59.83,4.767,7.627,5.720,3.051,2.460,0,0,SEARCHING,2.460,0.800,0.173,0.000
19:37:46.000,SEARCHING,24.200,-15.261,1.000,0.00,0.00,-59.83,4.868,7.381,5.581,2.860,2.384,0,0,SEARCHING,2.384,0.800,0.154,0.000
19:37:46.201,SEARCHING,24.280,-15.399,1.000,0.00,0.00,-59.83,4.974,7.381,5.581,2.661,2.384,0,0,SEARCHING,2.384,0.800,0.096,0.000
19:37:46.411,SEARCHING,24.361,-15.537,1.000,0.00,0.00,-59.83,4.974,7.151,5.720,2.661,2.434,0,0,SEARCHING,2.434,0.800,0.077,0.000
19:37:46.609,SEARCHING,24.441,-15.676,1.000,0.00,0.00,-59.83,4.974,6.934,5.720,2.571,2.460,0,0,SEARCHING,2.460,0.800,0.038,0.000
19:37:46.807,SEARCHING,24.521,-15.814,1.000,0.00,0.00,-59.83,4.974,6.934,5.720,2.487,2.409,0,0,SEARCHING,2.409,0.800,0.029,0.000
19:37:47.011,SEARCHING,24.602,-15.952,1.000,0.00,0.00,-59.83,4.868,6.730,5.867,4.014,2.487,0,0,SEARCHING,2.487,0.800,0.337,0.000
19:37:47.215,SEARCHING,24.682,-16.091,1.000,0.00,0.00,-59.83,4.868,6.730,6.022,5.867,2.434,0,0,SEARCHING,2.434,0.800,0.529,0.000
19:37:47.418,SEARCHING,24.763,-16.229,1.000,0.00,0.00,-59.83,4.868,6.538,6.022,6.022,2.409,0,0,SEARCHING,2.409,0.800,0.548,0.000
19:37:47.610,SEARCHING,24.843,-16.367,1.000,0.00,0.00,-59.83,4.868,6.356,5.867,6.022,2.434,0,0,SEARCHING,2.434,0.800,0.538,0.000
19:37:47.816,SEARCHING,24.924,-16.506,1.000,0.00,0.00,-59.83,4.868,6.356,5.867,6.022,2.460,0,0,SEARCHING,2.460,0.800,0.529,0.000
19:37:48.021,SEARCHING,25.004,-16.644,1.000,0.00,0.00,-59.83,4.868,6.022,6.022,6.022,2.434,0,0,SEARCHING,2.434,0.800,0.538,0.000
19:37:48.217,SEARCHING,25.084,-16.782,1.000,0.00,0.00,-59.83,4.767,6.022,5.867,6.022,2.409,0,0,SEARCHING,2.409,0.800,0.548,0.000
19:37:48.408,SEARCHING,25.165,-16.921,1.000,0.00,0.00,-59.83,4.767,5.867,5.581,5.867,2.409,0,0,SEARCHING,2.409,0.800,0.538,0.000
19:37:48.617,SEARCHING,25.245,-17.059,1.000,0.00,0.00,-59.83,4.767,5.720,5.720,5.720,2.460,0,0,SEARCHING,2.460,0.800,0.510,0.000
19:37:48.814,SEARCHING,25.326,-17.197,1.000,0.00,0.00,-59.83,4.767,5.448,5.448,5.581,2.434,0,0,SEARCHING,2.434,0.800,0.510,0.000
19:37:49.013,SEARCHING,25.406,-17.336,1.000,0.00,0.00,-59.83,4.767,5.321,5.321,5.321,2.460,0,0,SEARCHING,2.460,0.800,0.481,0.000
19:37:49.216,SEARCHING,25.486,-17.474,1.000,0.00,0.00,-59.83,4.767,5.200,5.085,5.200,2.434,0,0,SEARCHING,2.434,0.800,0.481,0.000
19:37:49.414,SEARCHING,25.567,-17.612,1.000,0.00,0.00,-59.83,4.670,5.085,4.974,5.085,2.487,0,0,SEARCHING,2.487,0.800,0.452,0.000
19:37:49.613,SEARCHING,25.647,-17.751,1.000,0.00,0.00,-59.83,4.767,4.868,4.868,4.868,2.460,0,0,SEARCHING,2.460,0.800,0.442,0.000
19:37:49.818,SEARCHING,25.728,-17.889,1.000,0.00,0.00,-59.83,4.767,4.767,4.670,4.767,2.266,0,0,SEARCHING,2.266,0.800,0.510,0.000
19:37:50.013,SEARCHING,25.808,-18.027,1.000,0.00,0.00,-59.83,4.670,4.670,4.576,4.576,2.409,0,0,SEARCHING,2.409,0.800,0.433,0.000
19:37:50.222,SEARCHING,25.889,-18.166,1.000,0.00,0.00,-59.83,4.576,4.487,4.400,4.487,2.434,0,0,SEARCHING,2.434,0.800,0.413,0.000
19:37:50.419,SEARCHING,25.969,-18.304,1.000,0.00,0.00,-59.83,4.487,4.400,4.317,4.400,2.434,0,0,SEARCHING,2.434,0.800,0.404,0.000
19:37:50.620,SEARCHING,26.049,-18.442,1.000,0.00,0.00,-59.83,4.317,4.237,4.160,4.237,2.460,0,0,SEARCHING,2.460,0.800,0.375,0.000
19:37:50.816,SEARCHING,26.130,-18.581,1.000,0.00,0.00,-59.83,4.160,4.014,3.945,4.014,2.460,0,0,SEARCHING,2.460,0.800,0.346,0.000
19:37:51.027,SEARCHING,26.210,-18.719,1.000,0.00,0.00,-59.83,4.014,3.878,3.814,3.878,2.434,0,0,SEARCHING,2.434,0.800,0.337,0.000
19:37:51.220,SEARCHING,26.291,-18.857,1.000,0.00,0.00,-59.83,3.814,3.751,3.691,3.751,2.409,0,0,SEARCHING,2.409,0.800,0.327,0.000
19:37:51.441,SEARCHING,26.351,-18.961,1.000,0.00,0.00,-59.83,3.691,3.632,3.575,3.575,2.487,0,0,SEARCHING,2.487,0.800,0.269,0.000
19:37:51.626,SEARCHING,26.451,-19.134,1.000,0.00,0.00,-59.83,3.520,3.467,3.415,3.467,2.434,0,0,SEARCHING,2.434,0.800,0.269,0.000
19:37:51.822,SEARCHING,26.532,-19.272,1.000,0.00,0.00,-59.83,3.365,3.316,3.269,3.316,2.384,0,0,SEARCHING,2.384,0.800,0.260,0.000
19:37:52.022,SEARCHING,26.612,-19.410,1.000,0.00,0.00,-59.83,3.223,3.178,3.092,3.134,2.661,0,0,SEARCHING,2.661,0.800,0.125,0.000
19:37:52.231,SEARCHING,26.693,-19.549,1.000,0.00,0.00,-59.83,3.051,3.011,2.934,2.972,2.434,0,0,SEARCHING,2.434,0.800,0.163,0.000
19:37:52.424,SEARCHING,26.773,-19.687,1.000,0.00,0.00,-59.83,2.896,2.860,2.790,2.860,2.460,0,0,SEARCHING,2.460,0.800,0.125,0.000
19:37:52.624,SEARCHING,26.854,-19.825,1.000,0.00,0.00,-59.83,2.757,2.692,2.661,2.692,2.460,0,0,SEARCHING,2.460,0.800,0.077,0.000
19:37:52.832,SEARCHING,26.934,-19.964,1.000,0.00,0.00,-59.83,2.600,2.542,2.487,2.542,2.434,0,0,SEARCHING,2.434,0.800,0.038,0.000
19:37:53.026,SEARCHING,27.014,-20.102,1.000,0.00,0.00,-59.83,2.434,2.384,2.335,2.384,2.359,0,0,SEARCHING,2.335,0.763,0.010,0.000
19:37:53.228,SEARCHING,27.091,-20.234,1.000,0.00,0.00,-59.83,2.288,2.243,2.200,2.243,2.243,0,0,SEARCHING,2.200,0.718,0.000,0.000
19:37:53.492,SEARCHING,27.164,-20.360,1.000,0.00,0.00,-59.83,2.159,2.119,2.080,2.119,2.119,0,0,SEARCHING,2.080,0.678,0.000,0.000
19:37:53.664,SEARCHING,27.233,-20.478,1.000,0.00,0.00,-59.83,2.025,1.990,1.956,1.990,1.990,0,0,SEARCHING,1.956,0.637,0.000,0.000
19:37:53.845,SEARCHING,27.297,-20.589,1.000,0.00,0.00,-59.83,1.860,1.831,1.802,1.831,1.831,0,0,SEARCHING,1.802,0.586,0.000,0.000
19:37:54.042,SEARCHING,27.356,-20.691,1.000,0.00,0.00,-59.83,1.760,1.720,1.695,1.720,1.720,0,0,SEARCHING,1.695,0.551,0.000,0.000
19:37:54.240,SEARCHING,27.412,-20.786,1.000,0.00,0.00,-59.83,1.634,1.611,1.578,1.600,1.611,0,0,SEARCHING,1.578,0.516,-0.010,0.000
19:37:54.438,SEARCHING,27.464,-20.875,1.000,0.00,0.00,-59.83,1.536,1.505,1.476,1.505,1.505,0,0,SEARCHING,1.476,0.482,0.000,0.000
19:37:54.649,SEARCHING,27.512,-20.959,1.000,0.00,0.00,-59.83,1.430,1.412,1.387,1.404,1.412,0,0,SEARCHING,1.387,0.452,-0.010,0.000
19:37:54.856,SEARCHING,27.558,-21.037,1.000,0.00,0.00,-59.83,1.346,1.315,1.300,1.315,1.315,0,0,SEARCHING,1.300,0.421,0.000,0.000
19:37:55.046,SEARCHING,27.601,-21.111,1.000,0.00,0.00,-59.83,1.264,1.237,1.217,1.237,1.237,0,0,SEARCHING,1.217,0.396,0.000,0.000
19:37:55.257,SEARCHING,27.641,-21.179,1.000,0.00,0.00,-59.83,1.179,1.162,1.138,1.156,1.162,0,0,SEARCHING,1.138,0.372,-0.010,0.000
19:37:55.461,SEARCHING,27.678,-21.244,1.000,0.00,0.00,-59.83,1.100,1.084,1.064,1.084,1.084,0,0,SEARCHING,1.064,0.347,0.000,0.000
19:37:55.648,SEARCHING,27.713,-21.305,1.000,0.00,0.00,-59.83,1.031,1.012,0.999,1.017,1.012,0,0,SEARCHING,0.999,0.324,0.010,0.000
19:37:55.976,SEARCHING,27.746,-21.361,1.000,0.00,0.00,-59.83,0.978,0.961,0.942,0.957,0.957,0,0,SEARCHING,0.942,0.308,0.000,0.000
19:37:56.157,SEARCHING,27.762,-21.388,1.000,0.00,0.00,-59.83,0.953,0.938,0.923,0.942,0.938,0,0,SEARCHING,0.923,0.300,0.010,0.000
19:37:56.331,SEARCHING,27.778,-21.415,1.000,0.00,0.00,-59.83,0.926,0.908,0.894,0.908,0.908,0,0,SEARCHING,0.894,0.291,0.000,0.000
19:37:56.491,SEARCHING,27.793,-21.442,1.000,0.00,0.00,-59.83,0.877,0.854,0.841,0.857,0.857,0,0,SEARCHING,0.841,0.273,0.000,0.000
19:37:56.834,INSPECTING,27.831,-21.507,1.000,0.00,0.00,-59.83,0.773,0.758,0.745,0.758,0.758,0,0,LEFT,0.773,0.150,0.000,1.100
19:37:57.001,INSPECTING,27.845,-21.532,1.000,0.00,0.00,-59.83,0.726,0.713,0.700,0.713,0.713,0,0,LEFT,0.726,0.150,0.000,1.100
19:37:57.381,INSPECTING,27.877,-21.586,1.000,0.00,0.00,-57.31,0.729,0.669,0.618,0.669,0.669,0,0,LEFT,0.729,0.150,0.000,1.100
19:37:57.556,INSPECTING,27.896,-21.610,1.000,0.00,0.00,-44.70,0.792,0.677,0.594,0.681,0.679,0,0,LEFT,0.792,0.150,0.000,1.100
19:37:57.718,INSPECTING,27.913,-21.624,1.000,0.00,0.00,-35.25,0.942,0.729,0.597,0.731,0.729,0,0,LEFT,0.942,0.150,0.000,1.100
19:37:58.056,SEARCHING,27.968,-21.648,1.000,0.00,0.00,-10.04,1.891,1.031,0.698,1.026,1.035,0,0,SEARCHING,0.698,0.330,-0.019,0.905
19:37:58.258,SEARCHING,28.098,-21.614,1.000,0.00,0.00,28.10,2.138,2.159,1.370,2.159,2.159,0,0,SEARCHING,1.370,0.691,0.000,0.262
19:37:58.456,SEARCHING,28.218,-21.546,1.000,0.00,0.00,31.31,2.061,2.025,1.634,2.025,2.007,0,0,SEARCHING,1.634,0.648,0.010,0.127
19:37:58.658,SEARCHING,28.327,-21.477,1.000,0.00,0.00,32.89,1.973,1.907,1.760,1.907,1.876,0,0,SEARCHING,1.760,0.610,0.019,0.061
19:37:58.853,SEARCHING,28.429,-21.410,1.000,0.00,0.00,33.55,1.831,1.774,1.747,1.774,1.774,0,0,SEARCHING,1.747,0.568,0.000,0.000
19:37:59.056,SEARCHING,28.524,-21.347,1.000,0.00,0.00,33.55,1.733,1.670,1.634,1.658,1.670,0,0,SEARCHING,1.634,0.534,-0.010,0.000
19:37:59.251,SEARCHING,28.614,-21.288,1.000,0.00,0.00,33.55,1.623,1.567,1.536,1.567,1.567,0,0,SEARCHING,1.536,0.502,0.000,0.000
19:37:59.459,SEARCHING,28.698,-21.232,1.000,0.00,0.00,33.55,1.525,1.457,1.430,1.457,1.467,0,0,SEARCHING,1.430,0.466,-0.010,0.000
19:37:59.657,SEARCHING,28.776,-21.180,1.000,0.00,0.00,33.55,1.412,1.362,1.338,1.378,1.370,0,0,SEARCHING,1.338,0.436,0.010,0.000
19:37:59.869,SEARCHING,28.849,-21.132,1.000,0.00,0.00,33.55,1.330,1.278,1.264,1.285,1.285,0,0,SEARCHING,1.264,0.409,0.000,0.000
19:38:00.055,SEARCHING,28.917,-21.086,1.000,0.00,0.00,33.55,1.250,1.192,1.179,1.204,1.198,0,0,SEARCHING,1.179,0.381,0.010,0.000
19:38:00.264,SEARCHING,28.982,-21.044,1.000,0.00,0.00,33.55,1.167,1.122,1.100,1.127,1.127,0,0,SEARCHING,1.100,0.359,0.000,0.052
19:38:00.469,SEARCHING,29.042,-21.004,1.000,0.00,0.00,33.97,1.100,1.054,1.026,1.059,1.054,0,0,SEARCHING,1.026,0.337,0.010,0.066
19:38:00.699,SEARCHING,29.097,-20.966,1.000,0.00,0.00,34.69,1.031,0.995,0.957,0.995,0.995,0,0,SEARCHING,0.957,0.318,0.000,0.037
19:38:01.061,SEARCHING,29.150,-20.929,1.000,0.00,0.00,35.30,0.995,0.949,0.908,0.953,0.949,0,0,SEARCHING,0.908,0.304,0.010,0.048
19:38:01.230,SEARCHING,29.176,-20.910,1.000,0.00,0.00,35.52,0.961,0.919,0.880,0.919,0.919,0,0,SEARCHING,0.880,0.294,0.000,0.048
19:38:02.670,SEARCHING,29.226,-20.874,1.000,0.00,0.00,36.04,0.926,0.880,0.838,0.880,0.880,0,0,SEARCHING,0.838,0.282,0.000,0.057
19:38:02.850,SEARCHING,29.286,-20.830,1.000,0.00,0.00,36.74,0.854,0.811,0.770,0.811,0.811,0,0,SEARCHING,0.770,0.260,0.000,0.063
19:38:03.174,INSPECTING,29.367,-20.769,1.000,0.00,0.00,37.74,0.671,0.627,0.591,0.629,0.629,0,0,LEFT,0.671,0.150,0.000,1.100
19:38:03.330,INSPECTING,29.400,-20.743,1.000,0.00,0.00,38.24,0.629,0.587,0.549,0.588,0.585,0,0,LEFT,0.629,0.150,0.000,1.100
19:38:03.692,INSPECTING,29.443,-20.708,1.000,0.00,0.00,45.08,0.691,0.588,0.513,0.590,0.588,0,0,LEFT,0.691,0.150,0.000,1.100
19:38:03.862,INSPECTING,29.457,-20.691,1.000,0.00,0.00,54.54,0.795,0.625,0.514,0.625,0.625,0,0,LEFT,0.795,0.150,0.000,1.100
19:38:04.034,INSPECTING,29.472,-20.665,1.000,0.00,0.00,67.14,0.995,0.698,0.536,0.695,0.698,0,0,LEFT,0.995,0.150,0.000,1.100
19:38:04.374,SEARCHING,29.484,-20.614,1.000,0.00,0.00,89.20,2.434,1.230,0.729,1.192,1.198,0,0,SEARCHING,0.729,0.394,-0.010,0.961
19:38:04.567,SEARCHING,29.481,-20.584,1.000,0.00,0.00,101.81,8.172,2.080,0.897,2.043,2.080,0,0,SEARCHING,0.897,0.666,-0.019,0.992
19:38:04.746,SEARCHING,29.472,-20.556,1.000,0.00,0.00,114.41,8.172,4.487,1.646,4.237,2.434,0,0,SEARCHING,1.646,0.800,0.385,0.485
19:38:04.937,SEARCHING,29.416,-20.476,1.000,0.00,0.00,132.31,5.867,7.627,2.542,6.022,2.409,0,0,SEARCHING,2.409,0.800,0.548,0.223
19:38:05.136,SEARCHING,29.248,-20.332,1.000,0.00,0.00,144.85,5.200,5.867,7.381,4.237,2.434,0,0,SEARCHING,2.434,0.800,0.385,-0.057
19:38:05.311,SEARCHING,29.047,-20.200,1.000,0.00,0.00,147.38,4.974,6.022,7.381,4.086,2.080,0,0,SEARCHING,2.080,0.800,0.519,-0.066
19:38:05.494,SEARCHING,28.846,-20.069,1.000,0.00,0.00,146.27,4.868,6.730,7.381,3.814,2.460,0,0,SEARCHING,2.460,0.800,0.317,-0.070
19:38:05.707,SEARCHING,28.714,-19.979,1.000,0.00,0.00,145.45,4.767,6.730,7.381,3.632,2.434,0,0,SEARCHING,2.434,0.800,0.298,-0.074
19:38:05.898,SEARCHING,28.582,-19.888,1.000,0.00,0.00,144.61,4.868,7.151,7.381,3.415,2.460,0,0,SEARCHING,2.460,0.800,0.250,-0.070
19:38:06.102,SEARCHING,28.453,-19.794,1.000,0.00,0.00,143.80,4.767,7.381,7.627,3.269,2.434,0,0,SEARCHING,2.434,0.800,0.231,-0.079
19:38:06.304,SEARCHING,28.324,-19.699,1.000,0.00,0.00,142.94,4.767,7.151,7.151,3.178,2.460,0,0,SEARCHING,2.460,0.800,0.202,-0.070
19:38:06.495,SEARCHING,28.197,-19.602,1.000,0.00,0.00,142.10,4.868,7.381,7.627,3.011,2.460,0,0,SEARCHING,2.460,0.800,0.163,-0.074
19:38:06.704,SEARCHING,28.071,-19.503,1.000,0.00,0.00,141.26,4.868,7.381,7.890,6.022,2.460,0,0,SEARCHING,2.460,0.800,0.529,-0.079
19:38:06.908,SEARCHING,27.947,-19.402,1.000,0.00,0.00,140.40,4.868,7.381,7.890,6.022,2.460,0,0,SEARCHING,2.460,0.800,0.529,-0.079
19:38:07.104,SEARCHING,27.825,-19.299,1.000,0.00,0.00,139.53,4.868,7.627,7.381,6.022,2.460,0,0,SEARCHING,2.460,0.800,0.529,-0.070
19:38:07.302,SEARCHING,27.704,-19.194,1.000,0.00,0.00,138.71,4.974,7.381,8.172,6.022,2.724,0,0,SEARCHING,2.724,0.800,0.442,-0.079
19:38:07.504,SEARCHING,27.584,-19.088,1.000,0.00,0.00,137.82,4.974,7.890,7.627,6.022,2.487,0,0,SEARCHING,2.487,0.800,0.519,-0.070
19:38:07.705,SEARCHING,27.466,-18.980,1.000,0.00,0.00,136.99,4.974,8.172,7.627,6.022,2.434,0,0,SEARCHING,2.434,0.800,0.538,-0.070
19:38:07.905,SEARCHING,27.350,-18.870,1.000,0.00,0.00,136.19,4.974,8.172,7.381,5.867,2.460,0,0,SEARCHING,2.460,0.800,0.519,-0.066
19:38:08.101,SEARCHING,27.235,-18.758,1.000,0.00,0.00,135.43,4.974,7.890,7.381,5.867,2.434,0,0,SEARCHING,2.434,0.800,0.529,-0.066
19:38:08.303,SEARCHING,27.122,-18.645,1.000,0.00,0.00,134.71,4.974,8.172,6.934,6.022,2.460,0,0,SEARCHING,2.460,0.800,0.529,-0.057
19:38:08.511,SEARCHING,27.010,-18.531,1.000,0.00,0.00,134.04,5.085,8.172,6.730,6.022,2.434,0,0,SEARCHING,2.434,0.800,0.538,0.000
19:38:08.712,SEARCHING,26.899,-18.416,1.000,0.00,0.00,133.72,4.974,8.172,6.934,6.022,2.409,0,0,SEARCHING,2.409,0.800,0.548,-0.057
19:38:08.911,SEARCHING,26.789,-18.299,1.000,0.00,0.00,133.09,4.974,8.172,6.934,6.022,2.434,0,0,SEARCHING,2.434,0.800,0.538,-0.057
19:38:09.108,SEARCHING,26.680,-18.182,1.000,0.00,0.00,132.57,4.974,8.172,6.730,6.022,2.434,0,0,SEARCHING,2.434,0.800,0.538,-0.052
19:38:09.315,SEARCHING,26.572,-18.064,1.000,0.00,0.00,132.15,4.974,7.890,6.538,6.022,2.460,0,0,SEARCHING,2.460,0.800,0.529,0.000
19:38:09.513,SEARCHING,26.465,-17.945,1.000,0.00,0.00,131.85,4.974,7.627,6.538,6.022,2.487,0,0,SEARCHING,2.487,0.800,0.519,0.000
19:38:09.714,SEARCHING,26.359,-17.826,1.000,0.00,0.00,131.55,4.974,8.172,6.538,6.022,2.460,0,0,SEARCHING,2.460,0.800,0.529,0.000
19:38:09.908,SEARCHING,26.253,-17.706,1.000,0.00,0.00,131.36,4.767,7.890,6.538,6.022,2.460,0,0,SEARCHING,2.460,0.800,0.529,-0.057
19:38:10.108,SEARCHING,26.148,-17.585,1.000,0.00,0.00,130.91,4.868,7.890,6.538,6.022,2.434,0,0,SEARCHING,2.434,0.800,0.538,-0.052
19:38:10.324,SEARCHING,26.043,-17.464,1.000,0.00,0.00,130.41,4.868,7.627,6.356,6.022,2.434,0,0,SEARCHING,2.434,0.800,0.538,0.000
19:38:10.510,SEARCHING,25.940,-17.342,1.000,0.00,0.00,130.41,4.868,7.627,6.538,6.184,2.434,0,0,SEARCHING,2.434,0.800,0.548,-0.052
19:38:10.716,SEARCHING,25.836,-17.220,1.000,0.00,0.00,129.99,4.767,7.627,6.356,6.022,2.409,0,0,SEARCHING,2.409,0.800,0.548,-0.052
19:38:10.930,SEARCHING,25.734,-17.097,1.000,0.00,0.00,129.45,4.974,7.890,6.356,6.022,2.266,0,0,SEARCHING,2.266,0.800,0.606,0.000
19:38:11.127,SEARCHING,25.632,-16.973,1.000,0.00,0.00,129.45,4.868,7.890,6.356,6.022,2.288,0,0,SEARCHING,2.288,0.800,0.596,0.000
19:38:11.319,SEARCHING,25.531,-16.850,1.000,0.00,0.00,129.45,4.868,8.172,6.022,6.184,2.434,0,0,SEARCHING,2.434,0.800,0.548,0.000
19:38:11.512,SEARCHING,25.429,-16.726,1.000,0.00,0.00,129.45,4.868,8.172,6.022,6.022,2.359,0,0,SEARCHING,2.359,0.800,0.567,0.000
19:38:11.715,SEARCHING,25.327,-16.603,1.000,0.00,0.00,129.45,4.868,7.890,6.184,6.022,2.434,0,0,SEARCHING,2.434,0.800,0.538,0.000
19:38:11.912,SEARCHING,25.226,-16.479,1.000,0.00,0.00,129.45,4.868,7.627,6.184,6.022,2.460,0,0,SEARCHING,2.460,0.800,0.529,0.000
19:38:12.108,SEARCHING,25.124,-16.356,1.000,0.00,0.00,129.45,4.974,8.172,5.720,5.581,2.434,0,0,SEARCHING,2.434,0.800,0.510,0.000
19:38:12.321,SEARCHING,25.022,-16.232,1.000,0.00,0.00,129.45,4.974,7.627,5.867,6.022,2.434,0,0,SEARCHING,2.434,0.800,0.538,0.000
19:38:12.523,SEARCHING,24.921,-16.109,1.000,0.00,0.00,129.45,5.085,7.627,6.022,6.022,2.434,0,0,SEARCHING,2.434,0.800,0.538,0.000
19:38:12.722,SEARCHING,24.819,-15.985,1.000,0.00,0.00,129.45,5.085,7.381,6.022,6.022,2.409,0,0,SEARCHING,2.409,0.800,0.548,0.000
19:38:12.921,SEARCHING,24.717,-15.861,1.000,0.00,0.00,129.45,5.321,7.151,5.867,6.022,2.460,0,0,SEARCHING,2.460,0.800,0.529,0.000
19:38:13.115,SEARCHING,24.616,-15.738,1.000,0.00,0.00,129.45,5.321,7.381,5.867,5.867,2.409,0,0,SEARCHING,2.409,0.800,0.538,0.000
19:38:13.326,SEARCHING,24.514,-15.614,1.000,0.00,0.00,129.45,5.448,7.151,5.867,6.022,2.335,0,0,SEARCHING,2.335,0.800,0.577,0.000
19:38:13.518,SEARCHING,24.412,-15.491,1.000,0.00,0.00,129.45,5.321,7.151,6.022,6.022,2.460,0,0,SEARCHING,2.460,0.800,0.529,0.000
19:38:13.733,SEARCHING,24.311,-15.367,1.000,0.00,0.00,129.45,5.448,7.151,5.867,6.022,2.460,0,0,SEARCHING,2.460,0.800,0.529,0.000
19:38:13.919,SEARCHING,24.209,-15.244,1.000,0.00,0.00,129.45,5.448,7.381,6.022,6.022,2.460,0,0,SEARCHING,2.460,0.800,0.529,0.000
19:38:14.116,SEARCHING,24.107,-15.120,1.000,0.00,0.00,129.45,5.448,7.151,6.184,6.022,2.384,0,0,SEARCHING,2.384,0.800,0.558,0.000
19:38:14.321,SEARCHING,24.006,-14.997,1.000,0.00,0.00,129.45,5.448,7.151,6.184,6.184,2.460,0,0,SEARCHING,2.460,0.800,0.538,0.000
19:38:14.521,SEARCHING,23.904,-14.873,1.000,0.00,0.00,129.45,5.581,6.934,6.538,6.022,2.460,0,0,SEARCHING,2.460,0.800,0.529,0.000
19:38:14.729,SEARCHING,23.802,-14.750,1.000,0.00,0.00,129.45,5.581,6.730,6.356,5.867,2.434,0,0,SEARCHING,2.434,0.800,0.529,0.000
19:38:14.931,SEARCHING,23.701,-14.626,1.000,0.00,0.00,129.45,5.867,6.730,6.934,6.022,2.384,0,0,SEARCHING,2.384,0.800,0.558,0.000
19:38:15.127,SEARCHING,23.599,-14.502,1.000,0.00,0.00,129.45,5.867,6.730,6.934,6.022,2.409,0,0,SEARCHING,2.409,0.800,0.548,0.000
19:38:15.324,SEARCHING,23.497,-14.379,1.000,0.00,0.00,129.45,5.867,6.538,7.151,6.022,2.460,0,0,SEARCHING,2.460,0.800,0.529,0.000
19:38:15.522,SEARCHING,23.396,-14.255,1.000,0.00,0.00,129.45,5.720,6.356,6.934,5.867,2.460,0,0,SEARCHING,2.460,0.800,0.519,0.000
19:38:15.730,SEARCHING,23.294,-14.132,1.000,0.00,0.00,129.45,5.867,6.022,6.934,5.867,2.460,0,0,SEARCHING,2.460,0.800,0.519,0.000
19:38:15.925,SEARCHING,23.192,-14.008,1.000,0.00,0.00,129.45,5.581,5.581,6.730,5.867,2.409,0,0,SEARCHING,2.409,0.800,0.538,0.000
19:38:16.137,SEARCHING,23.091,-13.885,1.000,0.00,0.00,129.45,5.581,5.581,6.538,6.184,2.434,0,0,SEARCHING,2.434,0.800,0.548,0.000
19:38:16.337,SEARCHING,22.989,-13.761,1.000,0.00,0.00,129.45,5.581,5.448,6.184,6.022,2.359,0,0,SEARCHING,2.359,0.800,0.567,0.000
19:38:16.532,SEARCHING,22.887,-13.638,1.000,0.00,0.00,129.45,5.581,5.448,6.184,5.867,2.460,0,0,SEARCHING,2.460,0.800,0.519,0.000
19:38:16.733,SEARCHING,22.786,-13.514,1.000,0.00,0.00,129.45,5.448,5.200,6.022,6.022,2.514,0,0,SEARCHING,2.514,0.800,0.510,0.000
19:38:16.924,SEARCHING,22.684,-13.391,1.000,0.00,0.00,129.45,5.321,5.200,6.022,6.022,2.434,0,0,SEARCHING,2.434,0.800,0.538,0.000
19:38:17.139,SEARCHING,22.582,-13.267,1.000,0.00,0.00,129.45,5.321,4.974,5.867,5.448,2.409,0,0,SEARCHING,2.409,0.800,0.510,0.000
19:38:17.340,SEARCHING,22.481,-13.143,1.000,0.00,0.00,129.45,5.321,4.767,5.720,5.200,2.434,0,0,SEARCHING,2.434,0.800,0.481,0.000
19:38:17.533,SEARCHING,22.379,-13.020,1.000,0.00,0.00,129.45,5.448,4.670,5.321,5.085,2.460,0,0,SEARCHING,2.460,0.800,0.462,0.000
19:38:17.738,SEARCHING,22.277,-12.896,1.000,0.00,0.00,129.45,5.448,4.487,5.200,4.576,2.434,0,0,SEARCHING,2.434,0.800,0.423,0.000
19:38:17.938,SEARCHING,22.176,-12.773,1.000,0.00,0.00,129.45,5.321,4.237,5.085,4.487,2.434,0,0,SEARCHING,2.434,0.800,0.413,0.000
19:38:18.135,SEARCHING,22.074,-12.649,1.000,0.00,0.00,129.45,5.448,4.237,4.974,4.317,2.460,0,0,SEARCHING,2.460,0.800,0.385,0.000
19:38:18.329,SEARCHING,21.972,-12.526,1.000,0.00,0.00,129.45,5.448,4.086,4.868,4.086,2.460,0,0,SEARCHING,2.460,0.800,0.356,0.000
19:38:18.532,SEARCHING,21.871,-12.402,1.000,0.00,0.00,129.45,5.085,3.878,4.670,3.945,2.460,0,0,SEARCHING,2.460,0.800,0.337,0.000
19:38:18.743,SEARCHING,21.769,-12.279,1.000,0.00,0.00,129.45,4.974,3.751,4.670,3.751,2.460,0,0,SEARCHING,2.460,0.800,0.308,0.000
19:38:18.938,SEARCHING,21.667,-12.155,1.000,0.00,0.00,129.45,4.868,3.467,4.670,3.520,2.409,0,0,SEARCHING,2.409,0.800,0.288,0.000
19:38:19.143,SEARCHING,21.566,-12.032,1.000,0.00,0.00,129.45,4.767,3.415,4.670,3.365,2.409,0,0,SEARCHING,2.409,0.800,0.260,0.000
19:38:19.334,SEARCHING,21.464,-11.908,1.000,0.00,0.00,129.45,4.576,3.316,4.576,3.178,2.460,0,0,SEARCHING,2.460,0.800,0.202,0.000
19:38:19.535,SEARCHING,21.362,-11.784,1.000,0.00,0.00,129.45,4.487,3.178,4.670,3.134,2.434,0,0,SEARCHING,2.434,0.800,0.202,0.000
19:38:19.733,SEARCHING,21.261,-11.661,1.000,0.00,0.00,129.45,4.237,2.896,4.767,2.934,2.384,0,0,SEARCHING,2.384,0.800,0.173,0.000
19:38:19.951,SEARCHING,21.159,-11.537,1.000,0.00,0.00,129.45,4.014,2.790,4.974,2.825,2.409,0,0,SEARCHING,2.409,0.800,0.135,0.000
19:38:20.154,SEARCHING,21.057,-11.414,1.000,0.00,0.00,129.45,3.945,2.692,4.974,2.661,2.460,0,0,SEARCHING,2.460,0.800,0.067,-0.052
19:38:20.330,SEARCHING,20.956,-11.290,1.000,0.00,0.00,129.21,3.751,2.514,4.767,2.542,2.460,0,0,SEARCHING,2.460,0.800,0.029,-0.057
19:38:20.546,SEARCHING,20.856,-11.166,1.000,0.00,0.00,128.55,3.632,2.359,4.670,2.384,2.335,0,0,SEARCHING,2.335,0.755,0.019,-0.061
19:38:20.735,SEARCHING,20.762,-11.047,1.000,0.00,0.00,127.79,3.467,2.200,4.576,2.243,2.243,0,0,SEARCHING,2.200,0.704,0.000,-0.070
19:38:20.940,SEARCHING,20.676,-10.934,1.000,0.00,0.00,126.99,3.467,2.080,4.487,2.043,2.007,0,0,SEARCHING,2.007,0.666,0.019,-0.066
19:38:21.141,SEARCHING,20.595,-10.826,1.000,0.00,0.00,126.22,3.365,1.973,4.400,1.956,1.956,0,0,SEARCHING,1.956,0.631,0.000,-0.070
19:38:21.343,SEARCHING,20.521,-10.724,1.000,0.00,0.00,125.45,3.520,1.816,4.160,1.802,1.831,0,0,SEARCHING,1.802,0.581,-0.019,0.000
19:38:21.545,SEARCHING,20.454,-10.628,1.000,0.00,0.00,124.37,1.708,1.708,4.237,1.708,1.708,0,0,SEARCHING,1.708,0.546,0.000,-0.350
19:38:21.747,SEARCHING,20.394,-10.536,1.000,0.00,0.00,120.54,1.600,1.600,3.632,1.600,1.600,0,0,SEARCHING,1.600,0.512,0.000,-0.350
19:38:21.945,SEARCHING,20.345,-10.445,1.000,0.00,0.00,116.54,1.395,1.496,3.269,1.486,1.496,0,0,SEARCHING,1.395,0.479,-0.010,-0.411
19:38:22.137,SEARCHING,20.305,-10.359,1.000,0.00,0.00,112.06,1.250,1.486,2.860,1.486,1.395,0,0,SEARCHING,1.250,0.475,0.096,-0.450
19:38:22.342,SEARCHING,20.269,-10.258,1.000,0.00,0.00,107.10,1.217,4.400,2.825,4.317,2.409,0,0,SEARCHING,1.217,0.800,0.404,-0.468
19:38:22.543,SEARCHING,20.229,-10.104,1.000,0.00,0.00,101.71,1.059,3.691,2.790,3.632,2.460,0,0,SEARCHING,1.059,0.800,0.288,-0.586
19:38:22.753,SEARCHING,20.204,-9.946,1.000,0.00,0.00,95.55,5.720,2.934,2.724,2.934,2.460,0,0,SEARCHING,2.460,0.800,0.144,0.192
19:38:22.950,SEARCHING,20.190,-9.786,1.000,0.00,0.00,95.52,5.321,2.757,2.542,2.757,2.460,0,0,SEARCHING,2.460,0.800,0.096,0.205
19:38:23.161,SEARCHING,20.172,-9.627,1.000,0.00,0.00,97.81,5.720,2.724,2.384,2.757,2.542,0,0,SEARCHING,2.384,0.800,0.067,0.245
19:38:23.349,SEARCHING,20.147,-9.469,1.000,0.00,0.00,100.56,7.890,2.825,2.179,2.825,2.460,0,0,SEARCHING,2.179,0.800,0.115,0.332
19:38:23.598,INSPECTING,20.114,-9.313,1.000,0.00,0.00,104.24,7.890,0.297,2.025,3.011,2.434,0,0,SEARCHING,0.297,0.000,0.000,0.000
19:38:23.957,INSPECTING,20.093,-9.236,1.000,0.00,0.00,106.26,7.890,3.178,1.939,3.178,2.434,0,0,LEFT,7.890,0.150,0.000,1.100
19:38:24.116,INSPECTING,20.089,-9.224,1.000,0.00,0.00,111.31,7.890,3.269,1.923,3.316,2.434,0,0,LEFT,7.890,0.150,0.000,1.100
19:38:24.288,INSPECTING,20.083,-9.211,1.000,0.00,0.00,117.61,7.890,4.767,2.311,4.576,2.460,0,0,LEFT,7.890,0.150,0.000,1.100
19:38:24.665,SEARCHING,20.062,-9.180,1.000,0.00,0.00,133.37,0.518,8.475,7.627,6.184,2.460,0,0,RIGHT,7.627,0.150,0.000,-1.100
19:38:24.836,INSPECTING,20.051,-9.169,1.000,0.00,0.00,139.67,0.396,0.590,7.890,0.588,0.581,0,0,RIGHT,7.890,0.150,0.000,-1.100
19:38:25.019,INSPECTING,20.026,-9.152,1.000,0.00,0.00,152.27,0.383,0.499,7.381,0.501,0.492,0,0,RIGHT,7.381,0.150,0.000,-1.100
19:38:25.290,INSPECTING,19.993,-9.135,1.000,0.00,0.00,151.64,0.368,0.537,7.627,0.554,0.537,0,0,RIGHT,7.627,0.150,0.000,-1.100
19:38:25.463,INSPECTING,19.978,-9.126,1.000,0.00,0.00,144.08,0.438,8.801,7.627,6.022,2.460,0,0,RIGHT,7.627,0.150,0.000,-1.100
19:38:25.665,SEARCHING,19.961,-9.111,1.000,0.00,0.00,134.63,4.487,7.890,3.134,6.022,2.434,0,0,CENTER,6.707,0.150,0.000,0.000
19:38:25.877,INSPECTING,19.934,-9.075,1.000,0.00,0.00,115.72,8.172,0.297,2.099,3.751,2.460,0,0,SEARCHING,0.297,0.000,0.000,0.000
19:38:26.036,INSPECTING,19.928,-9.061,1.000,0.00,0.00,109.42,7.627,0.285,1.845,2.934,2.460,0,0,LEFT,7.627,0.150,0.000,1.100
19:38:26.245,INSPECTING,19.921,-9.032,1.000,0.00,0.00,102.48,7.890,0.285,1.802,2.934,2.460,0,0,LEFT,7.890,0.150,0.000,1.100
19:38:26.420,INSPECTING,19.894,-8.921,1.000,0.00,0.00,104.57,7.890,3.223,1.923,3.223,2.460,0,0,LEFT,7.890,0.150,0.000,1.100
19:38:26.795,SEARCHING,19.875,-8.864,1.000,0.00,0.00,120.20,4.014,8.172,3.520,6.022,2.460,0,0,CENTER,6.946,0.150,0.000,0.000
19:38:26.881,SEARCHING,19.862,-8.846,1.000,0.00,0.00,129.66,3.134,7.890,8.172,6.022,2.434,0,0,SEARCHING,2.434,0.800,0.538,-0.197
19:38:27.066,SEARCHING,19.829,-8.816,1.000,0.00,0.00,148.56,0.358,3.575,8.172,3.575,2.434,0,0,SEARCHING,0.358,0.800,0.288,-2.675
19:38:27.252,SEARCHING,19.555,-8.664,1.000,0.00,0.00,133.96,3.011,8.475,7.890,6.022,2.460,0,0,SEARCHING,2.460,0.800,0.529,-0.205
19:38:27.470,SEARCHING,19.446,-8.546,1.000,0.00,0.00,131.39,3.269,8.172,7.151,5.867,2.434,0,0,SEARCHING,2.434,0.800,0.529,-0.166
19:38:27.655,SEARCHING,19.342,-8.425,1.000,0.00,0.00,129.49,3.467,8.172,6.934,6.022,2.434,0,0,SEARCHING,2.434,0.800,0.538,-0.144
19:38:27.859,SEARCHING,19.242,-8.300,1.000,0.00,0.00,127.82,3.520,8.475,6.730,6.022,2.434,0,0,SEARCHING,2.434,0.800,0.538,-0.135
19:38:28.060,SEARCHING,19.146,-8.172,1.000,0.00,0.00,126.25,6.538,8.475,6.730,6.022,2.434,0,0,SEARCHING,2.434,0.800,0.538,0.000
19:38:28.278,SEARCHING,19.052,-8.043,1.000,0.00,0.00,125.78,7.890,8.172,6.730,6.022,2.460,0,0,SEARCHING,2.460,0.800,0.529,0.000
19:38:28.469,SEARCHING,18.958,-7.913,1.000,0.00,0.00,125.78,7.890,8.172,6.538,6.022,2.434,0,0,SEARCHING,2.434,0.800,0.538,0.000
19:38:28.664,SEARCHING,18.865,-7.783,1.000,0.00,0.00,125.78,7.890,7.890,6.538,6.022,2.460,0,0,SEARCHING,2.460,0.800,0.529,0.000
19:38:28.863,SEARCHING,18.771,-7.653,1.000,0.00,0.00,125.78,7.627,7.890,6.538,6.022,2.266,0,0,SEARCHING,2.266,0.800,0.606,0.000
19:38:29.063,SEARCHING,18.678,-7.524,1.000,0.00,0.00,125.78,7.890,7.627,6.184,5.867,2.409,0,0,SEARCHING,2.409,0.800,0.538,0.000
19:38:29.260,SEARCHING,18.584,-7.394,1.000,0.00,0.00,125.78,7.890,7.627,6.184,6.184,2.409,0,0,SEARCHING,2.409,0.800,0.558,0.000
19:38:29.458,SEARCHING,18.491,-7.264,1.000,0.00,0.00,125.78,7.890,7.890,6.022,5.867,2.335,0,0,SEARCHING,2.335,0.800,0.567,0.000
19:38:29.662,SEARCHING,18.397,-7.134,1.000,0.00,0.00,125.78,7.381,7.627,5.867,6.022,2.359,0,0,SEARCHING,2.359,0.800,0.567,0.000
19:38:29.861,SEARCHING,18.304,-7.004,1.000,0.00,0.00,125.78,7.627,7.381,5.720,6.184,2.434,0,0,SEARCHING,2.434,0.800,0.548,0.000
19:38:30.063,SEARCHING,18.210,-6.875,1.000,0.00,0.00,125.78,7.381,7.381,5.867,6.184,2.434,0,0,SEARCHING,2.434,0.800,0.548,0.000
19:38:30.269,SEARCHING,18.117,-6.745,1.000,0.00,0.00,125.78,7.381,7.381,5.581,6.022,2.460,0,0,SEARCHING,2.460,0.800,0.529,0.000
19:38:30.468,SEARCHING,18.023,-6.615,1.000,0.00,0.00,125.78,7.381,7.381,5.581,6.022,2.460,0,0,SEARCHING,2.460,0.800,0.529,0.000
19:38:30.672,SEARCHING,17.929,-6.485,1.000,0.00,0.00,125.78,7.151,6.538,5.581,6.022,2.460,0,0,SEARCHING,2.460,0.800,0.529,0.000
19:38:30.865,SEARCHING,17.836,-6.355,1.000,0.00,0.00,125.78,7.627,6.356,5.448,5.867,2.409,0,0,SEARCHING,2.409,0.800,0.538,0.052
19:38:31.078,SEARCHING,17.742,-6.226,1.000,0.00,0.00,126.08,7.890,7.151,5.448,6.022,2.460,0,0,SEARCHING,2.460,0.800,0.529,0.057
19:38:31.272,SEARCHING,17.647,-6.097,1.000,0.00,0.00,126.54,7.627,6.934,5.448,5.867,2.434,0,0,SEARCHING,2.434,0.800,0.529,0.052
19:38:31.471,SEARCHING,17.552,-5.969,1.000,0.00,0.00,127.16,7.381,6.934,5.321,5.867,2.434,0,0,SEARCHING,2.434,0.800,0.529,0.052
19:38:31.677,SEARCHING,17.454,-5.842,1.000,0.00,0.00,127.80,7.627,6.184,5.321,5.867,2.409,0,0,SEARCHING,2.409,0.800,0.538,0.057
19:38:31.868,SEARCHING,17.356,-5.716,1.000,0.00,0.00,128.46,7.151,5.720,5.200,5.720,2.434,0,0,SEARCHING,2.434,0.800,0.519,0.052
19:38:32.072,SEARCHING,17.255,-5.591,1.000,0.00,0.00,129.06,7.151,6.730,5.200,5.867,2.460,0,0,SEARCHING,2.460,0.800,0.519,0.052
19:38:32.271,SEARCHING,17.154,-5.467,1.000,0.00,0.00,129.70,7.151,5.720,4.317,5.720,2.460,0,0,SEARCHING,2.460,0.800,0.510,0.092
19:38:32.473,SEARCHING,17.051,-5.345,1.000,0.00,0.00,130.70,7.151,5.720,5.321,5.720,2.434,0,0,SEARCHING,2.434,0.800,0.519,0.000
19:38:32.674,SEARCHING,16.946,-5.224,1.000,0.00,0.00,131.23,6.934,5.720,5.085,5.720,2.409,0,0,SEARCHING,2.409,0.800,0.529,0.052
19:38:32.872,SEARCHING,16.840,-5.104,1.000,0.00,0.00,131.87,6.934,5.720,4.868,5.720,2.434,0,0,SEARCHING,2.434,0.800,0.519,0.061
19:38:33.075,SEARCHING,16.733,-4.985,1.000,0.00,0.00,132.34,6.538,5.720,4.767,5.720,2.434,0,0,SEARCHING,2.434,0.800,0.519,0.057
19:38:33.276,SEARCHING,16.624,-4.868,1.000,0.00,0.00,133.02,6.538,5.720,4.670,5.867,2.409,0,0,SEARCHING,2.409,0.800,0.538,0.061
19:38:33.477,SEARCHING,16.515,-4.751,1.000,0.00,0.00,133.72,6.356,5.720,4.576,5.720,2.384,0,0,SEARCHING,2.384,0.800,0.538,0.061
19:38:33.672,SEARCHING,16.403,-4.636,1.000,0.00,0.00,134.44,6.356,5.720,4.576,5.720,2.460,0,0,SEARCHING,2.460,0.800,0.510,0.061
19:38:33.882,SEARCHING,16.291,-4.523,1.000,0.00,0.00,135.17,6.022,5.581,4.487,5.581,2.434,0,0,SEARCHING,2.434,0.800,0.510,0.057
19:38:34.080,SEARCHING,16.177,-4.411,1.000,0.00,0.00,135.83,5.867,5.581,4.487,5.581,2.409,0,0,SEARCHING,2.409,0.800,0.519,0.052
19:38:34.274,SEARCHING,16.061,-4.300,1.000,0.00,0.00,136.43,5.867,4.086,4.400,4.086,2.409,0,0,SEARCHING,2.409,0.800,0.375,0.057
19:38:34.494,SEARCHING,15.945,-4.190,1.000,0.00,0.00,137.07,5.581,5.200,4.086,5.200,2.434,0,0,SEARCHING,2.434,0.800,0.481,0.066
19:38:34.678,SEARCHING,15.827,-4.082,1.000,0.00,0.00,137.77,5.448,5.448,4.317,5.448,2.434,0,0,SEARCHING,2.434,0.800,0.500,0.000
19:38:36.145,SEARCHING,15.738,-4.001,1.000,0.00,0.00,137.98,5.448,5.085,3.878,5.200,2.487,0,0,SEARCHING,2.487,0.800,0.462,0.074
19:38:36.234,SEARCHING,15.679,-3.948,1.000,0.00,0.00,137.98,5.200,4.767,4.086,4.767,2.434,0,0,SEARCHING,2.434,0.800,0.442,0.052
19:38:36.416,SEARCHING,15.500,-3.787,1.000,0.00,0.00,137.98,5.200,4.670,4.160,4.767,2.434,0,0,SEARCHING,2.434,0.800,0.442,0.000
19:38:36.611,SEARCHING,15.231,-3.548,1.000,0.00,0.00,138.66,4.868,4.576,3.945,4.576,2.460,0,0,SEARCHING,2.460,0.800,0.413,0.000
19:38:36.811,SEARCHING,15.111,-3.442,1.000,0.00,0.00,138.66,4.767,4.317,3.945,4.400,2.460,0,0,SEARCHING,2.460,0.800,0.394,0.000
19:38:37.002,SEARCHING,14.991,-3.337,1.000,0.00,0.00,138.92,7.381,4.237,4.014,4.237,2.434,0,0,SEARCHING,2.434,0.800,0.385,0.114
19:38:37.204,SEARCHING,14.869,-3.233,1.000,0.00,0.00,140.21,5.720,4.086,4.014,4.014,2.409,0,0,SEARCHING,2.409,0.800,0.365,0.074
19:38:37.406,SEARCHING,14.745,-3.131,1.000,0.00,0.00,141.18,6.184,3.945,4.014,3.878,2.409,0,0,SEARCHING,2.409,0.800,0.346,0.087
19:38:37.620,SEARCHING,14.620,-3.032,1.000,0.00,0.00,142.17,6.022,3.814,3.751,3.751,2.434,0,0,SEARCHING,2.434,0.800,0.317,0.101
19:38:37.818,SEARCHING,14.493,-2.935,1.000,0.00,0.00,143.27,5.720,3.632,3.520,3.632,2.460,0,0,SEARCHING,2.460,0.800,0.288,0.109
19:38:38.033,SEARCHING,14.364,-2.840,1.000,0.00,0.00,144.46,6.022,3.575,3.467,3.632,2.434,0,0,SEARCHING,2.434,0.800,0.298,0.122
19:38:38.209,SEARCHING,14.232,-2.749,1.000,0.00,0.00,145.86,4.868,3.691,3.316,3.691,2.460,0,0,SEARCHING,2.460,0.800,0.298,0.096
19:38:38.408,SEARCHING,14.099,-2.660,1.000,0.00,0.00,147.12,3.945,4.160,3.011,4.014,2.434,0,0,SEARCHING,2.434,0.800,0.356,0.079
19:38:38.610,SEARCHING,13.964,-2.575,1.000,0.00,0.00,148.08,3.814,4.400,2.896,4.237,2.460,0,0,SEARCHING,2.460,0.800,0.375,0.083
19:38:38.825,SEARCHING,13.828,-2.491,1.000,0.00,0.00,149.02,3.691,4.576,2.757,4.576,2.409,0,0,SEARCHING,2.409,0.800,0.433,0.092
19:38:39.021,SEARCHING,13.690,-2.410,1.000,0.00,0.00,150.07,3.520,4.868,2.571,4.974,2.460,0,0,SEARCHING,2.460,0.800,0.452,0.105
19:38:39.209,SEARCHING,13.550,-2.331,1.000,0.00,0.00,151.28,3.365,5.085,2.384,5.085,2.487,0,0,SEARCHING,2.384,0.800,0.452,0.122
19:38:39.413,SEARCHING,13.409,-2.256,1.000,0.00,0.00,152.71,3.316,5.085,2.266,5.200,2.460,0,0,SEARCHING,2.266,0.800,0.471,0.140
19:38:39.612,SEARCHING,13.266,-2.184,1.000,0.00,0.00,154.27,3.092,5.321,2.222,5.448,2.487,0,0,SEARCHING,2.222,0.800,0.481,0.127
19:38:39.818,SEARCHING,13.121,-2.117,1.000,0.00,0.00,155.70,2.934,5.448,2.335,5.448,2.460,0,0,SEARCHING,2.335,0.800,0.490,0.087
