timestamp,state,x,z,roll_deg,pitch_deg,yaw_deg,left,center,right,top,bottom,cmd_vx,cmd_vz,cmd_roll,cmd_yaw
2026-05-11 15:42:10.178676,SEARCHING,0.000,0.000,0.00,0.00,0.00,10.000,10.000,10.000,10.000,10.000,0.700,0.000,0.000,0.000
2026-05-11 15:42:11.437315,SEARCHING,0.000,1.000,0.00,0.00,0.00,10.000,10.000,10.000,10.000,10.000,0.700,0.000,0.000,0.000
2026-05-11 15:42:11.638691,SEARCHING,0.105,1.000,0.00,0.00,0.00,10.000,10.000,10.000,10.000,10.000,0.700,0.000,0.000,0.000
2026-05-11 15:42:11.862293,SEARCHING,0.245,1.000,0.00,0.00,0.00,10.000,10.000,10.000,10.000,10.000,0.700,0.000,0.000,0.000
2026-05-11 15:42:12.108813,SEARCHING,0.385,1.000,0.00,0.00,-1.40,0.835,4.487,4.767,4.400,2.460,0.700,0.108,-0.444,-0.889
2026-05-11 15:42:12.326742,SEARCHING,0.524,1.000,0.00,0.00,-11.29,0.835,4.487,4.767,4.400,2.460,0.700,0.108,-0.444,-0.889
2026-05-11 15:42:12.557642,SEARCHING,0.659,1.000,0.00,0.00,-21.47,3.878,5.085,2.692,5.085,2.460,0.700,0.126,0.051,0.102
2026-05-11 15:42:12.763688,SEARCHING,0.787,1.000,0.00,0.00,-23.14,3.878,5.085,2.692,5.085,2.460,0.700,0.126,0.051,0.102
2026-05-11 15:42:12.975171,SEARCHING,0.949,1.000,0.00,0.00,-21.68,3.878,5.085,2.692,5.085,2.460,0.700,0.126,0.051,0.102
2026-05-11 15:42:13.200708,SEARCHING,1.047,1.000,0.00,0.00,-20.36,6.184,4.487,2.243,4.487,2.222,0.700,0.136,0.128,0.256
2026-05-11 15:42:13.415438,SEARCHING,1.179,1.000,0.00,0.00,-17.43,6.184,4.487,2.243,4.487,2.222,0.700,0.136,0.128,0.256
2026-05-11 15:42:13.642746,SEARCHING,1.314,1.000,0.00,0.00,-14.50,6.184,4.487,2.243,4.487,2.222,0.700,0.136,0.128,0.256
2026-05-11 15:42:13.865860,SEARCHING,1.450,1.000,0.00,0.00,-11.57,6.184,4.487,2.243,4.487,2.222,0.700,0.136,0.128,0.256
2026-05-11 15:42:14.073355,SEARCHING,1.588,1.000,0.00,0.00,-8.64,6.184,4.487,2.243,4.487,2.222,0.700,0.136,0.128,0.256
2026-05-11 15:42:14.275751,SEARCHING,1.726,1.000,0.00,0.00,-5.71,6.184,4.487,2.243,4.487,2.222,0.700,0.136,0.128,0.256
2026-05-11 15:42:14.491997,SEARCHING,1.866,1.000,0.00,0.00,-2.78,2.692,6.022,3.520,5.867,2.434,0.700,0.144,-0.039,-0.079
2026-05-11 15:42:14.707957,SEARCHING,2.006,1.000,0.00,0.00,-2.76,2.630,6.022,3.575,5.867,2.460,0.700,0.142,-0.045,-0.090
2026-05-11 15:42:14.930177,SEARCHING,2.181,1.000,0.00,0.00,-4.05,2.630,6.022,3.575,5.867,2.460,0.700,0.142,-0.045,-0.090
2026-05-11 15:42:15.132248,SEARCHING,2.320,1.000,0.00,0.00,-5.09,2.630,6.022,3.575,5.867,2.460,0.700,0.142,-0.045,-0.090
2026-05-11 15:42:15.340181,SEARCHING,2.425,1.000,0.00,0.00,-5.87,2.630,6.022,3.575,5.867,2.460,0.700,0.142,-0.045,-0.090
2026-05-11 15:42:15.533406,SEARCHING,2.564,1.000,0.00,0.00,-6.90,2.630,6.022,3.575,5.867,2.460,0.700,0.142,-0.045,-0.090
2026-05-11 15:42:15.759055,SEARCHING,2.737,1.000,0.00,0.00,-7.77,2.896,5.200,3.051,5.085,2.434,0.700,0.128,-0.008,-0.016
2026-05-11 15:42:15.958950,SEARCHING,2.841,1.000,0.00,0.00,-7.68,3.691,4.868,2.934,4.974,2.409,0.700,0.128,0.031,0.063
2026-05-11 15:42:16.163671,SEARCHING,2.980,1.000,0.00,0.00,-6.96,3.691,4.767,2.896,4.868,2.409,0.700,0.126,0.033,0.067
2026-05-11 15:42:16.376247,SEARCHING,3.154,1.000,0.00,0.00,-6.01,3.575,4.767,2.896,4.868,2.460,0.700,0.121,0.029,0.059
2026-05-11 15:42:16.575001,SEARCHING,3.259,1.000,0.00,0.00,-5.50,3.575,4.767,2.896,4.868,2.460,0.700,0.121,0.029,0.059
2026-05-11 15:42:16.784118,SEARCHING,3.398,1.000,0.00,0.00,-4.82,3.575,4.767,2.896,4.868,2.460,0.700,0.121,0.029,0.059
2026-05-11 15:42:17.026629,SEARCHING,3.538,1.000,0.00,0.00,-4.14,3.316,5.448,2.860,4.974,2.434,0.700,0.126,0.022,0.043
2026-05-11 15:42:17.224089,SEARCHING,3.677,1.000,0.00,0.00,-3.60,3.316,5.448,2.860,4.974,2.434,0.700,0.126,0.022,0.043
2026-05-11 15:42:17.413712,SEARCHING,3.817,1.000,0.00,0.00,-3.11,3.316,5.448,2.860,4.974,2.434,0.700,0.126,0.022,0.043
2026-05-11 15:42:17.629105,SEARCHING,3.957,1.000,0.00,0.00,-2.61,3.316,5.448,2.860,4.974,2.434,0.700,0.126,0.022,0.043
2026-05-11 15:42:17.837115,SEARCHING,4.097,1.000,0.00,0.00,-2.12,3.316,5.448,2.860,4.974,2.434,0.700,0.126,0.022,0.043
2026-05-11 15:42:18.046727,SEARCHING,4.237,1.000,0.00,0.00,-1.62,3.316,5.448,2.860,4.974,2.434,0.700,0.126,0.022,0.043
2026-05-11 15:42:18.270555,SEARCHING,4.377,1.000,0.00,0.00,-1.12,3.316,5.448,2.860,4.974,2.434,0.700,0.126,0.022,0.043
2026-05-11 15:42:18.481293,SEARCHING,4.517,1.000,0.00,0.00,-0.63,3.316,5.448,2.860,4.974,2.434,0.700,0.126,0.022,0.043
2026-05-11 15:42:18.709498,SEARCHING,4.657,1.000,0.00,0.00,-0.25,2.790,3.814,2.934,3.945,2.434,0.700,0.094,-0.008,-0.016
2026-05-11 15:42:18.932672,SEARCHING,4.797,1.000,0.00,0.00,-0.46,2.757,3.751,2.860,3.814,2.434,0.700,0.089,-0.006,-0.012
2026-05-11 15:42:19.135618,SEARCHING,4.937,1.000,0.00,0.00,-0.57,2.825,3.751,2.790,3.814,2.434,0.700,0.089,0.002,0.004
2026-05-11 15:42:19.362227,SEARCHING,5.077,1.000,0.00,0.00,-0.53,2.757,3.691,2.661,3.751,2.460,0.700,0.084,0.006,0.012
2026-05-11 15:42:19.574370,SEARCHING,5.217,1.000,0.00,0.00,-0.41,2.757,3.632,2.514,3.691,2.335,0.700,0.094,0.016,0.031
2026-05-11 15:42:19.787446,SEARCHING,5.392,1.000,0.00,0.00,-0.04,2.757,3.632,2.514,3.691,2.335,0.700,0.094,0.016,0.031
2026-05-11 15:42:19.995388,SEARCHING,5.497,1.000,0.00,0.00,0.23,2.542,3.520,2.335,3.520,2.335,0.700,0.087,0.016,0.031
2026-05-11 15:42:20.194677,SEARCHING,5.637,1.000,0.00,0.00,0.52,2.384,3.415,2.335,3.415,2.243,0.700,0.092,0.004,0.008
2026-05-11 15:42:20.411685,SEARCHING,5.777,1.000,0.00,0.00,0.61,2.222,3.269,2.487,3.269,2.542,0.700,0.052,-0.022,-0.043
2026-05-11 15:42:20.635495,SEARCHING,5.917,1.000,0.00,0.00,0.26,2.222,3.269,2.487,3.269,2.542,0.700,0.052,-0.022,-0.043
2026-05-11 15:42:20.856324,SEARCHING,6.057,1.000,0.00,0.00,-0.34,2.025,3.223,2.487,3.178,2.487,0.700,0.052,-0.041,-0.083
2026-05-11 15:42:21.071392,SEARCHING,6.197,1.000,0.00,0.00,-1.29,2.025,3.223,2.487,3.178,2.487,0.700,0.052,-0.041,-0.083
2026-05-11 15:42:21.274755,SEARCHING,6.336,1.000,0.00,0.00,-2.24,2.025,3.223,2.487,3.178,2.487,0.700,0.052,-0.041,-0.083
2026-05-11 15:42:21.494421,SEARCHING,6.476,1.000,0.00,0.00,-3.18,1.557,3.365,2.311,3.365,2.460,0.700,0.066,-0.094,-0.189
2026-05-11 15:42:21.700722,SEARCHING,6.616,1.000,0.00,0.00,-5.04,1.611,3.365,2.222,3.415,2.409,0.700,0.073,-0.077,-0.153
2026-05-11 15:42:21.905725,SEARCHING,6.755,1.000,0.00,0.00,-6.90,1.611,3.365,2.222,3.415,2.409,0.700,0.073,-0.077,-0.153
2026-05-11 15:42:22.142328,SEARCHING,6.894,1.000,0.00,0.00,-8.41,1.733,3.814,1.990,3.878,2.487,0.700,0.087,-0.033,-0.067
2026-05-11 15:42:22.350853,SEARCHING,7.032,1.000,0.00,0.00,-9.18,1.891,4.487,1.845,4.400,2.460,0.700,0.108,0.006,0.012
2026-05-11 15:42:22.575165,SEARCHING,7.170,1.000,0.00,0.00,-9.27,1.891,4.487,1.845,4.400,2.460,0.700,0.108,0.006,0.012
2026-05-11 15:42:22.781981,SEARCHING,7.309,1.000,0.00,0.00,-9.04,1.956,4.317,1.788,4.317,2.460,0.700,0.105,0.022,0.043
2026-05-11 15:42:22.999206,SEARCHING,7.447,1.000,0.00,0.00,-8.55,1.956,4.317,1.788,4.317,2.460,0.700,0.105,0.022,0.043
2026-05-11 15:42:23.219046,SEARCHING,7.586,1.000,0.00,0.00,-8.05,1.956,4.317,1.788,4.317,2.460,0.700,0.105,0.022,0.043
2026-05-11 15:42:23.452052,SEARCHING,7.759,1.000,0.00,0.00,-7.43,1.802,3.751,1.876,3.751,2.460,0.700,0.084,-0.010,-0.020
2026-05-11 15:42:23.667624,SEARCHING,7.863,1.000,0.00,0.00,-7.53,1.802,3.751,1.876,3.751,2.460,0.700,0.084,-0.010,-0.020
2026-05-11 15:42:23.904201,SEARCHING,8.002,1.000,0.00,0.00,-7.75,1.802,3.751,1.876,3.751,2.460,0.700,0.084,-0.010,-0.020
2026-05-11 15:42:24.092794,SEARCHING,8.141,1.000,0.00,0.00,-7.98,1.802,3.751,1.876,3.751,2.460,0.700,0.084,-0.010,-0.020
2026-05-11 15:42:24.304718,SEARCHING,8.279,1.000,0.00,0.00,-8.21,1.802,3.751,1.876,3.751,2.460,0.700,0.084,-0.010,-0.020
2026-05-11 15:42:24.504959,SEARCHING,8.418,1.000,0.00,0.00,-8.43,1.802,3.751,1.876,3.751,2.460,0.700,0.084,-0.010,-0.020
2026-05-11 15:42:24.722866,SEARCHING,8.556,1.000,0.00,0.00,-8.66,1.802,3.751,1.876,3.751,2.460,0.700,0.084,-0.010,-0.020
2026-05-11 15:42:24.936591,SEARCHING,8.694,1.000,0.00,0.00,-9.15,1.623,2.825,2.359,2.790,2.434,0.700,0.031,-0.087,-0.173
2026-05-11 15:42:25.168230,SEARCHING,8.867,1.000,0.00,0.00,-11.62,1.658,2.661,2.243,2.661,2.600,0.700,0.005,-0.071,-0.142
2026-05-11 15:42:25.383448,SEARCHING,8.969,1.000,0.00,0.00,-12.88,1.658,2.661,2.243,2.661,2.600,0.700,0.005,-0.071,-0.142
2026-05-11 15:42:25.586611,SEARCHING,9.105,1.000,0.00,0.00,-14.50,1.658,2.661,2.243,2.661,2.600,0.700,0.005,-0.071,-0.142
2026-05-11 15:42:25.800209,SEARCHING,9.240,1.000,0.00,0.00,-16.12,1.658,2.661,2.243,2.661,2.600,0.700,0.005,-0.071,-0.142
2026-05-11 15:42:26.014553,SEARCHING,9.374,1.000,0.00,0.00,-17.74,1.658,2.661,2.243,2.661,2.600,0.700,0.005,-0.071,-0.142
2026-05-11 15:42:26.239650,SEARCHING,9.507,1.000,0.00,0.00,-19.37,1.658,2.661,2.243,2.661,2.600,0.700,0.005,-0.071,-0.142
2026-05-11 15:42:26.445704,SEARCHING,9.639,1.000,0.00,0.00,-20.99,1.658,2.661,2.243,2.661,2.600,0.700,0.005,-0.071,-0.142
2026-05-11 15:42:26.653467,SEARCHING,9.769,1.000,0.00,0.00,-22.61,1.658,2.661,2.243,2.661,2.600,0.700,0.005,-0.071,-0.142
2026-05-11 15:42:26.887033,SEARCHING,9.897,1.000,0.00,0.00,-24.24,1.658,2.661,2.243,2.661,2.600,0.700,0.005,-0.071,-0.142
2026-05-11 15:42:27.100425,SEARCHING,10.024,1.000,0.00,0.00,-25.86,1.658,2.661,2.243,2.661,2.600,0.700,0.005,-0.071,-0.142
2026-05-11 15:42:27.328492,SEARCHING,10.149,1.000,0.00,0.00,-27.48,1.658,2.661,2.243,2.661,2.600,0.700,0.005,-0.071,-0.142
2026-05-11 15:42:27.538856,SEARCHING,10.273,1.000,0.00,0.00,-29.10,1.658,2.661,2.243,2.661,2.600,0.700,0.005,-0.071,-0.142
2026-05-11 15:42:27.767593,SEARCHING,10.394,1.000,0.00,0.00,-30.73,4.237,1.467,0.986,1.457,1.476,0.513,-0.005,0.350,0.700
2026-05-11 15:42:28.003652,SEARCHING,10.495,1.000,0.00,0.00,-26.08,4.237,1.467,0.986,1.457,1.476,0.513,-0.005,0.350,0.700
2026-05-11 15:42:28.189750,SEARCHING,10.589,1.000,0.00,0.00,-17.91,4.237,1.430,0.934,1.421,1.430,0.501,-0.003,0.376,0.751
2026-05-11 15:42:28.396017,SEARCHING,10.686,1.000,0.00,0.00,-9.30,4.237,1.430,0.934,1.421,1.430,0.501,-0.003,0.376,0.751
2026-05-11 15:42:28.619382,SEARCHING,10.785,1.000,0.00,0.00,-0.69,4.237,1.430,0.934,1.421,1.430,0.501,-0.003,0.376,0.751
2026-05-11 15:42:29.234369,SEARCHING,10.910,1.000,0.00,0.00,10.07,4.237,1.430,0.934,1.421,1.430,0.501,-0.003,0.376,0.751
2026-05-11 15:42:29.275547,SEARCHING,10.983,1.000,0.00,0.00,16.53,4.237,1.430,0.934,1.421,1.430,0.501,-0.003,0.376,0.751
2026-05-11 15:42:30.054371,SEARCHING,11.077,1.000,0.00,0.00,25.13,4.237,1.430,0.934,1.421,1.430,0.501,-0.003,0.376,0.751
2026-05-11 15:42:30.094352,SEARCHING,11.164,1.000,0.00,0.00,33.74,4.237,1.430,0.934,1.421,1.430,0.501,-0.003,0.376,0.751
2026-05-11 15:42:30.293514,SEARCHING,11.243,1.000,0.00,0.00,42.35,4.237,1.430,0.934,1.421,1.430,0.501,-0.003,0.376,0.751
2026-05-11 15:42:30.533577,INSPECTING,11.309,1.000,0.00,0.00,50.53,1.035,0.388,0.373,0.387,1.330,0.350,-0.550,0.552,0.850
2026-05-11 15:42:30.763172,INSPECTING,11.344,1.000,0.00,0.00,58.81,1.035,0.388,0.373,0.387,1.330,0.350,-0.550,0.552,0.850
2026-05-11 15:42:30.945800,INSPECTING,11.376,1.000,0.00,0.00,68.55,0.605,0.982,1.162,0.986,0.982,0.350,0.550,-0.552,-0.850
2026-05-11 15:42:31.145618,INSPECTING,11.405,1.000,0.00,0.00,59.78,0.517,0.867,0.999,0.863,0.873,0.350,-0.550,-0.552,-0.850
2026-05-11 15:42:31.373290,INSPECTING,11.456,1.000,0.00,0.00,47.61,0.461,0.854,1.031,0.854,0.854,0.350,0.550,-0.552,-0.850
2026-05-11 15:42:31.614024,INSPECTING,11.494,1.000,0.00,0.00,40.30,0.698,0.870,1.162,0.873,0.870,0.350,0.550,-0.552,-0.850
2026-05-11 15:42:31.791898,INSPECTING,11.550,1.000,0.00,0.00,30.56,0.693,0.890,1.162,0.887,0.890,0.350,-0.550,-0.552,-0.850
2026-05-11 15:42:32.017898,INSPECTING,11.613,1.000,0.00,0.00,20.82,0.693,0.890,1.162,0.887,0.890,0.350,-0.550,-0.552,-0.850
2026-05-11 15:42:32.226327,INSPECTING,11.680,1.000,0.00,0.00,11.08,0.693,0.890,1.162,0.887,0.890,0.350,-0.550,-0.552,-0.850
2026-05-11 15:42:32.464846,INSPECTING,11.750,1.000,0.00,0.00,1.34,0.693,0.890,1.162,0.887,0.890,0.350,-0.550,-0.552,-0.850
2026-05-11 15:42:32.684035,INSPECTING,11.820,1.000,0.00,0.00,-8.40,0.693,0.890,1.162,0.887,0.890,0.350,-0.550,-0.552,-0.850
2026-05-11 15:42:32.893135,INSPECTING,11.888,1.000,0.00,0.00,-18.14,0.693,0.890,1.162,0.887,0.890,0.350,-0.550,-0.552,-0.850
2026-05-11 15:42:33.091397,INSPECTING,11.952,1.000,0.00,0.00,-27.88,0.693,0.890,1.162,0.887,0.890,0.350,-0.550,-0.552,-0.850
2026-05-11 15:42:33.288581,INSPECTING,12.011,1.000,0.00,0.00,-37.62,0.693,0.890,1.162,0.887,0.890,0.350,-0.550,-0.552,-0.850
2026-05-11 15:42:33.527333,INSPECTING,12.063,1.000,0.00,0.00,-47.36,0.693,0.890,1.162,0.887,0.890,0.350,-0.550,-0.552,-0.850
2026-05-11 15:42:33.705477,INSPECTING,12.107,1.000,0.00,0.00,-57.10,0.693,0.890,1.162,0.887,0.890,0.350,-0.550,-0.552,-0.850
2026-05-11 15:42:33.911631,SEARCHING,12.140,1.000,0.00,0.00,-66.84,2.661,1.285,1.084,1.285,1.293,0.450,-0.003,0.246,0.492
2026-05-11 15:42:34.102560,SEARCHING,12.173,1.000,0.00,0.00,-65.05,2.661,1.285,1.084,1.285,1.293,0.450,-0.003,0.246,0.492
2026-05-11 15:42:34.333562,SEARCHING,12.213,1.000,0.00,0.00,-59.33,2.311,1.133,0.965,1.138,1.138,0.396,0.000,0.271,0.543
2026-05-11 15:42:34.543244,SEARCHING,12.257,1.000,0.00,0.00,-53.11,2.934,1.733,0.908,1.733,1.708,0.607,0.005,0.342,0.684
2026-05-11 15:42:34.755720,SEARCHING,12.329,1.000,0.00,0.00,-45.67,2.934,1.733,0.908,1.733,1.708,0.607,0.005,0.342,0.684
2026-05-11 15:42:34.961972,SEARCHING,12.419,1.000,0.00,0.00,-37.83,2.934,1.733,0.908,1.733,1.708,0.607,0.005,0.342,0.684
2026-05-11 15:42:35.164564,SEARCHING,12.519,1.000,0.00,0.00,-29.99,2.934,1.733,0.908,1.733,1.708,0.607,0.005,0.342,0.684
2026-05-11 15:42:35.379296,SEARCHING,12.630,1.000,0.00,0.00,-22.94,2.790,3.365,1.658,3.365,2.460,0.700,0.066,0.110,0.220
2026-05-11 15:42:35.592063,SEARCHING,12.760,1.000,0.00,0.00,-20.42,2.790,3.365,1.658,3.365,2.460,0.700,0.066,0.110,0.220
2026-05-11 15:42:35.812682,SEARCHING,12.892,1.000,0.00,0.00,-17.89,2.790,3.365,1.658,3.365,2.460,0.700,0.066,0.110,0.220
2026-05-11 15:42:35.999118,SEARCHING,13.026,1.000,0.00,0.00,-16.60,1.658,5.867,2.692,5.321,2.692,0.700,0.110,-0.104,-0.208
2026-05-11 15:42:36.223530,SEARCHING,13.159,1.000,0.00,0.00,-18.99,1.658,5.867,2.692,5.321,2.692,0.700,0.110,-0.104,-0.208
2026-05-11 15:42:36.431463,SEARCHING,13.291,1.000,0.00,0.00,-21.38,1.658,5.867,2.692,5.321,2.692,0.700,0.110,-0.104,-0.208
2026-05-11 15:42:36.632099,SEARCHING,13.420,1.000,0.00,0.00,-23.76,1.658,5.867,2.692,5.321,2.692,0.700,0.110,-0.104,-0.208
2026-05-11 15:42:36.864177,SEARCHING,13.547,1.000,0.00,0.00,-26.15,1.658,5.867,2.692,5.321,2.692,0.700,0.110,-0.104,-0.208
2026-05-11 15:42:37.075512,SEARCHING,13.702,1.000,0.00,0.00,-29.14,1.658,5.867,2.692,5.321,2.692,0.700,0.110,-0.104,-0.208
2026-05-11 15:42:37.280414,SEARCHING,13.793,1.000,0.00,0.00,-30.93,1.658,5.867,2.692,5.321,2.692,0.700,0.110,-0.104,-0.208
2026-05-11 15:42:37.507009,SEARCHING,13.912,1.000,0.00,0.00,-33.32,1.658,5.867,2.692,5.321,2.692,0.700,0.110,-0.104,-0.208
2026-05-11 15:42:37.711178,SEARCHING,14.028,1.000,0.00,0.00,-35.71,1.658,5.867,2.692,5.321,2.692,0.700,0.110,-0.104,-0.208
2026-05-11 15:42:37.924953,SEARCHING,14.139,1.000,0.00,0.00,-42.25,4.670,2.266,1.448,2.266,2.266,0.700,0.000,0.214,0.429
2026-05-11 15:42:38.137717,SEARCHING,14.235,1.000,0.00,0.00,-45.61,4.014,1.973,1.300,1.939,1.973,0.690,-0.005,0.234,0.468
2026-05-11 15:42:38.350038,SEARCHING,14.334,1.000,0.00,0.00,-40.19,3.134,1.695,1.144,1.695,1.695,0.593,0.000,0.250,0.500
2026-05-11 15:42:38.558718,SEARCHING,14.428,1.000,0.00,0.00,-34.46,3.134,1.695,1.144,1.695,1.695,0.593,0.000,0.250,0.500
2026-05-11 15:42:38.763209,SEARCHING,14.532,1.000,0.00,0.00,-34.67,0.394,2.061,1.257,2.080,2.061,0.700,0.003,-0.785,-1.569
2026-05-11 15:42:38.963885,SEARCHING,14.635,1.000,0.00,0.00,-52.65,3.051,1.467,1.012,1.467,1.476,0.513,-0.003,0.297,0.594
2026-05-11 15:42:39.168692,SEARCHING,14.697,1.000,0.00,0.00,-52.19,1.578,1.074,0.814,1.079,1.074,0.376,0.003,0.267,0.535
2026-05-11 15:42:39.364603,SEARCHING,14.748,1.000,0.00,0.00,-45.97,1.802,1.116,0.814,1.122,1.122,0.391,0.000,0.303,0.606
2026-05-11 15:42:39.565984,SEARCHING,14.806,1.000,0.00,0.00,-39.07,2.119,1.192,0.832,1.179,1.167,0.417,0.005,0.328,0.657
2026-05-11 15:42:39.778368,SEARCHING,14.875,1.000,0.00,0.00,-31.40,0.365,1.448,0.908,1.430,1.439,0.507,-0.003,-0.737,-1.475
2026-05-11 15:42:39.987178,SEARCHING,14.960,1.000,0.00,0.00,-41.72,0.384,1.567,0.946,1.546,1.589,0.549,-0.010,-0.696,-1.392
2026-05-11 15:42:40.234946,INSPECTING,15.029,1.000,0.00,0.00,-51.44,1.505,0.923,0.661,0.919,0.923,0.000,0.000,0.000,0.000
2026-05-11 15:42:40.412935,INSPECTING,15.074,1.000,0.00,0.00,-44.04,1.308,0.851,0.623,0.844,0.851,0.350,-0.550,0.552,0.850
2026-05-11 15:42:40.657544,INSPECTING,15.128,1.000,0.00,0.00,-34.30,1.634,0.923,0.634,0.923,0.923,0.350,0.550,0.552,0.850
2026-05-11 15:42:40.884655,SEARCHING,15.188,1.000,0.00,0.00,-24.56,0.394,1.387,0.773,1.362,1.338,0.350,0.000,0.000,0.000
2026-05-11 15:42:41.018385,SEARCHING,15.260,1.000,0.00,0.00,-28.57,0.394,1.387,0.773,1.362,1.338,0.485,0.008,-0.560,-1.121
2026-05-11 15:42:41.238849,SEARCHING,15.340,1.000,0.00,0.00,-41.42,2.757,1.122,0.681,1.122,1.122,0.393,0.000,0.498,0.995
2026-05-11 15:42:41.486491,INSPECTING,15.399,1.000,0.00,0.00,-36.65,1.923,0.800,0.544,0.795,0.797,0.350,-0.550,0.552,0.850
2026-05-11 15:42:41.683391,INSPECTING,15.465,1.000,0.00,0.00,-25.93,2.600,0.982,0.609,0.982,0.991,0.350,-0.550,0.552,0.850
2026-05-11 15:42:41.880374,INSPECTING,15.513,1.000,0.00,0.00,-18.63,2.600,0.982,0.609,0.982,0.991,0.350,-0.550,0.552,0.850
2026-05-11 15:42:42.087484,INSPECTING,15.581,1.000,0.00,0.00,-8.89,2.600,0.982,0.609,0.982,0.991,0.350,-0.550,0.552,0.850
2026-05-11 15:42:42.306453,INSPECTING,15.651,1.000,0.00,0.00,0.85,2.600,0.982,0.609,0.982,0.991,0.350,-0.550,0.552,0.850
2026-05-11 15:42:42.533697,INSPECTING,15.720,1.000,0.00,0.00,10.59,2.600,0.982,0.609,0.982,0.991,0.350,-0.550,0.552,0.850
2026-05-11 15:42:42.730493,INSPECTING,15.788,1.000,0.00,0.00,20.33,2.600,0.982,0.609,0.982,0.991,0.350,-0.550,0.552,0.850
2026-05-11 15:42:42.935460,INSPECTING,15.851,1.000,0.00,0.00,30.08,2.600,0.982,0.609,0.982,0.991,0.350,-0.550,0.552,0.850
2026-05-11 15:42:43.161517,INSPECTING,15.909,1.000,0.00,0.00,39.82,2.600,0.982,0.609,0.982,0.991,0.350,-0.550,0.552,0.850
2026-05-11 15:42:43.384285,INSPECTING,15.959,1.000,0.00,0.00,49.56,2.600,0.982,0.609,0.982,0.991,0.350,-0.550,0.552,0.850
2026-05-11 15:42:43.594468,INSPECTING,16.000,1.000,0.00,0.00,59.30,2.600,0.982,0.609,0.982,0.991,0.350,-0.550,0.552,0.850
2026-05-11 15:42:43.788211,INSPECTING,16.031,1.000,0.00,0.00,69.04,2.600,0.982,0.609,0.982,0.991,0.350,-0.550,0.552,0.850
2026-05-11 15:42:44.013857,INSPECTING,16.051,1.000,0.00,0.00,78.78,2.600,0.982,0.609,0.982,0.991,0.350,-0.550,0.552,0.850
2026-05-11 15:42:44.220006,INSPECTING,16.060,1.000,0.00,0.00,88.52,2.600,0.982,0.609,0.982,0.991,0.350,-0.550,0.552,0.850
2026-05-11 15:42:44.451228,INSPECTING,16.056,1.000,0.00,0.00,95.33,1.116,1.054,1.150,1.050,1.059,0.350,-0.550,0.552,0.850
2026-05-11 15:42:44.638672,INSPECTING,16.053,1.000,0.00,0.00,94.36,0.999,0.957,1.079,0.957,0.961,0.350,-0.550,0.552,0.850
2026-05-11 15:42:44.903822,INSPECTING,16.038,1.000,0.00,0.00,106.54,1.026,0.934,1.054,0.946,0.942,0.350,0.550,0.552,0.850
2026-05-11 15:42:45.109093,INSPECTING,16.020,1.000,0.00,0.00,113.84,1.237,0.894,0.820,0.883,0.887,0.350,-0.550,0.552,0.850
2026-05-11 15:42:45.311438,INSPECTING,15.977,1.000,0.00,0.00,126.02,1.323,0.915,0.781,0.915,0.915,0.350,0.550,0.552,0.850
2026-05-11 15:42:45.501878,INSPECTING,15.944,1.000,0.00,0.00,133.32,1.747,1.040,0.731,1.035,1.031,0.350,0.550,0.552,0.850
2026-05-11 15:42:45.724719,INSPECTING,15.892,1.000,0.00,0.00,143.06,2.757,1.230,0.792,1.224,1.211,0.350,0.550,0.552,0.850
2026-05-11 15:42:45.902290,SEARCHING,15.834,1.000,0.00,0.00,152.80,3.878,1.658,0.934,1.670,1.646,0.580,0.005,0.366,0.732
2026-05-11 15:42:46.100523,SEARCHING,15.733,1.000,0.00,0.00,161.39,3.878,1.658,0.934,1.670,1.646,0.580,0.005,0.366,0.732
2026-05-11 15:42:46.324952,SEARCHING,15.621,1.000,0.00,0.00,169.77,3.878,1.658,0.934,1.670,1.646,0.580,0.005,0.366,0.732
2026-05-11 15:42:46.536005,SEARCHING,15.502,1.000,0.00,0.00,176.46,1.774,2.600,3.575,2.630,2.487,0.700,0.013,-0.128,-0.256
2026-05-11 15:42:46.730647,SEARCHING,15.363,1.000,0.00,0.00,173.53,1.774,2.600,3.575,2.630,2.487,0.700,0.013,-0.128,-0.256
2026-05-11 15:42:46.941995,SEARCHING,15.224,1.000,0.00,0.00,170.50,1.623,2.359,3.269,2.359,2.222,0.700,0.016,-0.140,-0.279
2026-05-11 15:42:47.152179,SEARCHING,15.087,1.000,0.00,0.00,167.25,1.670,2.266,3.223,2.266,2.288,0.700,-0.003,-0.130,-0.260
2026-05-11 15:42:47.375517,SEARCHING,14.951,1.000,0.00,0.00,164.22,1.774,3.269,3.051,3.092,2.460,0.700,0.050,-0.106,-0.212
2026-05-11 15:42:47.575239,SEARCHING,14.817,1.000,0.00,0.00,161.73,1.816,3.092,2.757,3.092,2.359,0.700,0.060,-0.085,-0.169
2026-05-11 15:42:47.802996,SEARCHING,14.652,1.000,0.00,0.00,159.51,1.788,2.896,2.434,2.896,2.434,0.700,0.039,-0.067,-0.134
2026-05-11 15:42:48.003731,SEARCHING,14.521,1.000,0.00,0.00,157.97,1.567,2.692,2.119,2.692,2.487,0.700,0.018,-0.075,-0.149
2026-05-11 15:42:48.219935,SEARCHING,14.424,1.000,0.00,0.00,156.71,1.567,2.692,2.119,2.692,2.487,0.700,0.018,-0.075,-0.149
2026-05-11 15:42:48.435136,SEARCHING,14.297,1.000,0.00,0.00,154.99,1.567,2.692,2.119,2.692,2.487,0.700,0.018,-0.075,-0.149
2026-05-11 15:42:48.640038,SEARCHING,14.171,1.000,0.00,0.00,153.28,1.567,2.692,2.119,2.692,2.487,0.700,0.018,-0.075,-0.149
2026-05-11 15:42:48.847821,SEARCHING,14.046,1.000,0.00,0.00,151.57,1.567,2.692,2.119,2.692,2.487,0.700,0.018,-0.075,-0.149
2026-05-11 15:42:49.064409,SEARCHING,13.924,1.000,0.00,0.00,149.86,1.567,2.692,2.119,2.692,2.487,0.700,0.018,-0.075,-0.149
2026-05-11 15:42:49.278451,SEARCHING,13.804,1.000,0.00,0.00,148.14,1.567,2.692,2.119,2.692,2.487,0.700,0.018,-0.075,-0.149
2026-05-11 15:42:49.482396,SEARCHING,13.686,1.000,0.00,0.00,146.43,1.788,1.733,1.354,1.733,2.409,0.607,-0.097,0.081,0.161
2026-05-11 15:42:49.707424,SEARCHING,13.582,1.000,0.00,0.00,147.38,1.720,1.670,1.323,1.670,2.359,0.585,-0.105,0.079,0.157
2026-05-11 15:42:49.916597,SEARCHING,13.482,1.000,0.00,0.00,149.18,1.720,1.670,1.323,1.670,2.359,0.585,-0.105,0.079,0.157
2026-05-11 15:42:50.120261,SEARCHING,13.381,1.000,0.00,0.00,150.99,1.720,1.670,1.323,1.670,2.359,0.585,-0.105,0.079,0.157
2026-05-11 15:42:50.322569,SEARCHING,13.278,1.000,0.00,0.00,152.79,1.720,1.670,1.323,1.670,2.359,0.585,-0.105,0.079,0.157
2026-05-11 15:42:50.566782,SEARCHING,13.181,1.000,0.00,0.00,153.78,1.278,1.204,1.557,1.204,1.956,0.422,-0.191,-0.063,-0.126
2026-05-11 15:42:50.776095,SEARCHING,13.107,1.000,0.00,0.00,152.31,1.244,1.105,1.536,1.100,1.860,0.387,-0.223,-0.069,-0.138
2026-05-11 15:42:51.032911,INSPECTING,13.039,1.000,0.00,0.00,150.73,1.074,0.991,1.421,0.991,1.747,0.000,0.000,0.000,0.000
2026-05-11 15:42:51.252116,INSPECTING,13.006,1.000,0.00,0.00,149.53,1.026,0.953,1.395,0.949,1.695,0.000,0.000,0.000,0.000
2026-05-11 15:42:51.473787,INSPECTING,12.965,1.000,0.00,0.00,142.71,1.026,0.953,1.395,0.949,1.695,0.000,0.000,0.000,0.000
2026-05-11 15:42:51.663789,INSPECTING,12.946,1.000,0.00,0.00,139.30,0.820,0.877,1.198,0.867,1.600,0.350,-0.550,-0.552,-0.850
2026-05-11 15:42:51.879894,INSPECTING,12.903,1.000,0.00,0.00,131.02,0.820,0.877,1.198,0.867,1.600,0.350,-0.550,-0.552,-0.850
2026-05-11 15:42:52.060082,INSPECTING,12.861,1.000,0.00,0.00,121.28,0.820,0.877,1.198,0.867,1.600,0.350,-0.550,-0.552,-0.850
2026-05-11 15:42:52.289650,INSPECTING,12.830,1.000,0.00,0.00,112.52,1.300,1.105,0.689,1.105,1.105,0.350,0.550,0.552,0.850
2026-05-11 15:42:52.478406,INSPECTING,12.798,1.000,0.00,0.00,122.26,1.204,1.008,0.835,1.008,1.004,0.350,0.550,0.552,0.850
2026-05-11 15:42:52.689068,INSPECTING,12.756,1.000,0.00,0.00,132.00,0.760,1.040,0.826,1.045,1.040,0.350,0.000,0.000,0.000
2026-05-11 15:42:52.928361,INSPECTING,12.707,1.000,0.00,0.00,136.38,0.584,1.127,0.841,1.116,1.122,0.350,0.000,0.000,0.000
2026-05-11 15:42:53.125792,INSPECTING,12.656,1.000,0.00,0.00,136.38,0.571,1.105,0.826,1.100,1.105,0.350,0.000,0.000,0.000
2026-05-11 15:42:53.390151,INSPECTING,12.605,1.000,0.00,0.00,136.38,0.531,0.991,0.741,0.995,0.995,0.350,0.550,-0.552,-0.850
2026-05-11 15:42:53.690016,INSPECTING,12.555,1.000,0.00,0.00,133.95,0.514,0.942,0.708,0.953,0.942,0.350,0.550,-0.552,-0.850
2026-05-11 15:42:54.006892,INSPECTING,12.531,1.000,0.00,0.00,129.08,0.545,0.887,0.673,0.887,0.883,0.350,0.550,-0.552,-0.850
2026-05-11 15:42:54.188437,INSPECTING,12.510,1.000,0.00,0.00,124.21,0.720,0.594,0.508,0.594,0.594,0.350,0.550,-0.552,-0.850
2026-05-11 15:42:54.352582,TURNING,12.483,1.000,0.00,0.00,116.90,0.652,0.555,0.485,0.555,0.557,0.000,0.000,0.000,-0.800
2026-05-11 15:42:54.539692,TURNING,12.452,1.000,0.00,0.00,104.73,0.425,0.404,0.385,0.404,0.404,0.000,0.000,0.000,-0.800
2026-05-11 15:42:54.743590,TURNING,12.439,1.000,0.00,0.00,93.12,0.404,0.404,0.404,0.404,0.404,0.000,0.000,0.000,-0.800
2026-05-11 15:42:54.970531,TURNING,12.439,1.000,0.00,0.00,79.37,0.379,0.397,0.415,0.396,0.396,0.000,0.000,0.000,-0.800
2026-05-11 15:42:55.116753,TURNING,12.439,1.000,0.00,0.00,65.62,0.361,0.398,0.442,0.397,0.397,0.000,0.000,0.000,-0.800
2026-05-11 15:42:55.303237,TURNING,12.439,1.000,0.00,0.00,56.45,0.359,0.405,0.469,0.408,0.406,0.000,0.000,0.000,-0.800
2026-05-11 15:42:55.525862,TURNING,12.439,1.000,0.00,0.00,47.29,0.360,0.427,0.256,0.426,0.425,0.000,0.000,0.000,-0.800
2026-05-11 15:42:55.720741,TURNING,12.439,1.000,0.00,0.00,38.12,0.369,0.451,0.265,0.451,0.452,0.000,0.000,0.000,-0.800
2026-05-11 15:42:55.918141,TURNING,12.439,1.000,0.00,0.00,28.95,0.369,0.451,0.265,0.451,0.452,0.000,0.000,0.000,-0.800
2026-05-11 15:42:56.149049,TURNING,12.439,1.000,0.00,0.00,19.78,0.369,0.451,0.265,0.451,0.452,0.000,0.000,0.000,-0.800
2026-05-11 15:42:56.364862,TURNING,12.439,1.000,0.00,0.00,10.62,0.369,0.451,0.265,0.451,0.452,0.000,0.000,0.000,-0.800
2026-05-11 15:42:56.560025,TURNING,12.439,1.000,0.00,0.00,-0.84,0.369,0.451,0.265,0.451,0.452,0.000,0.000,0.000,-0.800
2026-05-11 15:42:56.761265,TURNING,12.439,1.000,0.00,0.00,-7.72,0.369,0.451,0.265,0.451,0.452,0.000,0.000,0.000,-0.800
2026-05-11 15:42:57.016324,TURNING,12.439,1.000,0.00,0.00,-16.88,0.369,0.451,0.265,0.451,0.452,0.000,0.000,0.000,-0.722
2026-05-11 15:42:57.203236,TURNING,12.439,1.000,0.00,0.00,-25.65,0.369,0.451,0.265,0.451,0.452,0.000,0.000,0.000,-0.569
2026-05-11 15:42:57.412051,TURNING,12.439,1.000,0.00,0.00,-32.59,0.369,0.451,0.265,0.451,0.452,0.000,0.000,0.000,-0.448
2026-05-11 15:42:57.651866,TURNING,12.439,1.000,0.00,0.00,-37.95,0.369,0.451,0.265,0.451,0.452,0.000,0.000,0.000,-0.354
2026-05-11 15:42:57.869895,TURNING,12.439,1.000,0.00,0.00,-42.23,0.369,0.451,0.265,0.451,0.452,0.000,0.000,0.000,-0.300
2026-05-11 15:42:58.094017,TURNING,12.439,1.000,0.00,0.00,-45.83,0.369,0.451,0.265,0.451,0.452,0.000,0.000,0.000,-0.300
2026-05-11 15:42:58.302063,TURNING,12.439,1.000,0.00,0.00,-49.27,2.972,3.467,2.138,3.520,2.434,0.000,0.000,0.000,-0.300
2026-05-11 15:42:58.553077,RETURNING,12.439,1.000,0.00,0.00,-53.57,5.321,3.051,2.025,3.092,2.460,0.000,0.000,0.000,0.000
2026-05-11 15:42:58.723419,RETURNING,12.447,1.000,0.00,0.00,-54.52,5.321,3.051,2.025,3.092,2.460,0.500,0.042,0.000,0.245
2026-05-11 15:42:58.940499,RETURNING,12.507,1.000,0.00,0.00,-51.72,4.576,2.724,1.860,2.661,2.460,0.500,0.015,0.000,0.255
2026-05-11 15:42:59.138176,RETURNING,12.571,1.000,0.00,0.00,-48.86,4.576,2.724,1.860,2.661,2.460,0.500,0.015,0.000,0.255
2026-05-11 15:42:59.345768,RETURNING,12.638,1.000,0.00,0.00,-45.93,4.974,2.896,1.876,2.896,2.460,0.500,0.031,0.000,0.266
2026-05-11 15:42:59.592723,RETURNING,12.710,1.000,0.00,0.00,-42.88,4.974,2.896,1.876,2.896,2.460,0.500,0.031,0.000,0.266
2026-05-11 15:42:59.775988,RETURNING,12.784,1.000,0.00,0.00,-39.84,4.974,2.896,1.876,2.896,2.460,0.500,0.031,0.000,0.266
2026-05-11 15:43:00.383362,RETURNING,12.843,1.000,0.00,0.00,-37.55,4.974,2.896,1.876,2.896,2.460,0.500,0.031,0.000,0.266
2026-05-11 15:43:01.186239,RETURNING,12.986,1.000,0.00,0.00,-32.23,4.974,2.896,1.876,2.896,2.460,0.500,0.031,0.000,0.266
2026-05-11 15:43:01.329533,RETURNING,13.160,1.000,0.00,0.00,-26.14,4.974,2.896,1.876,2.896,2.460,0.500,0.031,0.000,0.266
2026-05-11 15:43:01.539061,RETURNING,13.251,1.000,0.00,0.00,-23.09,4.974,2.896,1.876,2.896,2.460,0.500,0.031,0.000,0.266
2026-05-11 15:43:01.761122,RETURNING,13.344,1.000,0.00,0.00,-20.05,4.974,2.896,1.876,2.896,2.460,0.500,0.031,0.000,0.266
2026-05-11 15:43:02.000060,RETURNING,13.439,1.000,0.00,0.00,-17.00,4.974,2.896,1.876,2.896,2.460,0.500,0.031,0.000,0.266
2026-05-11 15:43:02.175682,RETURNING,13.535,1.000,0.00,0.00,-13.96,4.974,2.896,1.876,2.896,2.460,0.500,0.031,0.000,0.266
2026-05-11 15:43:02.397950,RETURNING,13.657,1.000,0.00,0.00,-10.15,4.974,2.896,1.876,2.896,2.460,0.500,0.031,0.000,0.266
2026-05-11 15:43:02.590227,RETURNING,13.731,1.000,0.00,0.00,-7.87,4.974,2.896,1.876,2.896,2.460,0.500,0.031,0.000,0.266
2026-05-11 15:43:02.816356,RETURNING,13.831,1.000,0.00,0.00,-4.82,4.974,2.896,1.876,2.896,2.460,0.500,0.031,0.000,0.266
2026-05-11 15:43:03.037005,RETURNING,13.930,1.000,0.00,0.00,-1.78,4.974,2.896,1.876,2.896,2.460,0.500,0.031,0.000,0.266
2026-05-11 15:43:03.276841,RETURNING,14.030,1.000,0.00,0.00,1.27,4.974,2.896,1.876,2.896,2.460,0.500,0.031,0.000,0.266
2026-05-11 15:43:03.456008,RETURNING,14.130,1.000,0.00,0.00,4.31,4.974,2.896,1.876,2.896,2.460,0.500,0.031,0.000,0.266
2026-05-11 15:43:03.674578,RETURNING,14.254,1.000,0.00,0.00,8.12,4.974,2.896,1.876,2.896,2.460,0.500,0.031,0.000,0.266
2026-05-11 15:43:03.885574,RETURNING,14.329,1.000,0.00,0.00,10.40,4.974,2.896,1.876,2.896,2.460,0.500,0.031,0.000,0.266
2026-05-11 15:43:04.067439,RETURNING,14.426,1.000,0.00,0.00,13.45,4.974,2.896,1.876,2.896,2.460,0.500,0.031,0.000,0.266
2026-05-11 15:43:04.293832,INSPECTING,14.539,1.000,0.01,0.01,19.61,4.974,2.896,1.876,2.896,2.460,-0.150,0.450,0.600,0.800
2026-05-11 15:43:04.469395,SEARCHING,14.539,1.000,0.01,0.01,25.97,4.974,2.896,1.876,2.896,2.460,0.700,0.037,0.149,0.299
2026-05-11 15:43:04.870055,SEARCHING,14.554,1.000,0.04,0.02,39.36,4.974,2.896,1.876,2.896,2.460,0.350,0.550,0.552,0.850
2026-05-11 15:43:04.922927,SEARCHING,14.533,1.000,0.04,0.02,48.53,4.974,2.896,1.876,2.896,2.460,0.700,0.037,0.149,0.299
2026-05-11 15:43:05.266297,SEARCHING,14.582,1.000,0.11,0.00,61.17,0.413,10.000,10.000,10.000,10.000,0.350,0.550,-0.552,-0.850
2026-05-11 15:43:05.417768,INSPECTING,14.586,1.000,0.11,0.00,62.70,10.000,0.289,0.289,10.000,0.237,0.000,0.000,0.000,0.000
2026-05-11 15:43:05.660752,SEARCHING,14.593,1.000,0.15,-0.00,65.27,10.000,10.000,0.227,10.000,0.227,0.700,2.583,1.937,3.875
2026-05-11 15:43:05.851642,INSPECTING,14.592,1.000,0.16,0.00,65.02,0.412,0.426,10.000,0.429,0.426,-0.150,0.450,-0.600,-0.800
2026-05-11 15:43:06.092095,SEARCHING,14.586,1.000,0.16,0.00,60.89,0.347,0.650,10.000,10.000,10.000,0.350,0.550,-0.552,-0.850
2026-05-11 15:43:06.244765,SEARCHING,14.588,1.000,0.17,0.02,58.84,10.000,10.000,10.000,10.000,10.000,0.700,0.000,0.000,0.000
2026-05-11 15:43:06.423952,INSPECTING,14.604,1.000,0.27,0.00,65.47,0.414,0.745,8.172,10.000,10.000,-0.150,-0.450,-0.600,-0.800
2026-05-11 15:43:06.646485,INSPECTING,14.593,1.000,0.29,-0.00,58.60,0.284,0.789,9.153,10.000,10.000,0.000,0.000,0.000,0.000
2026-05-11 15:43:06.869769,SEARCHING,14.600,1.000,0.33,0.05,55.07,10.000,10.000,10.000,10.000,10.000,0.700,0.000,0.000,0.000
2026-05-11 15:43:07.086510,INSPECTING,14.613,1.000,0.28,0.00,57.92,10.000,10.000,10.000,10.000,10.000,-0.150,-0.450,-0.600,-0.800
2026-05-11 15:43:07.391177,SEARCHING,14.612,1.000,0.29,0.02,55.37,10.000,5.085,0.227,10.000,10.000,0.350,0.550,0.552,0.850
2026-05-11 15:43:07.449160,SEARCHING,14.617,1.000,0.31,0.06,52.64,10.000,5.085,0.227,10.000,10.000,0.700,0.000,1.937,3.875
2026-05-11 15:43:07.649567,SEARCHING,14.641,0.999,0.41,0.00,69.40,0.427,10.000,10.000,10.000,10.000,0.700,0.000,-1.009,-2.018
2026-05-11 15:43:07.950783,SEARCHING,14.627,0.999,0.51,-0.01,62.71,0.290,0.883,10.000,10.000,10.000,0.350,0.550,-0.552,-0.850
2026-05-11 15:43:08.135613,SEARCHING,14.623,1.000,0.61,0.23,54.43,10.000,10.000,0.253,10.000,10.000,0.700,0.000,1.731,3.462
2026-05-11 15:43:08.295307,INSPECTING,14.648,0.999,0.74,0.00,64.88,10.000,10.000,10.000,10.000,10.000,-0.150,-0.450,-0.600,-0.800
2026-05-11 15:43:08.516482,SEARCHING,14.641,0.999,0.80,-0.01,60.01,0.421,10.000,7.627,10.000,10.000,0.700,0.000,-1.009,-2.018
2026-05-11 15:43:08.775646,SEARCHING,14.656,0.999,0.93,0.06,63.15,0.410,10.000,8.172,10.000,10.000,0.350,0.550,-0.552,-0.850
2026-05-11 15:43:08.915097,INSPECTING,14.664,0.999,0.96,-0.00,65.37,1.173,10.000,0.245,0.229,10.000,-0.150,-0.450,0.600,0.800
2026-05-11 15:43:09.131856,SEARCHING,14.657,0.999,1.00,-0.00,71.23,0.303,10.000,10.000,10.000,10.000,0.700,0.000,-1.438,-2.876
2026-05-11 15:43:09.415356,SEARCHING,14.660,0.999,1.01,-0.00,63.90,0.273,10.000,10.000,10.000,10.000,0.350,0.550,-0.552,-0.850
2026-05-11 15:43:09.544851,INSPECTING,14.663,0.999,1.11,0.13,58.30,0.412,10.000,8.475,10.000,10.000,-0.150,-0.450,-0.600,-0.800
2026-05-11 15:43:09.748910,SEARCHING,14.667,0.998,1.19,0.06,58.13,0.410,10.000,4.487,10.000,10.000,0.700,0.000,-0.997,-1.994
2026-05-11 15:43:10.041493,SEARCHING,14.684,0.998,1.32,0.13,57.86,0.970,0.276,10.000,10.000,10.000,0.350,0.550,-0.552,-0.850
2026-05-11 15:43:10.194071,SEARCHING,14.680,0.998,1.35,0.22,49.22,10.000,10.000,10.000,10.000,10.000,0.700,0.000,0.000,0.000
2026-05-11 15:43:10.407422,INSPECTING,14.715,0.998,1.50,0.03,64.26,10.000,0.995,0.227,0.999,0.240,0.350,0.550,0.552,0.850
2026-05-11 15:43:10.619655,INSPECTING,14.710,0.998,1.62,-0.09,68.53,0.380,10.000,10.000,10.000,10.000,-0.150,-0.450,-0.600,-0.800
2026-05-11 15:43:10.793153,INSPECTING,14.709,0.998,1.78,0.09,61.91,0.424,10.000,6.538,10.000,10.000,-0.150,-0.450,-0.600,-0.800
2026-05-11 15:43:11.009730,INSPECTING,14.716,0.996,1.65,-0.93,60.12,10.000,10.000,0.339,10.000,10.000,-0.150,-0.450,0.600,0.800
2026-05-11 15:43:11.233766,INSPECTING,14.721,0.998,1.93,0.03,70.01,0.426,10.000,0.265,10.000,10.000,0.000,0.000,0.000,0.000
2026-05-11 15:43:11.397614,INSPECTING,14.718,0.997,2.06,-0.22,71.62,0.346,10.000,10.000,10.000,10.000,-0.150,-0.450,-0.600,-0.800
2026-05-11 15:43:11.625797,INSPECTING,14.717,0.998,2.19,0.06,62.31,0.425,10.000,0.565,10.000,10.000,-0.150,-0.450,-0.600,-0.800
2026-05-11 15:43:11.810523,INSPECTING,14.719,0.998,2.25,0.26,58.64,10.000,10.000,10.000,10.000,10.000,-0.150,-0.450,-0.600,-0.800
2026-05-11 15:43:12.010174,SEARCHING,14.727,0.997,2.33,-0.03,60.14,10.000,10.000,4.400,10.000,10.000,0.700,0.000,0.057,0.115
2026-05-11 15:43:12.293147,SEARCHING,14.751,0.997,2.49,-0.01,67.79,10.000,10.000,0.934,10.000,10.000,0.350,0.550,0.552,0.850
2026-05-11 15:43:12.430665,INSPECTING,14.741,0.997,2.63,-0.19,69.43,0.425,10.000,10.000,10.000,10.000,-0.150,-0.450,-0.600,-0.800
2026-05-11 15:43:12.630084,SEARCHING,14.725,0.998,2.68,0.02,58.01,10.000,10.000,4.767,10.000,10.000,0.700,0.000,0.049,0.099
2026-05-11 15:43:12.920746,SEARCHING,14.746,0.998,2.63,0.10,66.83,10.000,10.000,4.160,10.000,10.000,0.350,0.550,0.552,0.850
2026-05-11 15:43:13.074130,INSPECTING,14.735,0.998,3.03,0.22,65.55,1.271,10.000,10.000,0.693,0.239,-0.150,0.450,-0.600,-0.800
2026-05-11 15:43:13.228324,SEARCHING,14.733,0.998,3.03,-0.00,63.44,10.000,8.801,1.412,10.000,10.000,0.700,0.000,0.274,0.547
2026-05-11 15:43:13.521532,SEARCHING,14.743,0.997,3.17,-0.04,69.67,8.801,8.172,4.160,10.000,10.000,0.350,0.550,0.552,0.850
2026-05-11 15:43:13.637765,INSPECTING,14.736,0.997,3.12,-0.32,69.27,0.424,9.949,9.949,10.000,10.000,-0.150,-0.450,-0.600,-0.800
2026-05-11 15:43:13.858642,SEARCHING,14.722,0.998,3.20,-0.02,58.82,10.000,10.000,4.317,10.000,10.000,0.700,0.000,0.059,0.118
2026-05-11 15:43:14.121820,SEARCHING,14.749,0.997,3.43,-0.04,67.31,10.000,0.487,0.460,10.000,10.000,0.350,0.550,0.552,0.850
2026-05-11 15:43:14.261896,SEARCHING,14.743,0.997,3.66,-0.54,71.28,10.000,10.000,10.000,10.000,10.000,0.700,0.000,0.000,0.000
2026-05-11 15:43:14.505393,SEARCHING,14.732,0.998,3.69,-0.07,62.28,0.435,10.000,10.000,10.000,10.000,0.700,0.000,-0.989,-1.979
2026-05-11 15:43:14.794923,SEARCHING,14.752,0.997,3.89,0.00,65.27,10.000,10.000,4.400,10.000,10.000,0.350,0.550,0.552,0.850
2026-05-11 15:43:14.891796,INSPECTING,14.745,0.997,3.97,-0.23,71.17,10.000,10.000,10.000,10.000,10.000,-0.150,-0.450,-0.600,-0.800
2026-05-11 15:43:15.100196,SEARCHING,14.734,0.998,4.05,-0.06,62.56,0.436,10.000,4.576,10.000,10.000,0.700,0.000,-0.934,-1.868
2026-05-11 15:43:15.399740,SEARCHING,14.754,0.997,4.27,-0.03,67.11,10.000,10.000,4.237,10.000,10.000,0.350,0.550,0.552,0.850
2026-05-11 15:43:15.502829,INSPECTING,14.744,0.996,4.18,-0.59,68.97,0.236,10.000,10.000,10.000,10.000,-0.150,-0.450,-0.600,-0.800
2026-05-11 15:43:15.716512,SEARCHING,14.729,0.998,4.29,0.08,58.16,10.000,10.000,4.400,10.000,10.000,0.700,0.000,0.057,0.115
2026-05-11 15:43:15.966925,SEARCHING,14.752,0.998,4.36,0.54,65.88,10.000,10.000,4.576,10.000,10.000,0.350,0.550,0.552,0.850
2026-05-11 15:43:16.225217,SEARCHING,14.742,0.997,4.69,-0.05,64.15,10.000,10.000,10.000,10.000,10.000,0.350,0.550,0.552,0.850
2026-05-11 15:43:16.333084,INSPECTING,14.740,0.998,4.82,0.52,57.74,10.000,10.000,4.400,10.000,10.000,-0.150,-0.450,0.600,0.800
2026-05-11 15:43:16.547294,SEARCHING,14.751,0.997,4.98,0.03,71.66,10.000,10.000,10.000,10.000,10.000,0.700,0.000,0.000,0.000
2026-05-11 15:43:16.886525,SEARCHING,14.733,0.998,5.49,0.06,68.29,0.438,9.534,9.949,10.000,10.000,0.350,0.550,-0.552,-0.850
2026-05-11 15:43:16.972029,INSPECTING,14.729,0.998,5.48,0.17,66.40,10.000,10.000,10.000,10.000,10.000,-0.150,-0.450,-0.600,-0.800
2026-05-11 15:43:17.197923,INSPECTING,14.723,0.998,5.57,0.15,57.57,10.000,10.000,4.400,10.000,10.000,-0.150,-0.450,0.600,0.800
2026-05-11 15:43:17.379860,SEARCHING,14.728,0.997,5.55,-0.27,67.54,10.000,10.000,4.400,10.000,10.000,0.700,0.000,0.057,0.115
2026-05-11 15:43:17.660465,SEARCHING,14.727,0.998,5.62,-0.07,63.74,0.433,10.000,4.400,10.000,10.000,0.350,0.000,0.000,0.000
2026-05-11 15:43:17.809363,INSPECTING,14.740,0.998,5.92,0.48,62.05,10.000,0.263,0.227,0.291,0.229,-0.150,0.450,0.600,0.800
2026-05-11 15:43:18.010610,SEARCHING,14.741,0.997,5.95,-0.07,71.90,0.426,8.801,10.000,10.000,10.000,0.700,0.000,-1.011,-2.022
2026-05-11 15:43:18.301810,SEARCHING,14.731,0.998,5.95,-0.04,63.40,0.419,10.000,10.000,10.000,10.000,0.350,0.550,-0.552,-0.850
2026-05-11 15:43:18.418776,INSPECTING,14.737,0.998,6.17,0.59,59.90,9.534,10.000,4.487,10.000,10.000,-0.150,-0.450,0.600,0.800
2026-05-11 15:43:18.620894,SEARCHING,14.742,0.997,6.22,-0.04,72.52,10.000,10.000,10.000,10.000,10.000,0.700,0.000,0.000,0.000
2026-05-11 15:43:18.897309,SEARCHING,14.736,0.997,6.70,-0.62,65.97,10.000,10.000,4.317,10.000,10.000,0.350,0.550,0.552,0.850
2026-05-11 15:43:19.027887,INSPECTING,14.721,0.999,7.12,0.52,64.77,0.227,10.000,10.000,10.000,10.000,-0.150,-0.450,-0.600,-0.800
2026-05-11 15:43:19.232122,SEARCHING,14.716,1.000,6.99,0.83,60.78,10.000,10.000,4.400,10.000,10.000,0.700,0.000,0.057,0.115
2026-05-11 15:43:19.519181,SEARCHING,14.737,0.998,6.89,-0.48,63.25,10.000,10.000,10.000,10.000,10.000,0.350,0.550,0.552,0.850
2026-05-11 15:43:19.733518,SEARCHING,14.750,0.998,7.26,0.20,63.71,10.000,10.000,10.000,10.000,10.000,0.350,0.550,0.552,0.850
2026-05-11 15:43:19.858300,INSPECTING,14.744,0.997,7.43,-0.34,67.46,10.000,10.000,10.000,10.000,10.000,-0.150,-0.450,-0.600,-0.800
2026-05-11 15:43:20.070129,SEARCHING,14.733,0.998,7.58,-0.11,59.20,10.000,10.000,4.487,10.000,10.000,0.700,0.000,0.055,0.111
2026-05-11 15:43:20.280353,INSPECTING,14.759,0.997,7.86,-0.11,66.14,10.000,10.000,4.086,10.000,10.000,-0.150,-0.450,0.600,0.800
2026-05-11 15:43:20.499177,SEARCHING,14.753,0.997,7.88,-0.18,71.20,0.431,10.000,6.538,10.000,10.000,0.700,0.000,-0.975,-1.951
2026-05-11 15:43:20.754590,INSPECTING,14.741,0.998,7.99,-0.08,62.20,1.923,0.429,0.435,0.272,0.513,0.350,-0.550,0.552,0.850
2026-05-11 15:43:20.916493,INSPECTING,14.754,0.997,8.05,-0.12,66.16,10.000,10.000,4.487,10.000,10.000,-0.150,-0.450,0.600,0.800
2026-05-11 15:43:21.163353,INSPECTING,14.744,0.996,8.37,-1.00,68.34,10.000,10.000,4.487,10.000,10.000,-0.150,-0.450,0.600,0.800
2026-05-11 15:43:21.329645,SEARCHING,14.733,0.998,8.32,0.01,69.75,0.443,10.000,4.237,10.000,10.000,0.700,0.000,-0.911,-1.821
2026-05-11 15:43:21.615803,SEARCHING,14.734,0.998,8.46,-0.00,65.27,10.000,10.000,4.400,10.000,10.000,0.350,0.550,0.552,0.850
2026-05-11 15:43:21.744692,INSPECTING,14.740,0.998,8.62,0.34,63.33,10.000,10.000,4.400,10.000,10.000,-0.150,-0.450,0.600,0.800
2026-05-11 15:43:21.968086,SEARCHING,14.736,0.997,8.60,-0.46,59.96,10.000,10.000,10.000,10.000,10.000,0.700,0.000,0.000,0.000
2026-05-11 15:43:22.230483,SEARCHING,14.750,0.998,9.10,0.83,61.44,10.000,1.257,4.160,0.781,2.099,0.350,-0.550,0.552,0.850
2026-05-11 15:43:22.366685,INSPECTING,14.749,0.997,9.39,-0.13,66.06,0.334,0.348,4.400,2.542,0.597,-0.150,0.450,-0.600,-0.800
2026-05-11 15:43:22.577461,SEARCHING,14.738,0.997,9.39,0.10,58.67,10.000,10.000,4.400,10.000,10.000,0.700,0.000,0.057,0.115
2026-05-11 15:43:22.862377,SEARCHING,14.758,0.997,9.71,0.14,63.00,10.000,10.000,4.487,10.000,10.000,0.350,0.550,0.552,0.850
2026-05-11 15:43:22.980924,INSPECTING,14.771,0.997,10.01,0.33,63.42,10.000,10.000,4.487,10.000,10.000,-0.150,-0.450,0.600,0.800
2026-05-11 15:43:23.208162,SEARCHING,14.769,0.996,10.03,-0.13,71.96,0.463,10.000,10.000,10.000,10.000,0.700,0.000,-0.927,-1.853
2026-05-11 15:43:23.494610,SEARCHING,14.759,0.996,10.21,-0.09,63.46,10.000,10.000,4.487,10.000,10.000,0.350,0.550,0.552,0.850
2026-05-11 15:43:23.612998,INSPECTING,14.773,0.996,10.52,0.25,63.67,10.000,10.000,4.400,10.000,10.000,-0.150,-0.450,0.600,0.800
2026-05-11 15:43:23.817457,SEARCHING,14.766,0.996,10.54,0.11,71.52,10.000,10.000,10.000,10.000,10.000,0.700,0.000,0.000,0.000
2026-05-11 15:43:24.107473,SEARCHING,14.755,0.996,11.01,-0.36,62.61,10.000,10.000,4.400,10.000,10.000,0.350,0.550,0.552,0.850
2026-05-11 15:43:24.253917,INSPECTING,14.769,0.996,11.38,0.42,63.12,10.000,10.000,4.400,10.000,10.000,-0.150,-0.450,0.600,0.800
2026-05-11 15:43:24.461562,SEARCHING,14.766,0.996,11.53,0.15,69.13,10.000,10.000,10.000,10.000,10.000,0.700,0.000,0.000,0.000
2026-05-11 15:43:24.785265,SEARCHING,14.753,0.997,12.02,0.16,64.05,0.390,10.000,10.000,10.000,10.000,0.350,0.550,-0.552,-0.850
2026-05-11 15:43:24.881009,INSPECTING,14.760,0.999,12.49,1.64,60.47,10.000,1.658,10.000,10.000,10.000,-0.150,-0.450,-0.600,-0.800
2026-05-11 15:43:25.171707,INSPECTING,14.783,0.995,12.61,-0.07,65.47,10.000,10.000,4.576,10.000,10.000,-0.150,-0.450,0.600,0.800
2026-05-11 15:43:25.371580,SEARCHING,14.777,0.995,12.63,-0.21,74.21,0.470,10.000,10.000,10.000,10.000,0.700,0.000,-0.913,-1.826
2026-05-11 15:43:25.677240,SEARCHING,14.765,0.996,13.14,-0.00,62.98,10.000,10.000,4.400,10.000,10.000,0.350,0.550,0.552,0.850
2026-05-11 15:43:25.826109,INSPECTING,14.779,0.997,13.49,0.56,63.55,10.000,10.000,4.400,10.000,10.000,-0.150,-0.450,0.600,0.800
2026-05-11 15:43:26.017765,SEARCHING,14.773,0.996,13.19,-0.15,71.45,10.000,10.000,10.000,10.000,10.000,0.700,0.000,0.000,0.000
2026-05-11 15:43:26.315044,SEARCHING,14.764,0.997,13.39,0.16,65.96,10.000,10.000,4.400,10.000,10.000,0.350,0.550,0.552,0.850
2026-05-11 15:43:26.445909,INSPECTING,14.759,0.996,13.42,-0.29,66.20,0.227,0.290,10.000,0.289,0.333,-0.150,-0.450,-0.600,-0.800
2026-05-11 15:43:26.687497,INSPECTING,14.759,0.998,13.72,1.10,59.96,10.000,10.000,10.000,10.000,10.000,-0.150,-0.450,-0.600,-0.800
2026-05-11 15:43:26.873135,SEARCHING,14.770,0.995,13.79,-0.19,64.21,10.000,10.000,4.487,10.000,10.000,0.700,0.000,0.055,0.111
2026-05-11 15:43:27.121310,SEARCHING,14.785,0.993,14.26,-1.01,65.47,10.000,10.000,4.400,10.000,10.000,0.350,0.550,0.552,0.850
2026-05-11 15:43:27.267200,INSPECTING,14.775,0.995,14.41,0.03,65.17,0.227,10.000,10.000,10.000,10.000,-0.150,-0.450,-0.600,-0.800
2026-05-11 15:43:27.461122,SEARCHING,14.767,0.995,14.41,-0.18,60.00,10.000,10.000,4.487,10.000,10.000,0.700,0.000,0.055,0.111
2026-05-11 15:43:27.751641,SEARCHING,14.787,0.993,15.02,-0.74,68.28,10.000,10.000,4.400,10.000,10.000,0.350,0.550,0.552,0.850
2026-05-11 15:43:27.879136,INSPECTING,14.781,0.992,15.05,-1.15,68.56,10.000,10.000,2.200,10.000,1.257,-0.150,0.450,0.600,0.800
2026-05-11 15:43:28.079772,SEARCHING,14.769,0.995,15.24,0.29,70.15,10.000,10.000,10.000,10.000,10.000,0.700,0.000,0.000,0.000
2026-05-11 15:43:28.348804,SEARCHING,14.759,0.996,15.73,0.23,62.15,10.000,10.000,4.400,10.000,10.000,0.350,0.550,0.552,0.850
2026-05-11 15:43:28.504934,INSPECTING,14.772,0.996,16.23,1.04,62.83,10.000,0.229,0.254,10.000,0.227,-0.150,0.450,0.600,0.800
2026-05-11 15:43:28.708202,SEARCHING,14.768,0.995,16.27,0.21,71.41,10.000,10.000,10.000,10.000,10.000,0.700,0.000,0.000,0.000
2026-05-11 15:43:29.007156,SEARCHING,14.760,0.996,16.65,0.26,66.72,10.000,10.000,10.000,10.000,10.000,0.350,0.550,0.552,0.850
2026-05-11 15:43:29.114453,INSPECTING,14.753,0.995,16.74,-0.14,66.64,10.000,10.000,10.000,10.000,10.000,-0.150,-0.450,-0.600,-0.800
2026-05-11 15:43:29.327131,SEARCHING,14.743,0.996,16.77,-0.00,59.31,10.000,10.000,4.576,10.000,10.000,0.700,0.000,0.053,0.107
2026-05-11 15:43:29.652282,SEARCHING,14.762,0.993,17.07,-1.06,63.15,10.000,10.000,4.400,10.000,10.000,0.350,0.550,0.552,0.850
2026-05-11 15:43:29.741924,INSPECTING,14.760,0.993,17.11,-0.95,56.07,10.000,10.000,0.227,10.000,10.000,-0.150,-0.450,0.600,0.800
2026-05-11 15:43:29.991891,INSPECTING,14.776,0.994,18.23,0.34,74.91,0.467,10.000,10.000,10.000,10.000,-0.150,-0.450,-0.600,-0.800
2026-05-11 15:43:30.213362,INSPECTING,14.767,0.993,19.47,-1.76,68.03,0.227,0.227,10.000,10.000,0.227,0.000,0.000,0.000,0.000
2026-05-11 15:43:30.475528,SEARCHING,14.781,0.993,19.80,-1.25,62.71,10.000,10.000,4.317,10.000,10.000,0.350,0.550,0.552,0.850
2026-05-11 15:43:30.577844,INSPECTING,14.794,0.994,20.19,-0.23,65.90,10.000,10.000,4.400,10.000,10.000,-0.150,-0.450,0.600,0.800
2026-05-11 15:43:30.784459,SEARCHING,14.784,0.995,20.17,0.24,70.57,10.000,10.000,4.400,10.000,10.000,0.700,0.000,0.057,0.115
2026-05-11 15:43:31.423755,SEARCHING,14.776,0.995,20.75,-0.27,62.31,10.000,10.000,4.400,10.000,10.000,0.350,0.550,0.552,0.850
2026-05-11 15:43:31.434707,SEARCHING,14.768,0.995,20.74,-0.27,57.73,10.000,10.000,4.400,10.000,10.000,0.700,0.000,0.057,0.115
2026-05-11 15:43:32.208962,INSPECTING,14.801,0.994,21.43,0.25,65.05,10.000,10.000,4.400,10.000,10.000,-0.150,-0.450,0.600,0.800
2026-05-11 15:43:32.349197,SEARCHING,14.797,0.993,21.26,-0.27,70.54,10.000,10.000,4.400,10.000,10.000,0.350,0.550,0.552,0.850
2026-05-11 15:43:32.437794,INSPECTING,14.794,0.993,21.35,-0.40,75.34,10.000,10.000,10.000,10.000,10.000,-0.150,-0.450,-0.600,-0.800
2026-05-11 15:43:32.650953,SEARCHING,14.776,0.994,22.05,-0.60,60.79,10.000,10.000,10.000,10.000,10.000,0.700,0.000,0.000,0.000
2026-05-11 15:43:32.941079,SEARCHING,14.795,0.994,22.79,0.13,63.03,10.000,10.000,4.160,10.000,10.000,0.350,0.550,0.552,0.850
2026-05-11 15:43:33.067103,INSPECTING,14.806,0.994,23.28,0.73,63.27,10.000,10.000,4.160,10.000,10.000,-0.150,-0.450,0.600,0.800
2026-05-11 15:43:33.268333,SEARCHING,14.804,0.992,23.45,-0.29,71.91,10.000,10.000,10.000,10.000,10.000,0.700,0.000,0.000,0.000
2026-05-11 15:43:33.569266,SEARCHING,14.792,0.995,23.95,0.32,62.74,10.000,10.000,4.400,10.000,10.000,0.350,0.550,0.552,0.850
2026-05-11 15:43:33.708999,INSPECTING,14.806,0.994,24.59,0.96,63.66,10.000,10.000,10.000,10.000,10.000,-0.150,-0.450,-0.600,-0.800
2026-05-11 15:43:33.907891,SEARCHING,14.799,0.994,24.57,0.97,58.26,10.000,10.000,3.878,10.000,10.000,0.700,0.000,0.071,0.142
2026-05-11 15:43:34.201146,SEARCHING,14.820,0.992,25.07,0.29,62.36,10.000,10.000,4.400,10.000,10.000,0.350,0.550,0.552,0.850
2026-05-11 15:43:34.323314,INSPECTING,14.831,0.992,25.56,0.69,62.69,10.000,10.000,3.269,10.000,10.000,-0.150,-0.450,0.600,0.800
2026-05-11 15:43:34.528534,SEARCHING,14.830,0.990,25.67,-0.31,71.87,10.000,10.000,10.000,10.000,10.000,0.700,0.000,0.000,0.000
2026-05-11 15:43:34.803246,SEARCHING,14.818,0.992,26.52,0.38,62.52,10.000,10.000,10.000,10.000,10.000,0.350,0.550,0.552,0.850
2026-05-11 15:43:34.930358,INSPECTING,14.825,0.992,26.88,0.59,59.58,10.000,10.000,10.000,10.000,10.000,-0.150,-0.450,-0.600,-0.800
2026-05-11 15:43:35.145402,SEARCHING,14.827,0.991,27.26,0.39,58.56,10.000,10.000,10.000,10.000,10.000,0.700,0.000,0.000,0.000
2026-05-11 15:43:35.430908,SEARCHING,14.850,0.988,28.05,-0.22,63.44,10.000,10.000,0.602,10.000,10.000,0.350,0.550,0.552,0.850
2026-05-11 15:43:35.548019,INSPECTING,14.864,0.989,28.43,0.42,65.50,5.867,10.000,10.000,10.000,10.000,-0.150,-0.450,-0.600,-0.800
2026-05-11 15:43:35.754360,SEARCHING,14.853,0.988,28.41,0.00,58.40,10.000,10.000,0.597,10.000,10.000,0.700,0.000,0.708,1.416
2026-05-11 15:43:36.071663,SEARCHING,14.871,0.987,28.96,-0.12,66.93,0.227,10.000,0.227,0.227,10.000,0.350,0.000,0.000,0.000
2026-05-11 15:43:36.210158,SEARCHING,14.868,0.987,28.95,-0.12,73.69,10.000,10.000,10.000,10.000,10.000,0.700,0.000,0.000,0.000
2026-05-11 15:43:36.474320,SEARCHING,14.858,0.988,29.83,-0.28,64.65,10.000,10.000,10.000,10.000,10.000,0.350,0.550,0.552,0.850
2026-05-11 15:43:36.593245,INSPECTING,14.865,0.987,30.27,-0.34,62.23,10.000,10.000,10.000,10.000,10.000,-0.150,-0.450,-0.600,-0.800
2026-05-11 15:43:36.790156,SEARCHING,14.859,0.987,30.41,0.08,57.53,10.000,10.000,4.014,10.000,10.000,0.700,0.000,0.067,0.134
2026-05-11 15:43:37.066694,INSPECTING,14.881,0.987,31.47,0.38,62.36,3.134,0.227,10.000,1.111,0.227,0.350,0.550,0.552,0.850
2026-05-11 15:43:37.208191,INSPECTING,14.890,0.986,31.78,0.19,63.30,0.363,0.227,0.227,0.521,0.368,-0.150,0.450,0.600,0.800
2026-05-11 15:43:37.459847,INSPECTING,14.887,0.986,32.24,0.03,71.00,10.000,10.000,10.000,10.000,10.000,-0.150,-0.450,-0.600,-0.800
2026-05-11 15:43:37.610781,SEARCHING,14.875,0.987,32.91,0.03,60.92,10.000,10.000,3.316,10.000,10.000,0.700,0.000,0.091,0.181
2026-05-11 15:43:37.904632,SEARCHING,14.887,0.986,33.53,0.03,66.83,10.000,10.000,0.585,10.000,10.000,0.350,0.550,0.552,0.850
2026-05-11 15:43:38.042834,INSPECTING,14.878,0.988,34.10,0.37,69.25,10.000,0.372,0.227,10.000,0.227,-0.150,0.450,0.600,0.800
2026-05-11 15:43:38.242829,SEARCHING,14.864,0.988,34.43,0.14,71.54,10.000,10.000,10.000,10.000,10.000,0.700,0.000,0.000,0.000
2026-05-11 15:43:38.537216,SEARCHING,14.857,0.989,35.19,-0.43,64.46,10.000,10.000,10.000,10.000,10.000,0.350,0.550,0.552,0.850
2026-05-11 15:43:38.665754,INSPECTING,14.870,0.987,35.77,-0.88,64.94,10.000,10.000,10.000,10.000,10.000,-0.150,-0.450,-0.600,-0.800
2026-05-11 15:43:38.870036,SEARCHING,14.860,0.989,35.72,0.39,58.77,10.000,10.000,0.594,10.000,10.000,0.700,0.000,0.712,1.424
