timestamp,state,x,y,z,roll_deg,pitch_deg,yaw_deg,dist_left,dist_center,dist_right,dist_top,dist_bottom,dtof_alert,collision_event,best_dir,max_space,cmd_vx,cmd_vz,cmd_yaw
19:01:41.705,SEARCHING,0.064,0.000,1.000,0.00,0.00,0.00,10.000,10.000,10.000,10.000,10.000,0,0,SEARCHING,10.000,0.000,0.000,0.000
19:01:41.908,SEARCHING,0.192,-0.001,1.000,0.00,0.00,-2.78,0.946,1.167,2.661,1.204,1.217,0,0,SEARCHING,0.946,0.000,0.000,0.000
19:01:42.109,SEARCHING,0.300,-0.014,1.000,0.00,0.00,-10.73,0.897,3.632,2.288,3.632,2.434,0,0,SEARCHING,0.897,0.000,0.000,0.000
19:01:42.310,SEARCHING,0.455,-0.053,1.000,0.00,0.00,-18.53,4.767,2.896,2.119,2.860,2.460,0,0,SEARCHING,2.119,0.000,0.000,0.000
19:01:42.510,SEARCHING,0.607,-0.103,1.000,0.00,0.00,-16.64,4.487,2.692,2.007,2.630,2.460,0,0,SEARCHING,2.007,0.000,0.000,0.000
19:01:42.710,SEARCHING,0.762,-0.145,1.000,0.00,0.00,-13.33,4.576,2.692,1.831,2.724,2.460,0,0,SEARCHING,1.831,0.000,0.000,0.000
19:01:42.911,SEARCHING,0.918,-0.177,1.000,0.00,0.00,-9.61,4.670,2.860,1.876,2.896,2.460,0,0,SEARCHING,1.876,0.000,0.000,0.000
19:01:43.111,SEARCHING,1.077,-0.200,1.000,0.00,0.00,-5.97,4.868,3.051,1.907,3.051,2.460,0,0,SEARCHING,1.907,0.000,0.000,0.000
19:01:43.312,SEARCHING,1.236,-0.212,1.000,0.00,0.00,-2.32,5.448,3.269,1.990,3.269,2.460,0,0,SEARCHING,1.990,0.000,0.000,0.000
19:01:43.512,SEARCHING,1.396,-0.214,1.000,0.00,0.00,1.32,6.022,3.575,2.080,3.575,2.460,0,0,SEARCHING,2.080,0.000,0.000,0.000
19:01:43.713,SEARCHING,1.556,-0.205,1.000,0.00,0.00,4.86,5.581,3.814,2.179,3.814,2.460,0,0,SEARCHING,2.179,0.000,0.000,0.000
19:01:43.913,SEARCHING,1.715,-0.188,1.000,0.00,0.00,7.81,5.200,3.751,2.311,3.814,2.460,0,0,SEARCHING,2.311,0.000,0.000,0.000
19:01:44.114,SEARCHING,1.873,-0.163,1.000,0.00,0.00,10.55,4.868,3.878,2.434,3.878,2.434,0,0,SEARCHING,2.434,0.000,0.000,0.000
19:01:44.315,SEARCHING,2.030,-0.131,1.000,0.00,0.00,12.82,4.487,4.237,2.630,4.086,2.460,0,0,SEARCHING,2.460,0.000,0.000,0.000
19:01:44.515,SEARCHING,2.185,-0.093,1.000,0.00,0.00,14.62,4.086,4.317,2.724,4.317,2.487,0,0,SEARCHING,2.487,0.000,0.000,0.000
19:01:44.715,SEARCHING,2.339,-0.051,1.000,0.00,0.00,16.00,3.814,4.400,2.825,4.400,2.460,0,0,SEARCHING,2.460,0.000,0.000,0.000
19:01:44.916,SEARCHING,2.493,-0.005,1.000,0.00,0.00,17.01,3.691,4.487,2.790,4.400,2.460,0,0,SEARCHING,2.460,0.000,0.000,0.000
19:01:45.116,SEARCHING,2.646,0.043,1.000,0.00,0.00,18.08,3.691,4.576,2.600,4.767,2.222,0,0,SEARCHING,2.222,0.000,0.000,0.000
19:01:45.317,SEARCHING,2.797,0.094,1.000,0.00,0.00,19.40,3.632,4.974,2.600,5.085,2.460,0,0,SEARCHING,2.460,0.000,0.000,0.000
19:01:45.517,SEARCHING,2.948,0.149,1.000,0.00,0.00,20.60,3.467,4.868,2.600,4.868,2.460,0,0,SEARCHING,2.460,0.000,0.000,0.000
19:01:45.718,SEARCHING,3.097,0.206,1.000,0.00,0.00,21.66,3.365,4.868,2.661,4.868,2.487,0,0,SEARCHING,2.487,0.000,0.000,0.000
19:01:45.919,SEARCHING,3.245,0.266,1.000,0.00,0.00,22.55,3.178,4.974,2.661,4.974,2.434,0,0,SEARCHING,2.434,0.000,0.000,0.000
19:01:46.120,SEARCHING,3.392,0.328,1.000,0.00,0.00,23.25,3.051,4.868,2.661,5.085,2.434,0,0,SEARCHING,2.434,0.000,0.000,0.000
19:01:46.319,SEARCHING,3.539,0.392,1.000,0.00,0.00,23.31,3.011,4.974,2.661,5.200,2.460,0,0,SEARCHING,2.460,0.000,0.000,0.000
19:01:46.520,SEARCHING,3.686,0.455,1.000,0.00,0.00,23.31,2.934,5.085,2.571,5.200,2.460,0,0,SEARCHING,2.460,0.000,0.000,0.000
19:01:46.722,SEARCHING,3.833,0.518,1.000,0.00,0.00,23.55,2.934,5.085,2.514,5.085,2.460,0,0,SEARCHING,2.460,0.000,0.000,0.000
19:01:46.921,SEARCHING,3.980,0.583,1.000,0.00,0.00,23.94,2.896,4.767,2.571,5.085,2.460,0,0,SEARCHING,2.460,0.000,0.000,0.000
19:01:47.122,SEARCHING,4.126,0.648,1.000,0.00,0.00,23.94,2.896,4.868,2.542,5.085,2.460,0,0,SEARCHING,2.460,0.000,0.000,0.000
19:01:47.322,SEARCHING,4.272,0.713,1.000,0.00,0.00,24.18,2.790,4.868,2.460,4.974,2.460,0,0,SEARCHING,2.460,0.000,0.000,0.000
19:01:47.523,SEARCHING,4.418,0.779,1.000,0.00,0.00,24.24,2.790,4.670,2.487,4.670,2.434,0,0,SEARCHING,2.434,0.000,0.000,0.000
19:01:47.724,SEARCHING,4.564,0.844,1.000,0.00,0.00,24.24,2.790,4.868,3.051,4.767,2.460,0,0,SEARCHING,2.460,0.000,0.000,0.000
19:01:47.925,SEARCHING,4.710,0.910,1.000,0.00,0.00,24.24,2.790,4.670,2.860,4.767,2.460,0,0,SEARCHING,2.460,0.000,0.000,0.000
19:01:48.125,SEARCHING,4.856,0.976,1.000,0.00,0.00,24.24,2.757,4.670,2.790,4.767,2.460,0,0,SEARCHING,2.460,0.000,0.000,0.000
19:01:48.326,SEARCHING,5.002,1.041,1.000,0.00,0.00,24.24,2.661,4.767,2.630,4.767,2.460,0,0,SEARCHING,2.460,0.000,0.000,0.000
19:01:48.526,SEARCHING,5.147,1.107,1.000,0.00,0.00,24.24,2.460,4.767,2.434,4.767,2.460,0,0,SEARCHING,2.434,0.000,0.000,0.000
19:01:48.726,SEARCHING,5.293,1.173,1.000,0.00,0.00,24.24,2.335,4.670,2.311,4.670,2.409,0,0,SEARCHING,2.311,0.000,0.000,0.000
19:01:48.927,SEARCHING,5.439,1.238,1.000,0.00,0.00,24.24,2.119,4.767,2.119,4.767,2.487,0,0,SEARCHING,2.119,0.000,0.000,0.000
19:01:49.128,SEARCHING,5.585,1.304,1.000,0.00,0.00,24.24,2.025,4.576,2.007,4.670,2.514,0,0,SEARCHING,2.007,0.000,0.000,0.000
19:01:49.329,SEARCHING,5.731,1.370,1.000,0.00,0.00,24.24,1.860,4.576,1.860,4.670,2.460,0,0,SEARCHING,1.860,0.000,0.000,0.000
19:01:49.529,SEARCHING,5.877,1.435,1.000,0.00,0.00,24.24,1.720,4.576,1.939,4.576,2.487,0,0,SEARCHING,1.720,0.000,0.000,0.000
19:01:49.730,SEARCHING,6.023,1.500,1.000,0.00,0.00,23.54,1.658,4.767,1.891,4.767,2.460,0,0,SEARCHING,1.658,0.000,0.000,0.000
19:01:49.930,SEARCHING,6.170,1.563,1.000,0.00,0.00,22.72,1.670,4.767,1.831,4.974,2.434,0,0,SEARCHING,1.670,0.000,0.000,0.000
19:01:50.130,SEARCHING,6.318,1.625,1.000,0.00,0.00,22.34,1.720,4.317,1.831,4.868,2.460,0,0,SEARCHING,1.720,0.000,0.000,0.000
19:01:50.331,SEARCHING,6.466,1.685,1.000,0.00,0.00,22.34,1.760,4.014,1.802,4.767,2.487,0,0,SEARCHING,1.760,0.000,0.000,0.000
19:01:50.532,SEARCHING,6.614,1.746,1.000,0.00,0.00,22.34,1.774,3.878,1.802,4.576,2.434,0,0,SEARCHING,1.774,0.000,0.000,0.000
19:01:50.732,SEARCHING,6.762,1.807,1.000,0.00,0.00,22.34,1.760,3.632,1.774,4.400,2.487,0,0,SEARCHING,1.760,0.000,0.000,0.000
19:01:50.933,SEARCHING,6.910,1.868,1.000,0.00,0.00,22.34,1.802,3.632,1.774,4.317,2.460,0,0,SEARCHING,1.774,0.000,0.000,0.000
19:01:51.133,SEARCHING,7.058,1.929,1.000,0.00,0.00,22.34,1.788,3.415,1.774,4.160,2.460,0,0,SEARCHING,1.774,0.000,0.000,0.000
19:01:51.334,SEARCHING,7.206,1.989,1.000,0.00,0.00,22.34,1.774,3.223,1.733,3.945,2.487,0,0,SEARCHING,1.733,0.000,0.000,0.000
19:01:51.534,SEARCHING,7.354,2.050,1.000,0.00,0.00,22.34,1.788,2.972,1.747,3.751,2.434,0,0,SEARCHING,1.747,0.000,0.000,0.000
19:01:51.735,SEARCHING,7.502,2.111,1.000,0.00,0.00,22.34,1.774,2.860,1.747,3.632,2.434,0,0,SEARCHING,1.747,0.000,0.000,0.000
19:01:51.936,SEARCHING,7.650,2.172,1.000,0.00,0.00,22.34,1.845,2.724,1.733,3.467,2.487,0,0,SEARCHING,1.733,0.000,0.000,0.000
19:01:52.136,SEARCHING,7.798,2.233,1.000,0.00,0.00,22.34,1.860,2.460,1.990,3.365,2.460,0,0,SEARCHING,1.860,0.000,0.000,0.000
19:01:52.337,SEARCHING,7.942,2.292,1.000,0.00,0.00,22.34,1.876,2.384,1.939,3.178,2.384,0,0,SEARCHING,1.876,0.000,0.000,0.000
19:01:52.537,SEARCHING,8.080,2.349,1.000,0.00,0.00,22.34,1.860,2.222,1.939,2.934,2.222,0,0,SEARCHING,1.860,0.000,0.000,0.000
19:01:52.738,SEARCHING,8.211,2.402,1.000,0.00,0.00,22.34,1.845,2.099,1.923,2.860,2.061,0,0,SEARCHING,1.845,0.000,0.000,0.000
19:01:52.938,SEARCHING,8.335,2.453,1.000,0.00,0.00,22.34,1.845,1.990,1.816,2.757,1.956,0,0,SEARCHING,1.816,0.000,0.000,0.000
19:01:53.140,SEARCHING,8.451,2.501,1.000,0.00,0.00,22.34,1.845,1.860,1.720,2.661,1.831,0,0,SEARCHING,1.720,0.000,0.000,0.000
19:01:53.341,SEARCHING,8.560,2.546,1.000,0.00,0.00,22.60,1.816,1.788,1.623,2.600,1.747,0,0,SEARCHING,1.623,0.000,0.000,0.000
19:01:53.541,SEARCHING,8.664,2.590,1.000,0.00,0.00,23.38,1.788,1.658,1.557,3.415,1.623,0,0,SEARCHING,1.557,0.000,0.000,0.000
19:01:53.741,SEARCHING,8.760,2.632,1.000,0.00,0.00,24.44,1.708,1.589,1.476,3.223,1.457,0,0,SEARCHING,1.457,0.000,0.000,0.000
19:01:53.942,SEARCHING,8.852,2.675,1.000,0.00,0.00,25.55,1.646,1.589,1.346,3.011,1.395,0,0,SEARCHING,1.346,0.000,0.000,0.000
19:01:54.143,SEARCHING,8.941,2.719,1.000,0.00,0.00,27.20,1.567,1.486,1.308,2.825,1.323,0,0,SEARCHING,1.308,0.000,0.000,0.000
19:01:54.344,SEARCHING,9.025,2.763,1.000,0.00,0.00,28.76,1.467,1.476,1.330,2.630,1.230,0,0,SEARCHING,1.230,0.000,0.000,0.000
19:01:54.544,SEARCHING,9.106,2.809,1.000,0.00,0.00,29.58,1.404,1.404,1.330,2.487,1.156,0,0,SEARCHING,1.156,0.000,0.000,0.000
19:01:54.744,SEARCHING,9.183,2.852,1.000,0.00,0.00,29.65,1.378,1.338,1.338,2.434,1.127,0,0,SEARCHING,1.127,0.000,0.000,0.000
19:01:54.945,SEARCHING,9.258,2.895,1.000,0.00,0.00,29.65,1.362,1.237,1.230,2.359,1.045,0,0,SEARCHING,1.045,0.000,0.000,0.000
19:01:55.145,SEARCHING,9.327,2.935,1.000,0.00,0.00,30.38,1.346,1.338,1.278,2.266,0.991,0,0,SEARCHING,0.991,0.000,0.000,0.000
19:01:55.346,SEARCHING,9.399,2.977,1.000,0.00,0.00,30.59,1.285,1.370,1.315,2.179,0.912,0,0,SEARCHING,0.912,0.000,0.000,0.000
19:01:55.546,SEARCHING,9.475,3.022,1.000,0.00,0.00,30.59,1.264,1.346,1.257,2.119,0.832,0,0,SEARCHING,0.832,0.000,0.000,0.000
19:01:55.747,SEARCHING,9.548,3.065,1.000,0.00,0.00,30.59,1.257,1.346,1.346,2.061,0.755,0,0,SEARCHING,0.755,0.000,0.000,0.000
19:01:55.947,SEARCHING,9.621,3.109,1.000,0.00,0.00,30.44,1.237,1.338,1.323,2.007,0.675,0,0,SEARCHING,0.675,0.000,0.000,0.000
19:01:56.148,SEARCHING,9.695,3.152,1.000,0.00,0.00,30.35,1.330,1.323,1.257,1.956,0.601,0,0,SEARCHING,0.601,0.000,0.000,0.000
19:01:56.348,SEARCHING,9.768,3.195,1.000,0.00,0.00,30.44,1.285,1.346,1.330,1.876,0.536,0,0,SEARCHING,0.536,0.000,0.000,0.000
19:01:56.549,SEARCHING,9.841,3.237,1.000,0.00,0.00,30.38,1.244,1.362,1.285,1.816,0.495,0,0,SEARCHING,0.495,0.000,0.000,0.000
19:01:56.750,SEARCHING,9.916,3.281,1.000,0.00,0.00,30.32,1.204,1.354,1.293,1.747,0.470,0,0,SEARCHING,0.470,0.000,0.000,0.000
19:01:56.950,SEARCHING,9.991,3.325,1.000,0.00,0.00,30.05,1.162,1.370,1.338,1.695,0.471,0,0,SEARCHING,0.471,0.000,0.000,0.000
19:01:57.151,SEARCHING,10.067,3.368,1.000,0.00,0.00,29.41,1.127,1.378,1.346,1.670,0.485,0,0,SEARCHING,0.485,0.000,0.000,0.000
19:01:57.352,SEARCHING,10.144,3.411,1.000,0.00,0.00,28.59,1.090,1.387,1.315,1.634,0.473,0,0,SEARCHING,0.473,0.000,0.000,0.000
19:01:57.552,SEARCHING,10.222,3.453,1.000,0.00,0.00,27.70,1.059,1.346,1.323,1.600,0.470,0,0,SEARCHING,0.470,0.000,0.000,0.000
19:01:57.753,SEARCHING,10.298,3.492,1.000,0.00,0.00,26.64,1.035,1.264,1.315,1.557,0.469,0,0,SEARCHING,0.469,0.000,0.000,0.000
19:01:57.953,SEARCHING,10.371,3.528,1.000,0.00,0.00,25.50,1.017,1.244,1.378,1.536,0.483,0,0,SEARCHING,0.483,0.000,0.000,0.000
19:01:58.154,SEARCHING,10.444,3.562,1.000,0.00,0.00,24.22,0.999,1.257,1.293,1.578,0.487,0,0,SEARCHING,0.487,0.000,0.000,0.000
19:01:58.355,SEARCHING,10.518,3.594,1.000,0.00,0.00,22.86,0.991,1.354,1.293,1.546,0.480,0,0,SEARCHING,0.480,0.000,0.000,0.000
19:01:58.555,SEARCHING,10.598,3.627,1.000,0.00,0.00,21.38,0.974,1.285,1.346,1.589,0.474,0,0,SEARCHING,0.474,0.000,0.000,0.000
19:01:58.756,SEARCHING,10.676,3.656,1.000,0.00,0.00,19.75,0.974,1.264,1.370,1.600,0.482,0,0,SEARCHING,0.482,0.000,0.000,0.000
19:01:58.957,SEARCHING,10.753,3.683,1.000,0.00,0.00,17.53,0.978,1.230,3.520,1.578,0.470,0,0,SEARCHING,0.470,0.000,0.000,0.000
19:01:59.157,SEARCHING,10.830,3.704,1.000,0.00,0.00,13.27,1.031,2.790,4.086,2.896,0.468,0,0,SEARCHING,0.468,0.000,0.000,0.000
19:01:59.357,SEARCHING,10.963,3.731,1.000,0.00,0.00,9.08,1.127,2.757,5.200,2.790,0.472,0,0,SEARCHING,0.472,0.000,0.000,0.000
19:01:59.558,SEARCHING,11.122,3.751,1.000,0.00,0.00,5.06,1.127,2.661,5.867,2.630,0.465,0,0,SEARCHING,0.465,0.000,0.000,0.000
19:01:59.759,SEARCHING,11.281,3.760,1.000,0.00,0.00,1.56,2.359,2.825,5.448,2.790,0.499,0,0,SEARCHING,0.499,0.000,0.000,0.000
19:01:59.959,SEARCHING,11.441,3.763,1.000,0.00,0.00,0.18,2.243,2.860,5.200,2.896,0.470,0,0,SEARCHING,0.470,0.000,0.000,0.000
19:02:00.160,SEARCHING,11.601,3.761,1.000,0.00,0.00,-1.29,2.025,2.934,5.085,2.972,0.460,0,0,SEARCHING,0.460,0.000,0.000,0.000
19:02:00.360,SEARCHING,11.761,3.756,1.000,0.00,0.00,-2.95,1.860,3.051,4.868,3.134,0.462,0,0,SEARCHING,0.462,0.000,0.000,0.000
19:02:00.561,SEARCHING,11.921,3.745,1.000,0.00,0.00,-5.64,1.682,3.269,4.670,3.223,1.467,0,0,SEARCHING,1.467,0.000,0.000,0.000
19:02:00.762,SEARCHING,12.079,3.724,1.000,0.00,0.00,-9.86,1.891,4.767,4.237,6.022,1.457,0,0,SEARCHING,1.457,0.000,0.000,0.000
19:02:00.962,SEARCHING,12.236,3.692,1.000,0.00,0.00,-13.15,2.061,4.317,3.878,6.022,1.467,0,0,SEARCHING,1.467,0.000,0.000,0.000
19:02:01.163,SEARCHING,12.391,3.652,1.000,0.00,0.00,-15.70,2.243,4.237,3.632,5.581,1.939,0,0,SEARCHING,1.939,0.000,0.000,0.000
19:02:01.363,SEARCHING,12.544,3.607,1.000,0.00,0.00,-17.59,2.409,4.400,3.467,5.085,1.939,0,0,SEARCHING,1.939,0.000,0.000,0.000
19:02:01.564,SEARCHING,12.696,3.557,1.000,0.00,0.00,-18.97,2.542,4.160,3.316,4.868,1.956,0,0,SEARCHING,1.956,0.000,0.000,0.000
19:02:01.765,SEARCHING,12.847,3.503,1.000,0.00,0.00,-19.89,2.860,4.086,3.223,4.670,1.939,0,0,SEARCHING,1.939,0.000,0.000,0.000
19:02:01.966,SEARCHING,12.998,3.449,1.000,0.00,0.00,-19.96,2.757,3.878,3.092,4.576,1.939,0,0,SEARCHING,1.939,0.000,0.000,0.000
19:02:02.166,SEARCHING,13.148,3.394,1.000,0.00,0.00,-20.20,2.542,3.223,3.051,4.487,1.907,0,0,SEARCHING,1.907,0.000,0.000,0.000
19:02:02.367,SEARCHING,13.298,3.338,1.000,0.00,0.00,-20.94,2.434,2.972,2.934,4.160,1.990,0,0,SEARCHING,1.990,0.000,0.000,0.000
19:02:02.567,SEARCHING,13.447,3.280,1.000,0.00,0.00,-21.75,2.335,2.825,2.825,4.086,2.159,0,0,SEARCHING,2.159,0.000,0.000,0.000
19:02:02.767,SEARCHING,13.595,3.220,1.000,0.00,0.00,-22.63,2.222,2.692,2.724,3.751,2.179,0,0,SEARCHING,2.179,0.000,0.000,0.000
19:02:02.968,SEARCHING,13.742,3.157,1.000,0.00,0.00,-23.61,2.061,2.460,2.600,3.691,2.179,0,0,SEARCHING,2.061,0.000,0.000,0.000
19:02:03.168,SEARCHING,13.884,3.093,1.000,0.00,0.00,-24.85,1.973,2.384,2.460,3.467,2.200,0,0,SEARCHING,1.973,0.000,0.000,0.000
19:02:03.369,SEARCHING,14.022,3.028,1.000,0.00,0.00,-26.13,1.876,2.311,2.335,3.269,2.200,0,0,SEARCHING,1.876,0.000,0.000,0.000
19:02:03.571,SEARCHING,14.152,2.963,1.000,0.00,0.00,-27.41,1.774,2.243,2.243,3.092,2.200,0,0,SEARCHING,1.774,0.000,0.000,0.000
19:02:03.771,SEARCHING,14.277,2.896,1.000,0.00,0.00,-28.77,1.695,2.080,2.099,2.896,2.200,0,0,SEARCHING,1.695,0.000,0.000,0.000
19:02:03.971,SEARCHING,14.393,2.831,1.000,0.00,0.00,-30.13,1.600,2.007,1.990,2.757,2.061,0,0,SEARCHING,1.600,0.000,0.000,0.000
19:02:04.172,SEARCHING,14.503,2.765,1.000,0.00,0.00,-31.56,1.557,1.973,1.939,2.661,1.990,0,0,SEARCHING,1.557,0.000,0.000,0.000
19:02:04.372,SEARCHING,14.609,2.698,1.000,0.00,0.00,-33.07,1.486,1.891,1.802,2.460,1.860,0,0,SEARCHING,1.486,0.000,0.000,0.000
19:02:04.573,SEARCHING,14.709,2.632,1.000,0.00,0.00,-34.49,1.448,1.816,1.733,2.311,1.733,0,0,SEARCHING,1.448,0.000,0.000,0.000
19:02:04.774,SEARCHING,14.803,2.566,1.000,0.00,0.00,-35.85,1.338,1.760,1.634,2.159,1.733,0,0,SEARCHING,1.338,0.000,0.000,0.000
19:02:04.974,SEARCHING,14.893,2.499,1.000,0.00,0.00,-37.34,1.300,1.720,1.567,2.043,1.708,0,0,SEARCHING,1.300,0.000,0.000,0.000
19:02:05.174,SEARCHING,14.978,2.432,1.000,0.00,0.00,-38.80,1.224,1.670,1.476,1.907,1.646,0,0,SEARCHING,1.224,0.000,0.000,0.000
19:02:05.375,SEARCHING,15.059,2.365,1.000,0.00,0.00,-40.32,1.192,1.589,1.395,1.788,1.567,0,0,SEARCHING,1.192,0.000,0.000,0.000
19:02:05.576,SEARCHING,15.136,2.299,1.000,0.00,0.00,-41.69,1.162,1.589,1.308,1.682,1.546,0,0,SEARCHING,1.162,0.000,0.000,0.000
19:02:05.776,SEARCHING,15.211,2.231,1.000,0.00,0.00,-42.81,1.111,1.525,1.224,1.557,1.496,0,0,SEARCHING,1.111,0.000,0.000,0.000
19:02:05.977,SEARCHING,15.281,2.165,1.000,0.00,0.00,-43.76,1.074,1.457,1.167,1.467,1.457,0,0,SEARCHING,1.074,0.000,0.000,0.000
19:02:06.177,SEARCHING,15.348,2.101,1.000,0.00,0.00,-44.28,1.100,1.378,1.095,1.387,1.378,0,0,SEARCHING,1.095,0.000,0.000,0.000
19:02:06.378,SEARCHING,15.410,2.040,1.000,0.00,0.00,-44.00,1.116,1.293,1.031,1.293,1.300,0,0,SEARCHING,1.031,0.000,0.000,0.000
19:02:06.578,SEARCHING,15.469,1.984,1.000,0.00,0.00,-42.68,1.162,1.230,0.974,1.237,1.204,0,0,SEARCHING,0.974,0.000,0.000,0.000
19:02:06.779,SEARCHING,15.528,1.931,1.000,0.00,0.00,-40.88,1.144,1.204,0.934,1.204,1.116,0,0,SEARCHING,0.934,0.000,0.000,0.000
19:02:06.980,SEARCHING,15.587,1.882,1.000,0.00,0.00,-38.63,1.378,1.179,0.901,1.173,0.995,0,0,SEARCHING,0.901,0.000,0.000,0.000
19:02:07.179,SEARCHING,15.647,1.836,1.000,0.00,0.00,-36.52,0.930,1.167,0.877,1.162,0.923,0,0,SEARCHING,0.877,0.000,0.000,0.000
19:02:07.380,SEARCHING,15.707,1.792,1.000,0.00,0.00,-35.61,0.912,1.116,0.835,1.122,0.838,0,0,SEARCHING,0.835,0.000,0.000,0.000
19:02:07.580,SEARCHING,15.766,1.750,1.000,0.00,0.00,-34.78,0.883,1.045,0.797,1.040,0.773,0,0,SEARCHING,0.773,0.000,0.000,0.000
19:02:07.781,SEARCHING,15.821,1.712,1.000,0.00,0.00,-34.11,1.064,0.978,0.763,0.982,0.715,0,0,SEARCHING,0.715,0.000,0.000,0.000
19:02:07.982,SEARCHING,15.873,1.678,1.000,0.00,0.00,-32.27,1.144,0.915,0.736,0.912,0.643,0,0,SEARCHING,0.643,0.000,0.000,0.000
19:02:08.182,SEARCHING,15.924,1.647,1.000,0.00,0.00,-29.67,1.111,0.873,0.724,0.870,0.571,0,0,SEARCHING,0.571,0.000,0.000,0.000
19:02:08.383,SEARCHING,15.973,1.621,1.000,0.00,0.00,-27.10,1.127,0.867,0.717,0.860,0.505,0,0,SEARCHING,0.505,0.000,0.000,0.000
19:02:08.582,SEARCHING,16.023,1.597,1.000,0.00,0.00,-24.19,1.069,0.867,0.711,0.863,0.441,0,0,SEARCHING,0.441,0.000,0.000,0.000
19:02:08.783,SEARCHING,16.074,1.575,1.000,0.00,0.00,-21.37,1.059,0.847,0.645,0.873,0.385,0,0,SEARCHING,0.385,0.000,0.000,0.000
19:02:08.983,SEARCHING,16.125,1.556,1.000,0.00,0.00,-17.94,1.567,0.890,0.618,0.883,0.366,0,0,SEARCHING,0.366,0.000,0.000,0.000
19:02:09.185,SEARCHING,16.180,1.541,1.000,0.00,0.00,-13.20,1.111,0.961,0.634,0.942,0.395,0,0,SEARCHING,0.395,0.000,0.000,0.000
19:02:09.387,SEARCHING,16.239,1.529,1.000,0.00,0.00,-9.31,1.074,0.978,0.645,1.031,0.347,0,0,SEARCHING,0.347,0.000,0.000,0.000
19:02:09.587,SEARCHING,16.302,1.520,1.000,0.00,0.00,-5.75,1.035,1.050,0.671,1.079,0.365,0,0,SEARCHING,0.365,0.000,0.000,0.000
19:02:09.788,SEARCHING,16.370,1.515,1.000,0.00,0.00,-2.64,0.999,0.995,0.689,1.217,0.362,0,0,SEARCHING,0.362,0.000,0.000,0.000
19:02:09.988,SEARCHING,16.437,1.514,1.000,0.00,0.00,0.24,1.111,0.923,0.711,1.285,0.348,0,0,SEARCHING,0.348,0.000,0.000,0.000
19:02:10.188,SEARCHING,16.502,1.515,1.000,0.00,0.00,3.84,1.095,1.338,0.760,1.457,0.374,0,0,SEARCHING,0.374,0.000,0.000,0.000
19:02:11.191,SEARCHING,16.558,1.521,1.000,0.00,0.00,6.65,0.919,0.887,0.823,1.760,0.346,0,0,SEARCHING,0.346,0.000,0.000,0.000
19:02:11.389,SEARCHING,16.643,1.532,1.000,0.00,0.00,8.96,0.991,0.915,0.908,1.760,0.370,0,0,SEARCHING,0.370,0.000,0.000,0.000
19:02:11.556,SEARCHING,16.734,1.548,1.000,0.00,0.00,10.14,0.965,1.695,0.926,1.695,0.351,0,0,SEARCHING,0.351,0.000,0.000,0.000
19:02:11.723,SEARCHING,16.855,1.570,1.000,0.00,0.00,11.01,0.883,1.695,0.949,1.670,0.371,0,0,SEARCHING,0.371,0.000,0.000,0.000
19:02:11.917,SEARCHING,17.020,1.602,1.000,0.00,0.00,11.03,0.915,1.611,0.930,1.634,0.345,0,0,SEARCHING,0.345,0.000,0.000,0.000
19:02:12.118,SEARCHING,17.120,1.622,1.000,0.00,0.00,11.12,0.901,1.536,0.938,1.589,0.390,0,0,SEARCHING,0.390,0.000,0.000,0.000
19:02:12.318,SEARCHING,17.216,1.641,1.000,0.00,0.00,11.83,3.269,1.467,0.938,1.476,0.374,0,0,SEARCHING,0.374,0.000,0.000,0.000
19:02:12.519,SEARCHING,17.308,1.664,1.000,0.00,0.00,16.11,0.974,1.708,1.069,1.720,0.382,0,0,SEARCHING,0.382,0.000,0.000,0.000
19:02:12.719,SEARCHING,17.411,1.695,1.000,0.00,0.00,16.94,3.878,1.860,0.953,1.876,0.362,0,0,SEARCHING,0.362,0.000,0.000,0.000
19:02:12.920,SEARCHING,17.524,1.731,1.000,0.00,0.00,19.93,3.632,1.939,0.970,1.956,0.444,0,0,SEARCHING,0.444,0.000,0.000,0.000
19:02:13.121,SEARCHING,17.639,1.778,1.000,0.00,0.00,24.36,3.751,2.542,1.050,2.542,0.378,0,0,SEARCHING,0.378,0.000,0.000,0.000
19:02:13.321,SEARCHING,17.778,1.847,1.000,0.00,0.00,28.30,3.223,2.571,1.230,2.571,0.345,0,0,SEARCHING,0.345,0.000,0.000,0.000
19:02:13.522,SEARCHING,17.917,1.926,1.000,0.00,0.00,31.30,3.691,2.692,1.395,2.692,0.362,0,0,SEARCHING,0.362,0.000,0.000,0.000
19:02:13.723,SEARCHING,18.052,2.012,1.000,0.00,0.00,33.79,3.575,2.790,1.589,2.790,0.353,0,0,SEARCHING,0.353,0.000,0.000,0.000
19:02:13.924,SEARCHING,18.184,2.103,1.000,0.00,0.00,36.43,3.467,3.178,1.860,3.134,1.395,0,0,SEARCHING,1.395,0.000,0.000,0.000
19:02:14.124,SEARCHING,18.310,2.201,1.000,0.00,0.00,39.40,4.868,3.178,1.788,3.223,1.404,0,0,SEARCHING,1.404,0.000,0.000,0.000
19:02:14.325,SEARCHING,18.431,2.306,1.000,0.00,0.00,43.41,4.487,3.092,1.831,3.134,1.395,0,0,SEARCHING,1.395,0.000,0.000,0.000
19:02:14.525,SEARCHING,18.544,2.420,1.000,0.00,0.00,47.03,4.237,2.860,2.043,3.011,1.387,0,0,SEARCHING,1.387,0.000,0.000,0.000
19:02:14.726,SEARCHING,18.650,2.539,1.000,0.00,0.00,49.70,3.878,2.790,2.335,2.757,1.395,0,0,SEARCHING,1.395,0.000,0.000,0.000
19:02:14.927,SEARCHING,18.752,2.663,1.000,0.00,0.00,51.54,3.751,2.630,2.514,2.600,1.362,0,0,SEARCHING,1.362,0.000,0.000,0.000
19:02:15.127,SEARCHING,18.850,2.789,1.000,0.00,0.00,53.03,3.520,2.571,2.434,2.542,1.876,0,0,SEARCHING,1.876,0.000,0.000,0.000
19:02:15.327,SEARCHING,18.944,2.918,1.000,0.00,0.00,54.58,3.365,2.571,2.243,2.514,1.923,0,0,SEARCHING,1.923,0.000,0.000,0.000
19:02:15.528,SEARCHING,19.035,3.050,1.000,0.00,0.00,56.40,3.316,4.670,2.061,4.670,1.907,0,0,SEARCHING,1.907,0.000,0.000,0.000
19:02:15.729,SEARCHING,19.121,3.185,1.000,0.00,0.00,58.58,3.092,4.317,1.876,4.317,1.923,0,0,SEARCHING,1.876,0.000,0.000,0.000
19:02:15.930,SEARCHING,19.202,3.323,1.000,0.00,0.00,61.03,2.934,4.086,1.708,4.086,1.923,0,0,SEARCHING,1.708,0.000,0.000,0.000
19:02:16.130,SEARCHING,19.277,3.464,1.000,0.00,0.00,63.97,2.790,3.751,1.611,3.751,1.907,0,0,SEARCHING,1.611,0.000,0.000,0.000
19:02:16.331,SEARCHING,19.343,3.610,1.000,0.00,0.00,66.90,2.724,3.520,1.682,3.520,1.907,0,0,SEARCHING,1.682,0.000,0.000,0.000
19:02:16.531,SEARCHING,19.404,3.758,1.000,0.00,0.00,67.71,2.571,3.269,4.670,3.223,2.025,0,0,SEARCHING,2.025,0.000,0.000,0.000
19:02:16.732,SEARCHING,19.467,3.905,1.000,0.00,0.00,65.64,2.434,3.269,4.670,3.269,2.179,0,0,SEARCHING,2.179,0.000,0.000,0.000
19:02:16.933,SEARCHING,19.535,4.049,1.000,0.00,0.00,63.35,2.384,3.269,4.974,3.269,2.159,0,0,SEARCHING,2.159,0.000,0.000,0.000
19:02:17.133,SEARCHING,19.610,4.191,1.000,0.00,0.00,60.82,2.359,3.269,5.321,3.223,2.159,0,0,SEARCHING,2.159,0.000,0.000,0.000
19:02:17.334,SEARCHING,19.691,4.329,1.000,0.00,0.00,58.07,2.335,3.178,6.022,3.178,2.179,0,0,SEARCHING,2.179,0.000,0.000,0.000
19:02:17.534,SEARCHING,19.779,4.463,1.000,0.00,0.00,55.04,2.335,3.269,6.730,3.316,2.179,0,0,SEARCHING,2.179,0.000,0.000,0.000
19:02:17.734,SEARCHING,19.874,4.592,1.000,0.00,0.00,51.82,2.335,3.365,7.151,3.415,2.159,0,0,SEARCHING,2.159,0.000,0.000,0.000
19:02:17.933,SEARCHING,19.976,4.715,1.000,0.00,0.00,48.54,2.359,3.575,7.381,3.575,2.200,0,0,SEARCHING,2.200,0.000,0.000,0.000
19:02:18.131,SEARCHING,20.085,4.832,1.000,0.00,0.00,45.22,2.359,3.814,6.934,3.751,2.222,0,0,SEARCHING,2.222,0.000,0.000,0.000
19:02:18.331,SEARCHING,20.200,4.942,1.000,0.00,0.00,42.04,2.434,4.400,6.538,4.400,2.311,0,0,SEARCHING,2.311,0.000,0.000,0.000
19:02:18.532,SEARCHING,20.322,5.047,1.000,0.00,0.00,39.15,2.487,4.767,5.581,4.767,2.288,0,0,SEARCHING,2.288,0.000,0.000,0.000
19:02:18.732,SEARCHING,20.448,5.145,1.000,0.00,0.00,36.64,2.571,5.321,5.200,5.448,2.288,0,0,SEARCHING,2.288,0.000,0.000,0.000
19:02:18.933,SEARCHING,20.578,5.238,1.000,0.00,0.00,34.43,2.692,6.356,4.868,6.022,2.288,0,0,SEARCHING,2.288,0.000,0.000,0.000
19:02:19.134,SEARCHING,20.711,5.327,1.000,0.00,0.00,32.53,2.757,7.627,4.670,6.022,2.266,0,0,SEARCHING,2.266,0.000,0.000,0.000
19:02:19.334,SEARCHING,20.847,5.411,1.000,0.00,0.00,30.93,3.051,7.627,4.237,6.022,2.288,0,0,SEARCHING,2.288,0.000,0.000,0.000
19:02:19.535,SEARCHING,20.985,5.492,1.000,0.00,0.00,29.90,3.223,7.627,4.160,6.022,2.335,0,0,SEARCHING,2.335,0.000,0.000,0.000
19:02:19.736,SEARCHING,21.124,5.571,1.000,0.00,0.00,29.15,3.269,7.627,3.945,6.022,2.335,0,0,SEARCHING,2.335,0.000,0.000,0.000
19:02:19.936,SEARCHING,21.264,5.648,1.000,0.00,0.00,28.79,3.415,7.151,3.878,6.022,2.359,0,0,SEARCHING,2.359,0.000,0.000,0.000
19:02:20.136,SEARCHING,21.404,5.725,1.000,0.00,0.00,28.79,3.415,7.381,3.945,6.022,2.359,0,0,SEARCHING,2.359,0.000,0.000,0.000
19:02:20.337,SEARCHING,21.545,5.803,1.000,0.00,0.00,28.79,3.415,7.151,3.878,6.022,2.409,0,0,SEARCHING,2.409,0.000,0.000,0.000
19:02:20.537,SEARCHING,21.685,5.880,1.000,0.00,0.00,28.79,3.415,7.151,3.878,6.184,2.384,0,0,SEARCHING,2.384,0.000,0.000,0.000
19:02:20.738,SEARCHING,21.825,5.957,1.000,0.00,0.00,28.79,3.316,6.934,3.814,6.184,2.359,0,0,SEARCHING,2.359,0.000,0.000,0.000
19:02:20.939,SEARCHING,21.965,6.034,1.000,0.00,0.00,28.79,3.316,6.934,3.814,6.022,2.384,0,0,SEARCHING,2.384,0.000,0.000,0.000
19:02:21.139,SEARCHING,22.106,6.111,1.000,0.00,0.00,28.79,3.316,6.730,3.691,6.022,2.335,0,0,SEARCHING,2.335,0.000,0.000,0.000
19:02:21.339,SEARCHING,22.246,6.188,1.000,0.00,0.00,28.79,3.365,6.730,3.632,6.022,2.384,0,0,SEARCHING,2.384,0.000,0.000,0.000
19:02:21.540,SEARCHING,22.386,6.265,1.000,0.00,0.00,28.79,3.365,6.538,3.575,5.867,2.409,0,0,SEARCHING,2.409,0.000,0.000,0.000
19:02:21.741,SEARCHING,22.526,6.342,1.000,0.00,0.00,28.79,3.365,6.538,3.575,6.022,2.409,0,0,SEARCHING,2.409,0.000,0.000,0.000
19:02:21.941,SEARCHING,22.667,6.419,1.000,0.00,0.00,28.79,3.467,6.538,3.520,6.022,2.384,0,0,SEARCHING,2.384,0.000,0.000,0.000
19:02:22.142,SEARCHING,22.807,6.496,1.000,0.00,0.00,28.79,3.467,6.356,3.467,6.022,2.409,0,0,SEARCHING,2.409,0.000,0.000,0.000
19:02:22.342,SEARCHING,22.947,6.573,1.000,0.00,0.00,28.79,3.575,6.184,3.467,6.022,2.434,0,0,SEARCHING,2.434,0.000,0.000,0.000
19:02:22.542,SEARCHING,23.087,6.650,1.000,0.00,0.00,28.79,3.575,6.022,3.467,6.022,2.409,0,0,SEARCHING,2.409,0.000,0.000,0.000
19:02:22.742,SEARCHING,23.227,6.727,1.000,0.00,0.00,28.79,3.691,5.867,3.415,5.867,2.409,0,0,SEARCHING,2.409,0.000,0.000,0.000
19:02:22.943,SEARCHING,23.368,6.804,1.000,0.00,0.00,28.79,3.751,5.720,3.467,5.720,2.384,0,0,SEARCHING,2.384,0.000,0.000,0.000
19:02:23.144,SEARCHING,23.508,6.881,1.000,0.00,0.00,28.79,3.751,5.581,3.365,5.448,2.460,0,0,SEARCHING,2.460,0.000,0.000,0.000
19:02:23.344,SEARCHING,23.648,6.958,1.000,0.00,0.00,29.15,6.184,5.448,3.316,5.448,2.460,0,0,SEARCHING,2.460,0.000,0.000,0.000
19:02:23.545,SEARCHING,23.787,7.038,1.000,0.00,0.00,30.60,5.720,5.448,3.415,5.581,2.434,0,0,SEARCHING,2.434,0.000,0.000,0.000
19:02:23.746,SEARCHING,23.924,7.121,1.000,0.00,0.00,31.42,4.014,5.448,3.520,5.448,2.434,0,0,SEARCHING,2.434,0.000,0.000,0.000
19:02:23.946,SEARCHING,24.060,7.204,1.000,0.00,0.00,31.42,5.200,5.448,3.467,5.448,2.460,0,0,SEARCHING,2.460,0.000,0.000,0.000
19:02:24.147,SEARCHING,24.196,7.288,1.000,0.00,0.00,32.43,5.321,5.448,3.467,5.448,2.460,0,0,SEARCHING,2.460,0.000,0.000,0.000
19:02:24.347,SEARCHING,24.331,7.375,1.000,0.00,0.00,33.58,5.085,5.581,3.415,5.581,2.434,0,0,SEARCHING,2.434,0.000,0.000,0.000
19:02:24.548,SEARCHING,24.463,7.465,1.000,0.00,0.00,34.63,4.670,5.581,3.467,5.581,2.409,0,0,SEARCHING,2.409,0.000,0.000,0.000
19:02:24.748,SEARCHING,24.594,7.557,1.000,0.00,0.00,35.47,4.576,5.448,3.520,5.321,2.409,0,0,SEARCHING,2.409,0.000,0.000,0.000
19:02:24.949,SEARCHING,24.724,7.650,1.000,0.00,0.00,36.24,4.400,5.720,3.520,5.720,2.434,0,0,SEARCHING,2.434,0.000,0.000,0.000
19:02:25.150,SEARCHING,24.852,7.746,1.000,0.00,0.00,36.93,4.487,5.720,3.575,5.720,2.460,0,0,SEARCHING,2.460,0.000,0.000,0.000
19:02:25.349,SEARCHING,24.980,7.842,1.000,0.00,0.00,37.32,4.487,5.085,3.520,5.085,2.460,0,0,SEARCHING,2.460,0.000,0.000,0.000
19:02:25.550,SEARCHING,25.107,7.940,1.000,0.00,0.00,37.92,4.400,5.200,3.467,5.085,2.409,0,0,SEARCHING,2.409,0.000,0.000,0.000
19:02:25.750,SEARCHING,25.232,8.039,1.000,0.00,0.00,38.59,4.160,4.868,3.269,4.974,2.434,0,0,SEARCHING,2.434,0.000,0.000,0.000
19:02:25.951,SEARCHING,25.357,8.139,1.000,0.00,0.00,39.31,4.086,4.767,3.365,4.670,2.460,0,0,SEARCHING,2.460,0.000,0.000,0.000
19:02:26.151,SEARCHING,25.480,8.241,1.000,0.00,0.00,39.68,4.014,4.576,3.316,4.576,2.434,0,0,SEARCHING,2.434,0.000,0.000,0.000
19:02:26.352,SEARCHING,25.603,8.344,1.000,0.00,0.00,39.98,4.086,4.576,3.269,4.487,2.460,0,0,SEARCHING,2.460,0.000,0.000,0.000
19:02:26.552,SEARCHING,25.725,8.447,1.000,0.00,0.00,40.59,3.945,4.400,3.269,4.400,2.434,0,0,SEARCHING,2.434,0.000,0.000,0.000
19:02:26.753,SEARCHING,25.846,8.552,1.000,0.00,0.00,41.20,3.945,4.237,3.223,4.237,2.460,0,0,SEARCHING,2.460,0.000,0.000,0.000
19:02:26.954,SEARCHING,25.966,8.658,1.000,0.00,0.00,41.84,3.878,4.160,3.269,4.086,2.460,0,0,SEARCHING,2.460,0.000,0.000,0.000
19:02:27.153,SEARCHING,26.085,8.765,1.000,0.00,0.00,41.91,3.814,3.945,3.269,3.814,2.460,0,0,SEARCHING,2.460,0.000,0.000,0.000
19:02:27.355,SEARCHING,26.204,8.872,1.000,0.00,0.00,42.19,3.945,3.691,3.134,3.691,2.434,0,0,SEARCHING,2.434,0.000,0.000,0.000
19:02:27.554,SEARCHING,26.322,8.980,1.000,0.00,0.00,42.89,3.814,3.632,3.134,3.632,2.434,0,0,SEARCHING,2.434,0.000,0.000,0.000
19:02:27.754,SEARCHING,26.439,9.089,1.000,0.00,0.00,43.54,3.751,3.520,3.178,3.467,2.460,0,0,SEARCHING,2.460,0.000,0.000,0.000
19:02:27.956,SEARCHING,26.555,9.200,1.000,0.00,0.00,43.85,3.751,3.365,3.134,3.365,2.434,0,0,SEARCHING,2.434,0.000,0.000,0.000
19:02:28.157,SEARCHING,26.669,9.311,1.000,0.00,0.00,44.45,3.691,3.134,3.134,3.178,2.434,0,0,SEARCHING,2.434,0.000,0.000,0.000
19:02:28.360,SEARCHING,26.784,9.423,1.000,0.00,0.00,44.51,3.751,3.092,3.178,3.011,2.460,0,0,SEARCHING,2.460,0.000,0.000,0.000
19:02:28.562,SEARCHING,26.898,9.535,1.000,0.00,0.00,44.51,3.632,2.860,3.092,2.790,2.460,0,0,SEARCHING,2.460,0.000,0.000,0.000
19:02:28.763,SEARCHING,27.012,9.648,1.000,0.00,0.00,44.75,3.575,2.630,3.134,2.630,2.487,0,0,SEARCHING,2.487,0.000,0.000,0.000
19:02:28.963,SEARCHING,27.125,9.760,1.000,0.00,0.00,44.81,3.467,2.384,3.092,2.514,2.460,0,0,SEARCHING,2.384,0.000,0.000,0.000
19:02:29.164,SEARCHING,27.236,9.870,1.000,0.00,0.00,44.81,2.288,2.384,3.051,2.384,2.460,0,0,SEARCHING,2.288,0.000,0.000,0.000
19:02:29.365,SEARCHING,27.344,9.976,1.000,0.00,0.00,43.70,2.222,2.288,2.972,2.266,2.409,0,0,SEARCHING,2.222,0.000,0.000,0.000
19:02:29.565,SEARCHING,27.449,10.074,1.000,0.00,0.00,42.43,2.179,2.179,2.860,2.159,2.460,0,0,SEARCHING,2.159,0.000,0.000,0.000
19:02:29.767,SEARCHING,27.551,10.165,1.000,0.00,0.00,41.12,1.973,2.007,2.724,1.990,2.487,0,0,SEARCHING,1.973,0.000,0.000,0.000
19:02:29.967,SEARCHING,27.648,10.248,1.000,0.00,0.00,39.52,1.802,1.845,2.571,1.876,2.434,0,0,SEARCHING,1.802,0.000,0.000,0.000
19:02:30.167,SEARCHING,27.741,10.323,1.000,0.00,0.00,37.70,1.720,1.831,2.409,1.845,2.460,0,0,SEARCHING,1.720,0.000,0.000,0.000
19:02:30.368,SEARCHING,27.834,10.393,1.000,0.00,0.00,35.57,1.525,6.934,2.266,1.923,2.460,0,0,SEARCHING,1.525,0.000,0.000,0.000
19:02:30.569,SEARCHING,27.962,10.480,1.000,0.00,0.00,33.13,1.378,6.934,2.099,5.867,2.460,0,0,SEARCHING,1.378,0.000,0.000,0.000
19:02:30.769,SEARCHING,28.098,10.565,1.000,0.00,0.00,30.26,1.250,6.356,1.939,6.022,2.460,0,0,SEARCHING,1.250,0.000,0.000,0.000
19:02:30.970,SEARCHING,28.237,10.643,1.000,0.00,0.00,29.72,4.400,5.448,1.845,5.448,2.460,0,0,SEARCHING,1.845,0.000,0.000,0.000
19:02:31.170,SEARCHING,28.374,10.726,1.000,0.00,0.00,33.25,3.945,6.538,1.907,6.022,2.434,0,0,SEARCHING,1.907,0.000,0.000,0.000
19:02:31.371,SEARCHING,28.506,10.817,1.000,0.00,0.00,36.29,3.632,6.538,1.939,6.022,2.434,0,0,SEARCHING,1.939,0.000,0.000,0.000
19:02:31.571,SEARCHING,28.633,10.914,1.000,0.00,0.00,38.95,3.415,6.356,2.043,6.022,2.460,0,0,SEARCHING,2.043,0.000,0.000,0.000
19:02:31.771,SEARCHING,28.755,11.017,1.000,0.00,0.00,40.67,3.178,6.022,2.825,6.022,2.487,0,0,SEARCHING,2.487,0.000,0.000,0.000
19:02:31.972,SEARCHING,28.877,11.122,1.000,0.00,0.00,40.76,3.134,5.867,3.178,5.867,2.460,0,0,SEARCHING,2.460,0.000,0.000,0.000
19:02:32.172,SEARCHING,28.998,11.226,1.000,0.00,0.00,40.76,3.051,5.720,3.575,5.720,2.460,0,0,SEARCHING,2.460,0.000,0.000,0.000
19:02:32.373,SEARCHING,29.119,11.330,1.000,0.00,0.00,40.76,3.011,5.581,3.691,5.581,2.434,0,0,SEARCHING,2.434,0.000,0.000,0.000
19:02:32.573,SEARCHING,29.241,11.434,1.000,0.00,0.00,40.08,3.011,5.720,3.751,5.720,2.460,0,0,SEARCHING,2.460,0.000,0.000,0.000
19:02:32.775,SEARCHING,29.364,11.537,1.000,0.00,0.00,39.35,3.011,5.448,3.751,5.448,2.434,0,0,SEARCHING,2.434,0.000,0.000,0.000
19:02:32.975,SEARCHING,29.488,11.637,1.000,0.00,0.00,38.60,2.972,5.448,3.691,5.448,2.460,0,0,SEARCHING,2.460,0.000,0.000,0.000
19:02:33.176,SEARCHING,29.614,11.736,1.000,0.00,0.00,37.87,3.011,5.321,3.575,5.321,2.434,0,0,SEARCHING,2.434,0.000,0.000,0.000
19:02:33.377,SEARCHING,29.740,11.834,1.000,0.00,0.00,37.22,2.972,5.085,3.575,5.085,2.460,0,0,SEARCHING,2.460,0.000,0.000,0.000
19:02:33.577,SEARCHING,29.868,11.930,1.000,0.00,0.00,36.56,2.972,4.974,3.467,4.974,2.487,0,0,SEARCHING,2.487,0.000,0.000,0.000
19:02:33.777,SEARCHING,29.997,12.025,1.000,0.00,0.00,36.24,2.972,4.868,3.520,4.868,2.460,0,0,SEARCHING,2.460,0.000,0.000,0.000
19:02:33.977,SEARCHING,30.126,12.119,1.000,0.00,0.00,35.87,3.011,4.670,3.575,4.670,2.460,0,0,SEARCHING,2.460,0.000,0.000,0.000
19:02:34.178,SEARCHING,30.256,12.213,1.000,0.00,0.00,35.57,3.051,4.576,3.520,4.576,2.434,0,0,SEARCHING,2.434,0.000,0.000,0.000
19:02:34.379,SEARCHING,30.386,12.306,1.000,0.00,0.00,35.57,3.092,4.487,3.520,4.400,2.460,0,0,SEARCHING,2.460,0.000,0.000,0.000
19:02:34.580,SEARCHING,30.517,12.399,1.000,0.00,0.00,35.57,3.092,4.237,3.520,4.317,2.460,0,0,SEARCHING,2.460,0.000,0.000,0.000
19:02:34.781,SEARCHING,30.647,12.492,1.000,0.00,0.00,35.57,3.051,4.086,3.520,4.160,2.460,0,0,SEARCHING,2.460,0.000,0.000,0.000
19:02:34.980,SEARCHING,30.777,12.585,1.000,0.00,0.00,35.33,3.011,3.945,3.467,3.945,2.434,0,0,SEARCHING,2.434,0.000,0.000,0.000
19:02:35.182,SEARCHING,30.908,12.677,1.000,0.00,0.00,35.27,2.972,3.751,3.415,3.814,2.434,0,0,SEARCHING,2.434,0.000,0.000,0.000
19:02:35.381,SEARCHING,31.038,12.770,1.000,0.00,0.00,35.27,2.934,3.575,3.269,3.632,2.460,0,0,SEARCHING,2.460,0.000,0.000,0.000
19:02:35.582,SEARCHING,31.169,12.862,1.000,0.00,0.00,35.27,2.934,3.520,3.134,3.467,2.460,0,0,SEARCHING,2.460,0.000,0.000,0.000
19:02:35.782,SEARCHING,31.299,12.954,1.000,0.00,0.00,35.27,2.896,3.415,3.011,3.365,2.434,0,0,SEARCHING,2.434,0.000,0.000,0.000
19:02:35.984,SEARCHING,31.430,13.047,1.000,0.00,0.00,35.27,2.825,3.269,2.860,3.223,2.434,0,0,SEARCHING,2.434,0.000,0.000,0.000
19:02:36.184,SEARCHING,31.561,13.139,1.000,0.00,0.00,35.27,2.757,3.051,2.724,3.092,2.487,0,0,SEARCHING,2.487,0.000,0.000,0.000
19:02:36.386,SEARCHING,31.691,13.232,1.000,0.00,0.00,35.27,2.630,2.934,2.630,2.934,2.460,0,0,SEARCHING,2.460,0.000,0.000,0.000
19:02:36.586,SEARCHING,31.822,13.324,1.000,0.00,0.00,35.27,2.542,2.790,2.487,2.825,2.460,0,0,SEARCHING,2.460,0.000,0.000,0.000
19:02:36.786,SEARCHING,31.953,13.416,1.000,0.00,0.00,35.27,2.487,2.661,2.359,2.661,2.434,0,0,SEARCHING,2.359,0.000,0.000,0.000
19:02:36.987,SEARCHING,32.083,13.509,1.000,0.00,0.00,35.27,2.384,2.487,2.222,2.487,2.434,0,0,SEARCHING,2.222,0.000,0.000,0.000
19:02:37.188,SEARCHING,32.212,13.600,1.000,0.00,0.00,35.27,2.335,2.359,2.080,2.359,2.335,0,0,SEARCHING,2.080,0.000,0.000,0.000
19:02:37.389,SEARCHING,32.333,13.686,1.000,0.00,0.00,35.83,2.288,2.243,1.973,2.222,2.222,0,0,SEARCHING,1.973,0.000,0.000,0.000
19:02:37.589,SEARCHING,32.448,13.770,1.000,0.00,0.00,36.60,2.159,2.099,1.860,2.080,2.080,0,0,SEARCHING,1.860,0.000,0.000,0.000
19:02:37.790,SEARCHING,32.554,13.850,1.000,0.00,0.00,37.50,2.099,1.990,1.747,1.990,1.990,0,0,SEARCHING,1.747,0.000,0.000,0.000
19:02:37.991,SEARCHING,32.653,13.928,1.000,0.00,0.00,38.63,2.025,1.876,1.634,1.876,1.876,0,0,SEARCHING,1.634,0.000,0.000,0.000
19:02:38.192,SEARCHING,32.746,14.003,1.000,0.00,0.00,39.97,1.891,1.788,1.546,1.788,1.788,0,0,SEARCHING,1.546,0.000,0.000,0.000
19:02:38.391,SEARCHING,32.832,14.077,1.000,0.00,0.00,41.36,1.816,1.708,1.457,1.708,1.708,0,0,SEARCHING,1.457,0.000,0.000,0.000
19:02:38.592,SEARCHING,32.912,14.149,1.000,0.00,0.00,42.92,1.733,1.611,1.378,1.611,1.611,0,0,SEARCHING,1.378,0.000,0.000,0.000
19:02:38.793,SEARCHING,32.986,14.220,1.000,0.00,0.00,44.64,1.634,1.546,1.300,1.546,1.536,0,0,SEARCHING,1.300,0.000,0.000,0.000
19:02:38.993,SEARCHING,33.055,14.290,1.000,0.00,0.00,46.45,1.567,1.467,1.230,1.467,1.467,0,0,SEARCHING,1.230,0.000,0.000,0.000
19:02:39.193,SEARCHING,33.118,14.359,1.000,0.00,0.00,48.44,1.467,1.421,1.173,1.412,1.412,0,0,SEARCHING,1.173,0.000,0.000,0.000
19:02:39.394,SEARCHING,33.177,14.427,1.000,0.00,0.00,50.42,1.395,1.362,1.116,1.362,1.362,0,0,SEARCHING,1.116,0.000,0.000,0.000
19:02:39.595,SEARCHING,33.232,14.495,1.000,0.00,0.00,52.45,1.308,1.315,1.064,1.315,1.315,0,0,SEARCHING,1.064,0.000,0.000,0.000
19:02:39.796,SEARCHING,33.281,14.562,1.000,0.00,0.00,54.47,1.237,1.271,1.017,1.271,1.278,0,0,SEARCHING,1.017,0.000,0.000,0.000
19:02:39.996,SEARCHING,33.328,14.629,1.000,0.00,0.00,56.48,1.173,1.224,0.965,1.230,1.230,0,0,SEARCHING,0.965,0.000,0.000,0.000
19:02:40.196,SEARCHING,33.370,14.695,1.000,0.00,0.00,58.51,1.100,1.198,0.934,1.198,1.198,0,0,SEARCHING,0.934,0.000,0.000,0.000
19:02:40.397,SEARCHING,33.409,14.760,1.000,0.00,0.00,60.38,1.035,1.167,0.897,1.167,1.167,0,0,SEARCHING,0.897,0.000,0.000,0.000
19:02:40.598,SEARCHING,33.445,14.825,1.000,0.00,0.00,62.11,0.978,1.138,0.860,1.133,1.133,0,0,SEARCHING,0.860,0.000,0.000,0.000
19:02:40.797,SEARCHING,33.478,14.890,1.000,0.00,0.00,63.73,0.919,1.105,0.826,1.105,1.105,0,0,SEARCHING,0.826,0.000,0.000,0.000
19:02:40.998,SEARCHING,33.508,14.953,1.000,0.00,0.00,65.09,0.867,1.069,0.795,1.069,1.064,0,0,SEARCHING,0.795,0.000,0.000,0.000
19:02:41.199,SEARCHING,33.536,15.015,1.000,0.00,0.00,66.24,0.811,0.995,0.765,0.995,0.995,0,0,SEARCHING,0.765,0.000,0.000,0.000
19:02:41.399,SEARCHING,33.561,15.074,1.000,0.00,0.00,66.85,0.763,0.934,0.731,0.930,0.930,0,0,SEARCHING,0.731,0.000,0.000,0.000
19:02:41.600,SEARCHING,33.585,15.129,1.000,0.00,0.00,67.14,0.717,0.877,0.702,0.873,0.873,0,0,SEARCHING,0.702,0.000,0.000,0.000
19:02:41.800,SEARCHING,33.607,15.181,1.000,0.00,0.00,67.14,0.677,0.823,0.661,0.823,0.823,0,0,SEARCHING,0.661,0.000,0.000,0.000
19:02:42.001,SEARCHING,33.627,15.230,1.000,0.00,0.00,67.14,0.637,0.776,0.630,0.773,0.776,0,0,SEARCHING,0.630,0.000,0.000,0.000
