timestamp,state,x,z,roll_deg,pitch_deg,yaw_deg,left,center,right,top,bottom,cmd_vx,cmd_vz,cmd_roll,cmd_yaw
2026-05-12 19:19:10.945152,SEARCHING,0.000,0.000,0.00,0.00,0.00,10.000,10.000,10.000,10.000,10.000,0.700,0.000,0.000,0.000
2026-05-12 19:19:12.217231,SEARCHING,0.056,1.000,0.00,0.00,0.00,10.000,10.000,10.000,10.000,10.000,0.700,0.000,0.000,0.000
2026-05-12 19:19:12.420911,SEARCHING,0.196,1.000,0.00,0.00,0.00,10.000,10.000,10.000,10.000,10.000,0.700,0.000,0.000,0.000
2026-05-12 19:19:12.626793,SEARCHING,0.336,1.000,0.00,0.00,0.00,10.000,10.000,10.000,10.000,10.000,0.700,0.000,0.000,0.000
2026-05-12 19:19:12.848291,SEARCHING,0.476,1.000,0.00,0.00,0.00,2.571,7.890,3.691,4.868,6.356,0.700,-0.029,-0.053,-0.106
2026-05-12 19:19:13.064487,SEARCHING,0.616,1.000,0.00,0.00,-1.06,2.661,7.627,3.691,4.868,5.321,0.700,-0.010,-0.047,-0.094
2026-05-12 19:19:13.267003,SEARCHING,0.756,1.000,0.00,0.00,-2.07,2.724,7.627,3.520,4.868,5.867,0.700,-0.021,-0.037,-0.075
2026-05-12 19:19:13.477977,SEARCHING,0.896,1.000,0.00,0.00,-2.87,2.825,7.151,3.467,4.868,5.867,0.700,-0.021,-0.029,-0.059
2026-05-12 19:19:13.718387,SEARCHING,1.036,1.000,0.00,0.00,-3.36,3.134,6.934,3.365,4.868,4.160,0.700,0.021,-0.010,-0.020
2026-05-12 19:19:13.926195,SEARCHING,1.175,1.000,0.00,0.00,-3.59,3.134,6.934,3.365,4.868,4.160,0.700,0.021,-0.010,-0.020
2026-05-12 19:19:14.173979,SEARCHING,1.315,1.000,0.00,0.00,-3.65,3.415,6.730,3.223,4.868,4.317,0.700,0.016,0.008,0.016
2026-05-12 19:19:14.406526,SEARCHING,1.455,1.000,0.00,0.00,-3.47,3.415,6.730,3.223,4.868,4.317,0.700,0.016,0.008,0.016
2026-05-12 19:19:14.662460,SEARCHING,1.595,1.000,0.00,0.00,-3.29,3.520,6.538,3.134,4.868,3.467,0.700,0.050,0.016,0.031
2026-05-12 19:19:14.862983,SEARCHING,1.734,1.000,0.00,0.00,-2.95,3.520,6.538,3.134,4.868,3.467,0.700,0.050,0.016,0.031
2026-05-12 19:19:15.081886,SEARCHING,1.874,1.000,0.00,0.00,-2.59,3.520,6.730,3.092,4.974,5.321,0.700,-0.008,0.018,0.035
2026-05-12 19:19:15.287993,SEARCHING,2.014,1.000,0.00,0.00,-2.19,3.520,6.730,3.092,4.974,5.321,0.700,-0.008,0.018,0.035
2026-05-12 19:19:15.489174,SEARCHING,2.154,1.000,0.00,0.00,-1.78,3.520,6.730,3.092,4.974,5.321,0.700,-0.008,0.018,0.035
2026-05-12 19:19:15.718580,SEARCHING,2.294,1.000,0.00,0.00,-1.37,3.520,6.730,3.092,4.974,5.321,0.700,-0.008,0.018,0.035
2026-05-12 19:19:15.920802,SEARCHING,2.434,1.000,0.00,0.00,-0.97,3.520,6.730,3.092,4.974,5.321,0.700,-0.008,0.018,0.035
2026-05-12 19:19:16.155627,SEARCHING,2.574,1.000,0.00,0.00,-0.60,3.415,6.730,3.134,4.868,5.321,0.700,-0.010,0.012,0.024
2026-05-12 19:19:16.363643,SEARCHING,2.714,1.000,0.00,0.00,-0.33,3.415,6.730,3.134,4.868,5.321,0.700,-0.010,0.012,0.024
2026-05-12 19:19:16.583541,SEARCHING,2.854,1.000,0.00,0.00,-0.06,3.415,6.730,3.134,4.868,5.321,0.700,-0.010,0.012,0.024
2026-05-12 19:19:16.787599,SEARCHING,2.994,1.000,0.00,0.00,0.21,3.415,6.730,3.134,4.868,5.321,0.700,-0.010,0.012,0.024
2026-05-12 19:19:16.980674,SEARCHING,3.134,1.000,0.00,0.00,0.48,3.365,6.934,3.134,4.868,5.448,0.700,-0.013,0.010,0.020
2026-05-12 19:19:17.224016,SEARCHING,3.274,1.000,0.00,0.00,0.71,3.316,7.151,3.092,4.868,4.868,0.700,0.000,0.010,0.020
2026-05-12 19:19:17.438925,SEARCHING,3.414,1.000,0.00,0.00,0.93,3.316,6.730,3.134,4.868,4.868,0.700,0.000,0.008,0.016
2026-05-12 19:19:17.674025,SEARCHING,3.554,1.000,0.00,0.00,1.12,3.316,6.730,3.134,4.868,4.868,0.700,0.000,0.008,0.016
2026-05-12 19:19:17.860126,SEARCHING,3.694,1.000,0.00,0.00,1.24,3.223,7.151,3.223,4.868,4.974,0.700,-0.003,0.000,0.000
2026-05-12 19:19:18.079682,SEARCHING,3.834,1.000,0.00,0.00,1.25,3.223,7.151,3.223,4.868,4.974,0.700,-0.003,0.000,0.000
2026-05-12 19:19:18.272606,SEARCHING,3.974,1.000,0.00,0.00,1.21,3.178,6.730,3.316,4.868,4.576,0.700,0.008,-0.006,-0.012
2026-05-12 19:19:18.497420,SEARCHING,4.114,1.000,0.00,0.00,1.07,3.178,6.730,3.316,4.868,4.576,0.700,0.008,-0.006,-0.012
2026-05-12 19:19:18.698809,SEARCHING,4.254,1.000,0.00,0.00,0.94,3.178,6.730,3.316,4.868,4.576,0.700,0.008,-0.006,-0.012
2026-05-12 19:19:18.906206,SEARCHING,4.394,1.000,0.00,0.00,0.80,3.178,6.730,3.316,4.868,4.576,0.700,0.008,-0.006,-0.012
2026-05-12 19:19:19.145220,SEARCHING,4.534,1.000,0.00,0.00,0.67,3.223,6.538,3.223,4.868,5.720,0.700,-0.018,0.000,0.000
2026-05-12 19:19:19.344170,SEARCHING,4.674,1.000,0.00,0.00,0.65,3.223,6.538,3.223,4.868,5.720,0.700,-0.018,0.000,0.000
2026-05-12 19:19:19.557151,SEARCHING,4.814,1.000,0.00,0.00,0.64,3.269,6.356,3.269,4.868,4.317,0.700,0.016,0.000,0.000
2026-05-12 19:19:19.787641,SEARCHING,4.954,1.000,0.00,0.00,0.63,3.269,6.356,3.269,4.868,4.317,0.700,0.016,0.000,0.000
2026-05-12 19:19:19.997745,SEARCHING,5.094,1.000,0.00,0.00,0.63,3.520,6.022,3.178,4.868,4.400,0.700,0.013,0.014,0.028
2026-05-12 19:19:20.334427,SEARCHING,5.304,1.000,0.00,0.00,1.11,3.575,6.022,3.134,4.868,3.467,0.700,0.050,0.018,0.035
2026-05-12 19:19:20.536651,SEARCHING,5.444,1.000,0.00,0.00,1.55,3.575,5.867,3.051,4.868,4.400,0.700,0.013,0.022,0.043
2026-05-12 19:19:20.750905,SEARCHING,5.583,1.000,0.00,0.00,2.05,3.575,5.867,3.051,4.868,4.400,0.700,0.013,0.022,0.043
2026-05-12 19:19:20.972737,SEARCHING,5.723,1.000,0.00,0.00,2.54,3.575,5.867,3.051,4.868,4.400,0.700,0.013,0.022,0.043
2026-05-12 19:19:21.190244,SEARCHING,5.863,1.000,0.00,0.00,3.04,3.467,5.867,3.134,4.868,4.576,0.700,0.008,0.014,0.028
2026-05-12 19:19:21.404727,SEARCHING,6.003,1.000,0.00,0.00,3.35,3.415,6.022,3.134,4.868,4.487,0.700,0.010,0.012,0.024
2026-05-12 19:19:21.633400,SEARCHING,6.143,1.000,0.00,0.00,3.62,3.415,6.184,3.134,4.868,4.400,0.700,0.013,0.012,0.024
2026-05-12 19:19:21.865809,SEARCHING,6.282,1.000,0.00,0.00,3.91,3.467,5.581,3.134,4.974,4.317,0.700,0.018,0.014,0.028
2026-05-12 19:19:22.061653,SEARCHING,6.422,1.000,0.00,0.00,4.21,3.467,5.720,3.178,4.868,4.400,0.700,0.013,0.012,0.024
2026-05-12 19:19:22.274997,SEARCHING,6.562,1.000,0.00,0.00,4.48,3.467,5.720,3.178,4.868,4.400,0.700,0.013,0.012,0.024
2026-05-12 19:19:22.500245,SEARCHING,6.701,1.000,0.00,0.00,4.75,3.467,5.720,3.178,4.868,4.400,0.700,0.013,0.012,0.024
2026-05-12 19:19:22.729430,SEARCHING,6.841,1.000,0.00,0.00,5.02,3.467,5.720,3.178,4.868,4.400,0.700,0.013,0.012,0.024
2026-05-12 19:19:22.926241,SEARCHING,6.980,1.000,0.00,0.00,5.29,3.467,5.720,3.178,4.868,4.400,0.700,0.013,0.012,0.024
2026-05-12 19:19:23.157631,SEARCHING,7.120,1.000,0.00,0.00,5.62,3.520,5.581,3.092,4.767,4.400,0.700,0.010,0.018,0.035
2026-05-12 19:19:23.401045,SEARCHING,7.259,1.000,0.00,0.00,6.02,3.316,5.581,3.092,4.670,4.767,0.700,-0.003,0.010,0.020
2026-05-12 19:19:23.609535,SEARCHING,7.398,1.000,0.00,0.00,6.28,3.316,5.581,3.092,4.670,4.767,0.700,-0.003,0.010,0.020
2026-05-12 19:19:23.827666,SEARCHING,7.537,1.000,0.00,0.00,6.51,3.269,5.720,3.092,4.487,4.576,0.700,-0.003,0.008,0.016
2026-05-12 19:19:24.058059,SEARCHING,7.676,1.000,0.00,0.00,6.69,3.575,5.448,3.092,4.400,4.400,0.700,0.000,0.020,0.039
2026-05-12 19:19:24.266873,SEARCHING,7.815,1.000,0.00,0.00,7.12,3.575,5.448,3.092,4.400,4.400,0.700,0.000,0.020,0.039
2026-05-12 19:19:24.490577,SEARCHING,7.954,1.000,0.00,0.00,7.57,3.415,5.448,3.134,4.160,4.400,0.700,-0.008,0.012,0.024
2026-05-12 19:19:24.714223,SEARCHING,8.093,1.000,0.00,0.00,7.86,3.365,5.448,3.178,4.014,4.400,0.700,-0.013,0.008,0.016
2026-05-12 19:19:24.914558,SEARCHING,8.231,1.000,0.00,0.00,8.05,3.365,5.448,3.178,4.014,4.400,0.700,-0.013,0.008,0.016
2026-05-12 19:19:25.132774,SEARCHING,8.370,1.000,0.00,0.00,8.23,3.365,5.448,3.178,4.014,4.400,0.700,-0.013,0.008,0.016
2026-05-12 19:19:25.344356,SEARCHING,8.509,1.000,0.00,0.00,8.28,2.896,5.448,3.011,4.400,4.317,0.700,0.003,-0.006,-0.012
2026-05-12 19:19:25.583554,SEARCHING,8.647,1.000,0.00,0.00,8.14,2.896,5.448,3.011,4.400,4.317,0.700,0.003,-0.006,-0.012
2026-05-12 19:19:25.777427,SEARCHING,8.786,1.000,0.00,0.00,8.01,2.896,5.448,3.011,4.400,4.317,0.700,0.003,-0.006,-0.012
2026-05-12 19:19:25.987419,SEARCHING,8.924,1.000,0.00,0.00,7.87,2.600,5.085,2.896,4.767,4.317,0.700,0.013,-0.018,-0.035
2026-05-12 19:19:26.213867,SEARCHING,9.063,1.000,0.00,0.00,7.50,2.600,5.085,2.896,4.767,4.317,0.700,0.013,-0.018,-0.035
2026-05-12 19:19:26.399670,SEARCHING,9.202,1.000,0.00,0.00,7.09,2.600,5.085,2.896,4.767,4.317,0.700,0.013,-0.018,-0.035
2026-05-12 19:19:26.617614,SEARCHING,9.341,1.000,0.00,0.00,6.68,2.600,5.085,2.896,4.767,4.317,0.700,0.013,-0.018,-0.035
2026-05-12 19:19:26.855013,SEARCHING,9.480,1.000,0.00,0.00,6.28,2.243,4.576,2.724,4.487,4.086,0.700,0.013,-0.035,-0.071
2026-05-12 19:19:27.067595,SEARCHING,9.619,1.000,0.00,0.00,5.51,1.939,4.400,2.600,4.317,3.365,0.700,0.039,-0.059,-0.118
2026-05-12 19:19:27.299488,SEARCHING,9.759,1.000,0.00,0.00,4.21,1.939,4.400,2.600,4.317,3.365,0.700,0.039,-0.059,-0.118
2026-05-12 19:19:28.236562,SEARCHING,9.864,1.000,0.00,0.00,3.20,1.876,4.014,2.460,4.014,3.365,0.700,0.029,-0.057,-0.114
2026-05-12 19:19:28.336297,SEARCHING,10.038,1.000,0.00,0.00,1.54,1.876,4.014,2.460,4.014,3.365,0.700,0.029,-0.057,-0.114
2026-05-12 19:19:28.547432,SEARCHING,10.178,1.000,0.00,0.00,0.23,1.816,3.415,2.222,3.415,3.051,0.700,0.021,-0.045,-0.090
2026-05-12 19:19:28.762324,SEARCHING,10.318,1.000,0.00,0.00,0.71,5.448,3.365,2.159,3.316,2.860,0.700,0.029,0.126,0.252
2026-05-12 19:19:28.983690,SEARCHING,10.458,1.000,0.00,0.00,3.67,5.581,3.178,2.061,3.178,2.724,0.700,0.031,0.138,0.275
2026-05-12 19:19:29.198174,SEARCHING,10.598,1.000,0.00,0.00,6.77,5.720,3.316,2.138,3.269,2.757,0.700,0.034,0.132,0.264
2026-05-12 19:19:29.432443,SEARCHING,10.736,1.000,0.00,0.00,9.74,6.184,3.575,2.266,3.575,3.223,0.700,0.018,0.126,0.252
2026-05-12 19:19:29.664195,SEARCHING,10.874,1.000,0.00,0.00,12.68,7.381,3.814,2.266,3.878,3.269,0.700,0.029,0.138,0.275
2026-05-12 19:19:29.864204,SEARCHING,11.009,1.000,0.00,0.00,15.82,7.381,3.814,2.266,3.878,3.269,0.700,0.029,0.138,0.275
2026-05-12 19:19:30.070862,SEARCHING,11.143,1.000,0.00,0.00,16.17,7.890,4.670,2.487,4.670,3.575,0.700,0.039,0.124,0.248
2026-05-12 19:19:30.285274,SEARCHING,11.277,1.000,0.00,0.00,18.11,7.890,4.670,2.487,4.670,3.575,0.700,0.039,0.124,0.248
2026-05-12 19:19:30.492706,SEARCHING,11.410,1.000,0.00,0.00,20.95,7.890,4.670,2.487,4.670,3.575,0.700,0.039,0.124,0.248
2026-05-12 19:19:30.723104,SEARCHING,11.539,1.000,0.00,0.00,23.79,7.890,4.670,2.487,4.670,3.575,0.700,0.039,0.124,0.248
2026-05-12 19:19:30.923165,SEARCHING,11.666,1.000,0.00,0.00,26.63,7.890,4.670,2.487,4.670,3.575,0.700,0.039,0.124,0.248
2026-05-12 19:19:31.132703,SEARCHING,11.790,1.000,0.00,0.00,29.47,7.890,4.670,2.487,4.670,3.575,0.700,0.039,0.124,0.248
2026-05-12 19:19:31.351767,SEARCHING,11.910,1.000,0.00,0.00,32.31,7.890,4.670,2.487,4.670,3.575,0.700,0.039,0.124,0.248
2026-05-12 19:19:31.560314,SEARCHING,12.027,1.000,0.00,0.00,35.15,7.890,4.670,2.487,4.670,3.575,0.700,0.039,0.124,0.248
2026-05-12 19:19:31.809262,SEARCHING,12.140,1.000,0.00,0.00,36.35,2.542,6.538,3.691,4.868,4.767,0.700,0.003,-0.055,-0.110
2026-05-12 19:19:32.018439,SEARCHING,12.253,1.000,0.00,0.00,35.08,2.460,6.184,3.814,4.868,4.576,0.700,0.008,-0.065,-0.130
2026-05-12 19:19:32.245860,SEARCHING,12.369,1.000,0.00,0.00,33.66,2.487,5.867,3.691,4.868,4.767,0.700,0.003,-0.059,-0.118
2026-05-12 19:19:32.460127,SEARCHING,12.486,1.000,0.00,0.00,32.29,2.542,6.184,3.575,4.868,4.767,0.700,0.003,-0.051,-0.102
2026-05-12 19:19:32.692632,SEARCHING,12.605,1.000,0.00,0.00,31.08,2.542,6.184,3.575,4.868,4.767,0.700,0.003,-0.051,-0.102
2026-05-12 19:19:32.905434,SEARCHING,12.726,1.000,0.00,0.00,29.91,2.542,6.184,3.575,4.868,4.767,0.700,0.003,-0.051,-0.102
2026-05-12 19:19:33.135104,SEARCHING,12.848,1.000,0.00,0.00,28.74,2.542,6.184,3.575,4.868,4.767,0.700,0.003,-0.051,-0.102
2026-05-12 19:19:33.326005,SEARCHING,12.971,1.000,0.00,0.00,27.57,2.542,6.184,3.575,4.868,4.767,0.700,0.003,-0.051,-0.102
2026-05-12 19:19:33.541008,SEARCHING,13.096,1.000,0.00,0.00,26.39,2.542,6.184,3.575,4.868,4.767,0.700,0.003,-0.051,-0.102
2026-05-12 19:19:33.757210,SEARCHING,13.222,1.000,0.00,0.00,25.22,2.542,6.184,3.575,4.868,4.767,0.700,0.003,-0.051,-0.102
2026-05-12 19:19:33.978981,SEARCHING,13.349,1.000,0.00,0.00,24.05,2.542,6.184,3.575,4.868,4.767,0.700,0.003,-0.051,-0.102
2026-05-12 19:19:34.203431,SEARCHING,13.477,1.000,0.00,0.00,22.88,2.542,6.184,3.575,4.868,4.767,0.700,0.003,-0.051,-0.102
2026-05-12 19:19:34.424333,SEARCHING,13.607,1.000,0.00,0.00,21.71,2.542,6.184,3.575,4.868,4.767,0.700,0.003,-0.051,-0.102
2026-05-12 19:19:34.642303,SEARCHING,13.737,1.000,0.00,0.00,22.07,6.538,4.086,2.434,4.086,3.269,0.700,0.037,0.116,0.232
2026-05-12 19:19:34.860234,SEARCHING,13.866,1.000,0.00,0.00,24.73,6.538,4.014,2.359,4.014,3.269,0.700,0.034,0.122,0.244
2026-05-12 19:19:35.078221,SEARCHING,13.991,1.000,0.00,0.00,27.49,6.538,4.014,2.359,4.014,3.269,0.700,0.034,0.122,0.244
2026-05-12 19:19:35.329533,SEARCHING,14.114,1.000,0.00,0.00,30.29,4.670,4.974,2.542,4.670,4.086,0.700,0.018,0.081,0.161
2026-05-12 19:19:35.536468,SEARCHING,14.234,1.000,0.00,0.00,32.33,4.670,4.974,2.542,4.670,4.086,0.700,0.018,0.081,0.161
2026-05-12 19:19:35.763689,SEARCHING,14.351,1.000,0.00,0.00,34.17,3.945,5.720,2.757,4.868,4.400,0.700,0.013,0.049,0.098
2026-05-12 19:19:35.965482,SEARCHING,14.466,1.000,0.00,0.00,35.37,3.945,5.720,2.757,4.868,4.400,0.700,0.013,0.049,0.098
2026-05-12 19:19:36.197804,SEARCHING,14.579,1.000,0.00,0.00,36.50,3.945,5.720,2.757,4.868,4.400,0.700,0.013,0.049,0.098
2026-05-12 19:19:36.394188,SEARCHING,14.691,1.000,0.00,0.00,37.63,3.945,5.720,2.757,4.868,4.400,0.700,0.013,0.049,0.098
2026-05-12 19:19:36.614350,SEARCHING,14.801,1.000,0.00,0.00,38.45,3.365,6.356,3.011,4.868,4.487,0.700,0.010,0.016,0.031
2026-05-12 19:19:36.853873,SEARCHING,14.911,1.000,0.00,0.00,38.68,3.269,6.356,3.223,4.868,4.974,0.700,-0.003,0.002,0.004
2026-05-12 19:19:37.072445,SEARCHING,15.020,1.000,0.00,0.00,38.73,3.269,6.356,3.223,4.868,4.974,0.700,-0.003,0.002,0.004
2026-05-12 19:19:37.277317,SEARCHING,15.129,1.000,0.00,0.00,38.77,3.269,6.356,3.223,4.868,4.974,0.700,-0.003,0.002,0.004
2026-05-12 19:19:37.542945,SEARCHING,15.238,1.000,0.00,0.00,38.67,3.092,5.581,3.415,4.868,4.670,0.700,0.005,-0.014,-0.028
2026-05-12 19:19:37.789454,SEARCHING,15.348,1.000,0.00,0.00,38.36,3.051,5.581,3.415,4.868,4.160,0.700,0.021,-0.016,-0.031
2026-05-12 19:19:38.012820,SEARCHING,15.458,1.000,0.00,0.00,38.00,3.092,5.200,3.415,4.868,4.237,0.700,0.018,-0.014,-0.028
2026-05-12 19:19:38.239697,SEARCHING,15.569,1.000,0.00,0.00,37.68,3.092,5.200,3.415,4.868,4.237,0.700,0.018,-0.014,-0.028
2026-05-12 19:19:38.473963,SEARCHING,15.680,1.000,0.00,0.00,37.37,3.092,5.200,3.415,4.868,4.237,0.700,0.018,-0.014,-0.028
2026-05-12 19:19:38.646674,SEARCHING,15.791,1.000,0.00,0.00,37.05,3.178,5.321,3.316,4.868,4.160,0.700,0.021,-0.006,-0.012
2026-05-12 19:19:38.861415,SEARCHING,15.903,1.000,0.00,0.00,36.90,3.178,5.321,3.316,4.868,4.160,0.700,0.021,-0.006,-0.012
2026-05-12 19:19:39.080177,SEARCHING,16.015,1.000,0.00,0.00,36.77,3.178,5.321,3.316,4.868,4.160,0.700,0.021,-0.006,-0.012
2026-05-12 19:19:39.277660,SEARCHING,16.127,1.000,0.00,0.00,36.63,3.178,5.321,3.316,4.868,4.160,0.700,0.021,-0.006,-0.012
2026-05-12 19:19:39.517004,SEARCHING,16.240,1.000,0.00,0.00,36.66,3.415,4.767,3.134,4.868,4.160,0.700,0.021,0.012,0.024
2026-05-12 19:19:39.821777,SEARCHING,16.408,1.000,0.00,0.00,37.06,3.415,4.317,3.134,4.868,4.086,0.700,0.024,0.012,0.024
2026-05-12 19:19:40.035642,SEARCHING,16.519,1.000,0.00,0.00,37.33,3.415,4.487,3.134,4.576,4.086,0.700,0.016,0.012,0.024
2026-05-12 19:19:40.242865,SEARCHING,16.630,1.000,0.00,0.00,37.59,3.365,4.160,3.134,4.487,4.086,0.700,0.013,0.010,0.020
2026-05-12 19:19:40.438056,SEARCHING,16.741,1.000,0.00,0.00,37.81,3.365,4.014,3.223,4.237,3.751,0.700,0.018,0.006,0.012
2026-05-12 19:19:40.659888,SEARCHING,16.852,1.000,0.00,0.00,37.96,3.365,4.014,3.223,4.237,3.751,0.700,0.018,0.006,0.012
2026-05-12 19:19:40.873682,SEARCHING,16.962,1.000,0.00,0.00,38.10,3.365,3.751,3.134,4.014,3.520,0.700,0.021,0.010,0.020
2026-05-12 19:19:41.091995,SEARCHING,17.072,1.000,0.00,0.00,38.32,3.415,3.415,3.178,3.814,3.415,0.700,0.018,0.010,0.020
2026-05-12 19:19:41.312681,SEARCHING,17.182,1.000,0.00,0.00,38.52,3.316,3.316,3.223,3.751,2.288,0.700,0.102,0.004,0.008
2026-05-12 19:19:41.525231,SEARCHING,17.291,1.000,0.00,0.00,38.62,3.365,3.269,3.316,3.575,3.178,0.700,0.021,0.002,0.004
2026-05-12 19:19:41.735585,SEARCHING,17.400,1.000,0.00,0.00,38.68,3.365,3.269,3.316,3.575,3.178,0.700,0.021,0.002,0.004
2026-05-12 19:19:41.952904,SEARCHING,17.510,1.000,0.00,0.00,38.67,3.134,3.092,3.223,3.365,3.178,0.700,0.010,-0.004,-0.008
2026-05-12 19:19:42.176456,SEARCHING,17.619,1.000,0.00,0.00,38.58,2.972,3.092,3.134,3.178,2.860,0.700,0.021,-0.008,-0.016
2026-05-12 19:19:42.404259,SEARCHING,17.728,1.000,0.00,0.00,38.88,2.934,2.630,2.542,3.011,2.860,0.700,0.010,0.024,0.047
2026-05-12 19:19:42.618306,SEARCHING,17.837,1.000,0.00,0.00,39.42,2.934,2.825,2.692,2.896,2.724,0.700,0.013,0.014,0.028
2026-05-12 19:19:42.831931,SEARCHING,17.945,1.000,0.00,0.00,39.70,2.896,2.790,2.724,2.757,2.661,0.700,0.008,0.010,0.020
2026-05-12 19:19:43.043222,SEARCHING,18.052,1.000,0.00,0.00,39.93,2.896,2.790,2.724,2.757,2.661,0.700,0.008,0.010,0.020
2026-05-12 19:19:43.252442,SEARCHING,18.160,1.000,0.00,0.00,40.20,2.757,2.487,2.514,2.514,2.487,0.700,0.003,0.016,0.031
2026-05-12 19:19:43.469752,SEARCHING,18.266,1.000,0.00,0.00,40.56,2.757,2.487,2.514,2.514,2.487,0.700,0.003,0.016,0.031
2026-05-12 19:19:43.696399,SEARCHING,18.372,1.000,0.00,0.00,41.08,2.724,2.288,2.266,2.266,2.266,0.700,0.000,0.033,0.067
2026-05-12 19:19:43.918887,SEARCHING,18.477,1.000,0.00,0.00,41.84,2.724,2.288,2.266,2.266,2.266,0.700,0.000,0.033,0.067
2026-05-12 19:19:44.136840,SEARCHING,18.581,1.000,0.00,0.00,42.77,2.514,2.007,1.956,2.061,1.923,0.700,0.021,0.051,0.102
2026-05-12 19:19:44.356308,SEARCHING,18.682,1.000,0.00,0.00,44.07,2.460,1.973,1.816,1.956,1.907,0.690,0.008,0.065,0.130
2026-05-12 19:19:44.548671,SEARCHING,18.780,1.000,0.00,0.00,45.56,2.460,1.973,1.816,1.956,1.907,0.690,0.008,0.065,0.130
2026-05-12 19:19:44.788197,SEARCHING,18.876,1.000,0.00,0.00,47.05,2.460,1.973,1.816,1.956,1.907,0.690,0.008,0.065,0.130
2026-05-12 19:19:45.001878,SEARCHING,18.969,1.000,0.00,0.00,48.53,2.460,1.973,1.816,1.956,1.907,0.690,0.008,0.065,0.130
2026-05-12 19:19:45.211641,SEARCHING,19.059,1.000,0.00,0.00,50.78,2.007,3.051,1.211,3.051,3.051,0.700,0.000,0.147,0.295
2026-05-12 19:19:45.422953,SEARCHING,19.145,1.000,0.00,0.00,54.21,1.923,2.860,1.156,2.896,2.896,0.700,0.000,0.155,0.311
2026-05-12 19:19:45.669876,SEARCHING,19.224,1.000,0.00,0.00,57.77,1.923,2.860,1.156,2.896,2.896,0.700,0.000,0.155,0.311
2026-05-12 19:19:45.865709,SEARCHING,19.295,1.000,0.00,0.00,61.33,1.457,2.138,3.051,2.138,2.138,0.700,0.000,-0.161,-0.323
2026-05-12 19:19:46.076856,SEARCHING,19.364,1.000,0.00,0.00,58.36,1.457,2.138,3.051,2.138,2.138,0.700,0.000,-0.161,-0.323
2026-05-12 19:19:46.303262,SEARCHING,19.441,1.000,0.00,0.00,54.56,1.370,2.025,2.972,2.043,2.043,0.700,0.000,-0.177,-0.354
2026-05-12 19:19:46.517428,SEARCHING,19.526,1.000,0.00,0.00,50.51,1.395,2.099,3.269,2.099,2.119,0.700,-0.003,-0.185,-0.370
2026-05-12 19:19:46.715003,SEARCHING,19.618,1.000,0.00,0.00,46.31,1.467,2.025,3.520,2.025,2.007,0.700,0.003,-0.179,-0.358
2026-05-12 19:19:46.915814,SEARCHING,19.718,1.000,0.00,0.00,42.18,1.476,2.061,3.632,2.080,2.061,0.700,0.003,-0.181,-0.362
2026-05-12 19:19:47.134624,SEARCHING,19.825,1.000,0.00,0.00,38.03,1.476,2.061,3.632,2.080,2.061,0.700,0.003,-0.181,-0.362
2026-05-12 19:19:47.351084,SEARCHING,19.938,1.000,0.00,0.00,33.51,1.457,2.434,6.184,2.434,2.434,0.700,0.000,-0.236,-0.472
2026-05-12 19:19:47.567005,SEARCHING,20.058,1.000,0.00,0.00,28.08,1.515,2.661,7.627,2.630,2.692,0.700,-0.005,-0.238,-0.476
2026-05-12 19:19:47.791906,SEARCHING,20.184,1.000,0.00,0.00,22.63,1.733,3.134,6.022,3.134,2.934,0.700,0.013,-0.185,-0.370
2026-05-12 19:19:47.999395,SEARCHING,20.315,1.000,0.00,0.00,18.15,2.043,4.400,4.868,4.237,3.814,0.700,0.016,-0.128,-0.256
2026-05-12 19:19:48.197618,SEARCHING,20.449,1.000,0.00,0.00,14.95,2.043,4.400,4.868,4.237,3.814,0.700,0.016,-0.128,-0.256
2026-05-12 19:19:48.417485,SEARCHING,20.585,1.000,0.00,0.00,12.03,2.311,7.627,4.014,4.868,5.200,0.700,-0.008,-0.083,-0.165
2026-05-12 19:19:48.636107,SEARCHING,20.723,1.000,0.00,0.00,10.16,2.514,6.538,3.691,4.868,3.751,0.700,0.037,-0.057,-0.114
2026-05-12 19:19:48.843571,SEARCHING,20.861,1.000,0.00,0.00,8.85,2.860,6.184,3.467,4.868,4.767,0.700,0.003,-0.028,-0.055
2026-05-12 19:19:49.066240,SEARCHING,20.999,1.000,0.00,0.00,8.26,3.178,5.867,3.316,4.868,3.751,0.700,0.037,-0.006,-0.012
2026-05-12 19:19:49.293605,SEARCHING,21.138,1.000,0.00,0.00,8.11,3.269,5.581,3.269,4.974,4.487,0.700,0.013,0.000,0.000
2026-05-12 19:19:49.521035,SEARCHING,21.276,1.000,0.00,0.00,8.19,3.467,5.448,3.178,4.868,4.317,0.700,0.016,0.012,0.024
2026-05-12 19:19:49.760089,SEARCHING,21.415,1.000,0.00,0.00,8.46,3.467,5.448,3.223,4.868,4.400,0.700,0.013,0.010,0.020
2026-05-12 19:19:49.975818,SEARCHING,21.553,1.000,0.00,0.00,8.75,3.575,5.321,3.178,4.868,4.400,0.700,0.013,0.016,0.031
2026-05-12 19:19:50.199134,SEARCHING,21.692,1.000,0.00,0.00,9.19,3.691,5.321,3.092,4.868,4.317,0.700,0.016,0.024,0.047
2026-05-12 19:19:50.435110,SEARCHING,21.830,1.000,0.00,0.00,9.73,3.814,5.321,3.134,4.868,4.400,0.700,0.013,0.026,0.051
2026-05-12 19:19:50.648311,SEARCHING,21.968,1.000,0.00,0.00,10.30,3.814,5.321,3.134,4.868,4.317,0.700,0.016,0.026,0.051
2026-05-12 19:19:50.864807,SEARCHING,22.105,1.000,0.00,0.00,10.89,3.945,5.321,3.134,4.868,4.317,0.700,0.016,0.029,0.059
2026-05-12 19:19:51.078183,SEARCHING,22.243,1.000,0.00,0.00,11.55,4.014,5.321,3.178,4.868,4.400,0.700,0.013,0.029,0.059
2026-05-12 19:19:51.314070,SEARCHING,22.380,1.000,0.00,0.00,12.21,3.945,5.321,3.269,4.868,4.400,0.700,0.013,0.024,0.047
2026-05-12 19:19:51.517622,SEARCHING,22.516,1.000,0.00,0.00,12.77,3.945,5.448,3.223,4.974,4.400,0.700,0.016,0.026,0.051
2026-05-12 19:19:51.749104,SEARCHING,22.653,1.000,0.00,0.00,13.36,3.945,5.448,3.223,4.974,4.400,0.700,0.016,0.026,0.051
2026-05-12 19:19:51.956575,SEARCHING,22.789,1.000,0.00,0.00,13.93,3.814,5.581,3.178,4.868,4.317,0.700,0.016,0.024,0.047
2026-05-12 19:19:52.176819,SEARCHING,22.925,1.000,0.00,0.00,14.50,3.751,5.720,3.092,4.868,4.317,0.700,0.016,0.026,0.051
2026-05-12 19:19:52.382738,SEARCHING,23.060,1.000,0.00,0.00,15.10,3.751,5.867,3.092,4.868,4.317,0.700,0.016,0.026,0.051
2026-05-12 19:19:52.596344,SEARCHING,23.195,1.000,0.00,0.00,15.69,3.751,6.022,3.134,4.868,4.317,0.700,0.016,0.024,0.047
2026-05-12 19:19:52.815345,SEARCHING,23.330,1.000,0.00,0.00,16.23,3.691,6.022,3.134,4.767,4.160,0.700,0.018,0.022,0.043
2026-05-12 19:19:53.042293,SEARCHING,23.464,1.000,0.00,0.00,16.73,3.691,6.538,3.134,4.868,4.237,0.700,0.018,0.022,0.043
2026-05-12 19:19:53.251598,SEARCHING,23.598,1.000,0.00,0.00,17.23,3.751,6.934,3.092,4.868,5.448,0.700,-0.013,0.026,0.051
2026-05-12 19:19:53.471420,SEARCHING,23.731,1.000,0.00,0.00,17.79,3.691,7.151,3.092,4.868,4.487,0.700,0.010,0.024,0.047
2026-05-12 19:19:53.678530,SEARCHING,23.864,1.000,0.00,0.00,18.29,3.632,7.627,3.178,4.974,4.400,0.700,0.016,0.018,0.035
2026-05-12 19:19:53.954252,SEARCHING,23.997,1.000,0.00,0.00,18.69,3.691,7.151,3.134,4.767,5.867,0.700,-0.024,0.022,0.043
2026-05-12 19:19:54.135761,SEARCHING,24.130,1.000,0.00,0.00,19.15,3.520,7.151,3.092,4.868,4.974,0.700,-0.003,0.018,0.035
2026-05-12 19:19:54.385538,SEARCHING,24.262,1.000,0.00,0.00,19.56,3.575,6.934,3.134,4.868,4.400,0.700,0.013,0.018,0.035
2026-05-12 19:19:54.596908,SEARCHING,24.394,1.000,0.00,0.00,19.97,3.575,6.730,3.134,4.868,4.487,0.700,0.010,0.018,0.035
2026-05-12 19:19:54.834044,SEARCHING,24.525,1.000,0.00,0.00,20.37,3.520,6.356,3.092,4.868,5.321,0.700,-0.010,0.018,0.035
2026-05-12 19:19:55.052289,SEARCHING,24.656,1.000,0.00,0.00,20.78,3.575,6.184,3.092,4.868,4.767,0.700,0.003,0.020,0.039
2026-05-12 19:19:55.250830,SEARCHING,24.787,1.000,0.00,0.00,21.22,3.575,6.022,3.092,4.868,6.184,0.700,-0.026,0.020,0.039
2026-05-12 19:19:55.471862,SEARCHING,24.917,1.000,0.00,0.00,21.63,3.467,6.022,3.092,4.868,6.184,0.700,-0.026,0.016,0.031
2026-05-12 19:19:55.696044,SEARCHING,25.047,1.000,0.00,0.00,21.94,3.316,5.720,3.092,4.868,5.200,0.700,-0.008,0.010,0.020
2026-05-12 19:19:55.919020,SEARCHING,25.177,1.000,0.00,0.00,22.16,3.316,5.581,3.092,4.767,6.730,0.700,-0.037,0.010,0.020
2026-05-12 19:19:56.126909,SEARCHING,25.306,1.000,0.00,0.00,22.36,3.269,5.448,3.134,4.868,6.356,0.700,-0.029,0.006,0.012
2026-05-12 19:19:56.346056,SEARCHING,25.436,1.000,0.00,0.00,22.39,3.092,5.200,3.223,4.868,5.581,0.700,-0.016,-0.006,-0.012
2026-05-12 19:19:56.542848,SEARCHING,25.565,1.000,0.00,0.00,22.23,3.092,5.200,3.269,4.868,6.022,0.700,-0.024,-0.008,-0.016
2026-05-12 19:19:56.747625,SEARCHING,25.695,1.000,0.00,0.00,22.02,3.092,4.868,3.365,4.868,6.184,0.700,-0.026,-0.012,-0.024
2026-05-12 19:19:56.979492,SEARCHING,25.825,1.000,0.00,0.00,21.73,3.092,4.670,3.415,4.670,6.022,0.700,-0.029,-0.014,-0.028
2026-05-12 19:19:57.196958,SEARCHING,25.955,1.000,0.00,0.00,21.42,3.092,4.487,3.415,4.487,6.538,0.700,-0.042,-0.014,-0.028
2026-05-12 19:19:57.401140,SEARCHING,26.086,1.000,0.00,0.00,21.12,3.092,4.400,3.365,4.400,6.730,0.700,-0.047,-0.012,-0.024
2026-05-12 19:19:57.620717,SEARCHING,26.216,1.000,0.00,0.00,20.85,3.092,4.400,3.365,4.400,6.730,0.700,-0.047,-0.012,-0.024
2026-05-12 19:19:57.829186,SEARCHING,26.347,1.000,0.00,0.00,20.63,3.178,4.317,3.316,4.237,4.487,0.700,-0.008,-0.006,-0.012
2026-05-12 19:19:58.089593,SEARCHING,26.478,1.000,0.00,0.00,20.52,3.178,4.014,3.365,4.014,6.730,0.700,-0.060,-0.008,-0.016
2026-05-12 19:19:59.149714,SEARCHING,26.609,1.000,0.00,0.00,20.38,3.223,3.945,3.365,3.945,6.022,0.700,-0.052,-0.006,-0.012
2026-05-12 19:19:59.195641,SEARCHING,26.741,1.000,0.00,0.00,20.25,3.223,3.945,3.365,3.945,6.022,0.700,-0.052,-0.006,-0.012
2026-05-12 19:19:59.399727,SEARCHING,26.872,1.000,0.00,0.00,20.10,3.178,3.751,3.365,3.814,4.767,0.700,-0.031,-0.008,-0.016
2026-05-12 19:19:59.602101,SEARCHING,27.004,1.000,0.00,0.00,19.83,3.051,3.467,3.467,3.520,6.356,0.700,-0.076,-0.018,-0.035
2026-05-12 19:19:59.833373,SEARCHING,27.136,1.000,0.00,0.00,19.42,3.051,3.178,3.467,3.223,5.448,0.700,-0.076,-0.018,-0.035
2026-05-12 19:20:00.030167,SEARCHING,27.268,1.000,0.00,0.00,19.05,3.092,3.134,3.415,3.178,4.400,0.700,-0.052,-0.014,-0.028
2026-05-12 19:20:00.244690,SEARCHING,27.400,1.000,0.00,0.00,18.75,3.051,3.051,3.415,2.934,5.867,0.700,-0.102,-0.016,-0.031
2026-05-12 19:20:00.481041,SEARCHING,27.533,1.000,0.00,0.00,18.34,2.896,7.890,3.365,2.724,5.200,0.700,-0.105,-0.022,-0.043
2026-05-12 19:20:00.707327,SEARCHING,27.666,1.000,0.00,0.00,17.85,2.790,7.627,3.316,2.860,6.184,0.700,-0.113,-0.026,-0.051
2026-05-12 19:20:00.953770,SEARCHING,27.799,1.000,0.00,0.00,17.25,2.630,7.627,3.316,3.011,5.085,0.700,-0.081,-0.035,-0.071
2026-05-12 19:20:01.153434,SEARCHING,27.933,1.000,0.00,0.00,16.47,2.514,7.381,3.178,4.868,5.448,0.700,-0.013,-0.037,-0.075
2026-05-12 19:20:01.372076,SEARCHING,28.068,1.000,0.00,0.00,15.50,2.288,6.730,3.092,4.767,5.448,0.700,-0.016,-0.051,-0.102
2026-05-12 19:20:01.586169,SEARCHING,28.203,1.000,0.00,0.00,14.32,2.288,6.730,3.092,4.767,5.448,0.700,-0.016,-0.051,-0.102
2026-05-12 19:20:01.801361,SEARCHING,28.339,1.000,0.00,0.00,13.93,3.945,5.720,2.757,4.868,4.317,0.700,0.016,0.049,0.098
2026-05-12 19:20:02.012789,SEARCHING,28.475,1.000,0.00,0.00,14.93,3.945,5.867,2.790,4.767,4.237,0.700,0.016,0.047,0.094
2026-05-12 19:20:02.234768,SEARCHING,28.610,1.000,0.00,0.00,15.99,3.814,6.184,2.860,4.868,4.767,0.700,0.003,0.039,0.079
2026-05-12 19:20:02.446603,SEARCHING,28.744,1.000,0.00,0.00,16.90,3.632,6.538,2.934,4.868,4.400,0.700,0.013,0.029,0.059
2026-05-12 19:20:02.655359,SEARCHING,28.878,1.000,0.00,0.00,17.61,3.632,6.538,2.934,4.868,4.400,0.700,0.013,0.029,0.059
2026-05-12 19:20:02.872360,SEARCHING,29.011,1.000,0.00,0.00,18.22,3.467,6.730,3.011,4.868,5.448,0.700,-0.013,0.020,0.039
2026-05-12 19:20:03.078320,SEARCHING,29.144,1.000,0.00,0.00,18.68,3.415,6.730,3.051,4.868,6.184,0.700,-0.026,0.016,0.031
2026-05-12 19:20:03.302294,SEARCHING,29.276,1.000,0.00,0.00,19.01,3.365,6.730,3.134,4.868,5.321,0.700,-0.010,0.010,0.020
2026-05-12 19:20:03.512889,SEARCHING,29.408,1.000,0.00,0.00,19.23,3.365,6.538,3.134,4.868,4.576,0.700,0.008,0.010,0.020
2026-05-12 19:20:03.732874,SEARCHING,29.541,1.000,0.00,0.00,19.45,3.316,6.538,3.178,4.868,4.400,0.700,0.013,0.006,0.012
2026-05-12 19:20:03.945478,SEARCHING,29.672,1.000,0.00,0.00,19.59,3.269,6.538,3.178,4.868,5.720,0.700,-0.018,0.004,0.008
2026-05-12 19:20:04.170776,SEARCHING,29.804,1.000,0.00,0.00,19.69,3.316,6.356,3.223,4.974,4.400,0.700,0.016,0.004,0.008
2026-05-12 19:20:04.385959,SEARCHING,29.936,1.000,0.00,0.00,19.76,3.269,6.184,3.223,4.868,5.321,0.700,-0.010,0.002,0.004
2026-05-12 19:20:04.606143,SEARCHING,30.068,1.000,0.00,0.00,19.80,3.269,6.022,3.223,4.868,5.448,0.700,-0.013,0.002,0.004
2026-05-12 19:20:04.809634,SEARCHING,30.200,1.000,0.00,0.00,19.85,3.269,5.867,3.223,4.868,4.974,0.700,-0.003,0.002,0.004
2026-05-12 19:20:05.025165,SEARCHING,30.331,1.000,0.00,0.00,19.89,3.269,5.867,3.223,4.868,4.974,0.700,-0.003,0.002,0.004
2026-05-12 19:20:05.249277,SEARCHING,30.463,1.000,0.00,0.00,19.92,3.269,5.581,3.223,4.868,5.321,0.700,-0.010,0.002,0.004
2026-05-12 19:20:05.477284,SEARCHING,30.594,1.000,0.00,0.00,19.94,3.316,5.448,3.223,4.868,4.670,0.700,0.005,0.004,0.008
2026-05-12 19:20:05.688723,SEARCHING,30.726,1.000,0.00,0.00,20.03,3.316,5.321,3.178,4.868,5.085,0.700,-0.005,0.006,0.012
2026-05-12 19:20:05.886621,SEARCHING,30.858,1.000,0.00,0.00,20.16,3.365,5.200,3.223,4.868,5.085,0.700,-0.005,0.006,0.012
2026-05-12 19:20:06.120143,SEARCHING,30.989,1.000,0.00,0.00,20.31,3.365,5.085,3.178,4.868,4.868,0.700,0.000,0.008,0.016
2026-05-12 19:20:06.349737,SEARCHING,31.120,1.000,0.00,0.00,20.49,3.467,4.868,3.092,4.868,4.576,0.700,0.008,0.016,0.031
2026-05-12 19:20:06.545027,SEARCHING,31.251,1.000,0.00,0.00,20.81,3.415,4.767,3.092,4.670,4.487,0.700,0.005,0.014,0.028
2026-05-12 19:20:06.773868,SEARCHING,31.382,1.000,0.00,0.00,21.13,3.415,4.767,3.092,4.670,4.576,0.700,0.003,0.014,0.028
2026-05-12 19:20:06.967458,SEARCHING,31.512,1.000,0.00,0.00,21.45,3.415,4.670,3.092,4.670,4.487,0.700,0.005,0.014,0.028
2026-05-12 19:20:07.177113,SEARCHING,31.643,1.000,0.00,0.00,21.75,3.415,4.576,3.134,4.576,4.487,0.700,0.003,0.012,0.024
2026-05-12 19:20:07.435405,SEARCHING,31.772,1.000,0.00,0.00,22.00,3.365,4.400,3.134,4.317,4.086,0.700,0.008,0.010,0.020
2026-05-12 19:20:07.628236,SEARCHING,31.902,1.000,0.00,0.00,22.23,3.223,4.160,3.134,4.160,3.415,0.700,0.031,0.004,0.008
2026-05-12 19:20:07.830699,SEARCHING,32.032,1.000,0.00,0.00,22.33,3.269,4.086,3.178,4.160,3.365,0.700,0.034,0.004,0.008
2026-05-12 19:20:08.057065,SEARCHING,32.161,1.000,0.00,0.00,22.42,3.269,4.014,3.178,3.945,4.014,0.700,-0.003,0.004,0.008
2026-05-12 19:20:08.282629,SEARCHING,32.291,1.000,0.00,0.00,22.54,3.269,3.751,3.178,3.751,3.365,0.700,0.018,0.004,0.008
2026-05-12 19:20:08.481623,SEARCHING,32.420,1.000,0.00,0.00,22.64,3.269,3.751,3.178,3.751,3.365,0.700,0.018,0.004,0.008
2026-05-12 19:20:08.706608,SEARCHING,32.549,1.000,0.00,0.00,22.66,3.011,3.520,3.316,3.520,3.269,0.700,0.013,-0.014,-0.028
2026-05-12 19:20:08.915107,SEARCHING,32.678,1.000,0.00,0.00,22.36,2.972,3.467,3.269,3.467,3.316,0.700,0.008,-0.014,-0.028
2026-05-12 19:20:09.134609,SEARCHING,32.808,1.000,0.00,0.00,22.07,2.934,3.316,3.134,3.316,2.514,0.700,0.058,-0.010,-0.020
2026-05-12 19:20:09.329734,SEARCHING,32.938,1.000,0.00,0.00,21.89,2.860,3.178,2.934,3.134,2.600,0.700,0.039,-0.004,-0.008
2026-05-12 19:20:09.539554,SEARCHING,33.068,1.000,0.00,0.00,21.80,2.860,2.972,2.825,2.972,2.934,0.700,0.003,0.002,0.004
2026-05-12 19:20:09.749595,SEARCHING,33.198,1.000,0.00,0.00,21.82,2.790,2.896,2.757,2.896,2.860,0.700,0.003,0.002,0.004
2026-05-12 19:20:09.990824,SEARCHING,33.328,1.000,0.00,0.00,21.94,2.790,2.790,2.571,2.757,2.757,0.700,0.000,0.014,0.028
2026-05-12 19:20:10.217747,SEARCHING,33.457,1.000,0.00,0.00,22.27,2.757,2.661,2.487,2.661,2.661,0.700,0.000,0.018,0.035
2026-05-12 19:20:10.434225,SEARCHING,33.587,1.000,0.00,0.00,22.68,2.630,2.487,2.335,2.460,2.487,0.700,-0.003,0.022,0.043
2026-05-12 19:20:10.624209,SEARCHING,33.716,1.000,0.00,0.00,23.15,2.630,2.487,2.335,2.460,2.487,0.700,-0.003,0.022,0.043
2026-05-12 19:20:10.849290,SEARCHING,33.844,1.000,0.00,0.00,23.67,2.359,2.222,2.080,2.222,2.222,0.700,0.000,0.026,0.051
2026-05-12 19:20:11.056037,SEARCHING,33.972,1.000,0.00,0.00,24.24,2.222,2.043,1.939,2.043,2.043,0.700,0.000,0.029,0.059
2026-05-12 19:20:11.269545,SEARCHING,34.100,1.000,0.00,0.00,24.90,2.099,1.956,1.816,1.956,1.956,0.684,0.000,0.033,0.067
2026-05-12 19:20:11.461853,SEARCHING,34.223,1.000,0.00,0.00,25.66,2.061,1.923,1.788,1.923,1.923,0.673,0.000,0.033,0.067
2026-05-12 19:20:11.677892,SEARCHING,34.340,1.000,0.00,0.00,26.52,1.876,1.720,1.589,1.720,1.720,0.602,0.000,0.043,0.087
2026-05-12 19:20:11.901478,SEARCHING,34.448,1.000,0.00,0.00,27.51,1.733,1.578,1.448,1.578,1.567,0.552,0.003,0.051,0.102
2026-05-12 19:20:12.125753,SEARCHING,34.545,1.000,0.00,0.00,28.68,1.646,1.505,1.378,1.505,1.505,0.527,0.000,0.053,0.106
2026-05-12 19:20:12.340706,SEARCHING,34.636,1.000,0.00,0.00,29.93,1.505,1.354,1.224,1.354,1.346,0.474,0.003,0.069,0.138
2026-05-12 19:20:12.578528,SEARCHING,34.719,1.000,0.00,0.00,31.48,1.448,1.293,1.173,1.300,1.300,0.452,0.000,0.073,0.146
2026-05-12 19:20:12.791684,SEARCHING,34.794,1.000,0.00,0.00,33.25,1.378,1.211,1.090,1.204,1.211,0.424,-0.003,0.087,0.173
2026-05-12 19:20:13.014640,SEARCHING,34.864,1.000,0.00,0.00,35.28,1.300,1.127,0.999,1.127,1.122,0.395,0.003,0.104,0.208
2026-05-12 19:20:13.209992,SEARCHING,34.927,1.000,0.00,0.00,37.69,1.285,1.105,0.978,1.105,1.105,0.387,0.000,0.110,0.220
2026-05-12 19:20:13.459870,SEARCHING,34.987,1.000,0.00,0.00,40.36,1.224,1.035,0.901,1.035,1.035,0.362,0.000,0.132,0.264
2026-05-12 19:20:13.765920,INSPECTING,35.040,1.000,0.00,0.00,43.49,1.192,0.986,0.838,0.986,0.986,0.000,0.000,0.000,0.000
2026-05-12 19:20:13.965851,INSPECTING,35.053,1.000,0.00,0.00,44.33,1.192,0.986,0.838,0.986,0.986,0.350,0.550,0.552,0.850
2026-05-12 19:20:14.292207,INSPECTING,35.078,1.000,0.00,0.00,46.32,1.211,0.938,0.765,0.938,0.938,0.350,0.550,0.552,0.850
2026-05-12 19:20:14.633871,INSPECTING,35.122,1.000,0.00,0.00,56.06,1.074,1.064,0.784,1.069,1.064,0.350,0.550,0.552,0.850
2026-05-12 19:20:14.955745,INSPECTING,35.170,1.000,0.00,0.00,70.67,0.965,1.090,0.904,1.090,1.090,0.350,0.550,0.552,0.850
2026-05-12 19:20:15.257864,INSPECTING,35.188,1.000,0.00,0.00,80.41,0.946,1.054,0.957,1.054,1.054,0.350,0.550,-0.552,-0.850
2026-05-12 19:20:15.593672,INSPECTING,35.193,1.000,0.00,0.00,95.02,0.400,0.946,0.965,0.946,0.946,0.350,0.550,-0.552,-0.850
2026-05-12 19:20:15.939686,INSPECTING,35.178,1.000,0.00,0.00,99.40,0.479,0.877,0.890,0.877,0.877,0.350,0.550,-0.552,-0.850
2026-05-12 19:20:16.319910,INSPECTING,35.175,1.000,0.00,0.00,82.36,0.708,0.778,0.857,0.778,0.778,0.350,-0.550,0.552,0.850
2026-05-12 19:20:16.656666,INSPECTING,35.201,1.000,0.00,0.00,67.74,0.656,0.748,0.792,0.748,0.748,0.350,-0.550,0.552,0.850
2026-05-12 19:20:17.019715,INSPECTING,35.252,1.000,0.00,0.00,53.13,0.585,0.685,0.531,0.681,0.687,0.350,-0.550,0.552,0.850
2026-05-12 19:20:17.418519,TURNING,35.311,1.000,0.00,0.00,62.87,0.502,0.630,0.478,0.632,0.630,0.000,0.000,0.000,0.000
2026-05-12 19:20:17.586034,TURNING,35.351,1.000,0.00,0.00,79.92,0.425,0.501,0.497,0.501,0.501,0.000,0.000,0.000,0.800
2026-05-12 19:20:17.880313,TURNING,35.358,1.000,0.00,0.00,89.66,0.293,0.303,0.313,0.303,0.303,0.000,0.000,0.000,0.800
2026-05-12 19:20:18.014272,TURNING,35.353,1.000,0.00,0.00,99.40,0.291,0.284,0.277,0.284,0.284,0.000,0.000,0.000,0.800
2026-05-12 19:20:18.352759,TURNING,35.353,1.000,0.00,0.00,109.48,0.334,0.299,0.270,0.298,0.299,0.000,0.000,0.000,0.800
2026-05-12 19:20:18.541570,TURNING,35.353,1.000,0.00,0.00,116.36,0.375,0.318,0.276,0.319,0.319,0.000,0.000,0.000,0.800
2026-05-12 19:20:18.852415,TURNING,35.353,1.000,0.00,0.00,130.11,0.428,0.343,0.286,0.344,0.343,0.000,0.000,0.000,0.800
2026-05-12 19:20:19.056724,TURNING,35.353,1.000,0.00,0.00,159.91,0.838,0.414,0.319,0.415,0.414,0.000,0.000,0.000,0.800
2026-05-12 19:20:19.379569,TURNING,35.353,1.000,0.00,0.00,171.36,0.838,0.414,0.319,0.415,0.414,0.000,0.000,0.000,0.800
2026-05-12 19:20:19.589277,TURNING,35.353,1.000,0.00,0.00,178.24,0.838,0.414,0.319,0.415,0.414,0.000,0.000,0.000,0.800
2026-05-12 19:20:19.880995,TURNING,35.353,1.000,0.00,-0.00,-172.59,0.838,0.414,0.319,0.415,0.414,0.000,0.000,0.000,0.800
2026-05-12 19:20:20.124865,TURNING,35.353,1.000,0.00,-0.00,-161.13,4.868,1.557,0.908,1.567,1.557,0.000,0.000,0.000,0.768
2026-05-12 19:20:20.381113,TURNING,35.353,1.000,0.00,-0.00,-151.98,5.200,3.178,1.264,3.365,2.724,0.000,0.000,0.000,0.608
2026-05-12 19:20:20.618817,TURNING,35.353,1.000,0.00,-0.00,-138.67,3.751,5.200,1.973,4.868,4.237,0.000,0.000,0.000,0.376
2026-05-12 19:20:20.866054,TURNING,35.353,1.000,0.00,-0.00,-134.89,3.751,5.200,1.973,4.868,4.237,0.000,0.000,0.000,0.310
2026-05-12 19:20:21.168021,TURNING,35.353,1.000,0.00,-0.00,-130.95,3.011,4.487,4.576,4.487,3.051,0.000,0.000,0.000,0.300
2026-05-12 19:20:21.414725,TURNING,35.353,1.000,0.00,-0.00,-126.63,2.757,4.086,4.868,4.014,2.514,0.000,0.000,0.000,0.300
2026-05-12 19:20:21.662349,TURNING,35.353,1.000,0.00,-0.00,-123.19,2.630,3.691,5.867,3.691,2.661,0.000,0.000,0.000,0.300
2026-05-12 19:20:21.960546,RETURNING,35.353,1.000,0.00,-0.00,-118.90,2.487,3.467,4.868,3.467,2.200,0.500,0.083,0.000,-0.157
2026-05-12 19:20:22.156202,RETURNING,35.353,1.000,0.00,-0.00,-117.18,2.487,3.467,4.868,3.467,2.200,0.500,0.083,0.000,-0.157
2026-05-12 19:20:22.384336,RETURNING,35.328,1.000,0.00,-0.00,-117.70,2.434,3.415,4.868,3.415,2.487,0.500,0.055,0.000,-0.164
2026-05-12 19:20:22.511722,RETURNING,35.305,1.000,0.00,-0.00,-118.60,2.409,3.415,4.974,3.415,2.542,0.500,0.050,0.000,-0.171
2026-05-12 19:20:22.801361,RETURNING,35.230,1.000,0.00,-0.00,-121.34,2.409,3.415,4.974,3.415,2.542,0.500,0.050,0.000,-0.171
2026-05-12 19:20:23.118025,RETURNING,35.149,1.000,0.00,-0.00,-124.24,2.409,3.520,5.720,3.520,2.311,0.500,0.074,0.000,-0.192
2026-05-12 19:20:23.354054,RETURNING,35.091,1.000,0.00,-0.00,-126.20,2.409,3.520,5.720,3.520,2.311,0.500,0.074,0.000,-0.192
2026-05-12 19:20:23.598989,RETURNING,34.919,1.000,0.00,-0.00,-132.03,2.514,3.691,4.317,3.691,2.600,0.500,0.057,0.000,-0.133
2026-05-12 19:20:23.856313,RETURNING,34.851,1.000,0.00,-0.00,-133.83,2.542,3.751,4.237,3.751,2.571,0.500,0.061,0.000,-0.126
2026-05-12 19:20:24.146437,RETURNING,34.781,1.000,0.00,-0.00,-135.32,2.542,3.751,4.237,3.751,2.571,0.500,0.061,0.000,-0.126
2026-05-12 19:20:24.240199,RETURNING,34.745,1.000,0.00,-0.00,-136.04,2.542,3.751,4.237,3.751,2.571,0.500,0.061,0.000,-0.126
2026-05-12 19:20:24.479215,RETURNING,34.635,1.000,0.00,-0.00,-138.20,2.542,3.751,4.237,3.751,2.571,0.500,0.061,0.000,-0.126
2026-05-12 19:20:24.733301,RETURNING,34.560,1.000,0.00,-0.00,-139.64,2.571,4.160,3.751,4.160,2.790,0.500,0.059,0.000,-0.098
2026-05-12 19:20:24.972802,RETURNING,34.483,1.000,0.00,-0.00,-140.99,2.600,4.317,3.632,4.317,2.934,0.500,0.055,0.000,-0.087
2026-05-12 19:20:25.202268,RETURNING,34.405,1.000,0.00,-0.00,-142.09,2.600,4.317,3.632,4.317,2.934,0.500,0.055,0.000,-0.087
2026-05-12 19:20:25.426779,RETURNING,34.325,1.000,0.00,-0.00,-143.09,2.600,4.317,3.632,4.317,2.934,0.500,0.055,0.000,-0.087
2026-05-12 19:20:25.578191,RETURNING,34.285,1.000,0.00,-0.00,-143.59,2.600,4.317,3.632,4.317,2.934,0.500,0.055,0.000,-0.087
2026-05-12 19:20:25.819661,RETURNING,34.184,1.000,0.00,-0.00,-144.84,2.630,4.576,3.467,4.576,2.934,0.500,0.061,0.000,-0.073
2026-05-12 19:20:26.100064,RETURNING,34.102,1.000,0.00,-0.00,-145.74,2.630,4.576,3.467,4.576,2.934,0.500,0.061,0.000,-0.073
2026-05-12 19:20:26.250070,RETURNING,34.060,1.000,0.00,-0.00,-146.16,2.630,4.576,3.467,4.576,2.934,0.500,0.061,0.000,-0.073
2026-05-12 19:20:26.502003,RETURNING,33.977,1.000,0.00,-0.00,-147.00,2.630,4.576,3.467,4.576,2.934,0.500,0.061,0.000,-0.073
2026-05-12 19:20:26.656222,RETURNING,33.935,1.000,0.00,-0.00,-147.42,2.692,4.767,3.178,4.767,2.934,0.500,0.066,0.000,-0.045
2026-05-12 19:20:27.003574,RETURNING,33.850,1.000,0.00,-0.00,-148.26,2.724,4.767,3.134,4.767,3.178,0.500,0.052,0.000,-0.038
2026-05-12 19:20:27.212286,RETURNING,33.808,1.000,0.00,-0.00,-148.68,2.724,4.767,3.134,4.767,3.178,0.500,0.052,0.000,-0.038
2026-05-12 19:20:27.348362,RETURNING,33.722,1.000,0.00,-0.00,-149.33,2.724,4.767,3.134,4.767,3.178,0.500,0.052,0.000,-0.038
2026-05-12 19:20:27.543257,RETURNING,33.592,1.000,0.00,-0.00,-149.99,2.724,4.767,3.134,4.767,3.178,0.500,0.052,0.000,-0.038
2026-05-12 19:20:27.833185,RETURNING,33.462,1.000,0.00,-0.00,-150.65,2.757,4.974,2.630,4.868,3.467,0.500,0.042,0.000,0.014
2026-05-12 19:20:28.053023,RETURNING,33.418,1.000,0.00,-0.00,-150.87,2.757,4.974,2.630,4.868,3.467,0.500,0.042,0.000,0.014
2026-05-12 19:20:28.234116,RETURNING,33.375,1.000,0.00,-0.00,-151.09,2.790,4.868,2.409,4.868,3.520,0.500,0.039,0.000,0.045
2026-05-12 19:20:28.498601,RETURNING,33.243,1.000,0.00,-0.00,-151.00,2.724,4.868,2.335,4.767,3.011,0.500,0.061,0.000,0.049
2026-05-12 19:20:28.674873,RETURNING,33.200,1.000,0.00,-0.00,-150.92,2.724,4.868,2.335,4.767,3.011,0.500,0.061,0.000,0.049
2026-05-12 19:20:29.001380,RETURNING,33.069,1.000,0.00,-0.00,-150.45,2.600,4.576,5.200,4.576,2.934,0.500,0.061,0.000,-0.154
2026-05-12 19:20:29.394416,RETURNING,33.004,1.000,0.00,-0.00,-150.04,2.600,4.576,5.200,4.576,2.934,0.500,0.061,0.000,-0.154
2026-05-12 19:20:30.190593,RETURNING,32.788,1.000,0.00,-0.00,-149.75,2.600,4.576,5.200,4.576,2.934,0.500,0.061,0.000,-0.154
2026-05-12 19:20:30.371650,RETURNING,32.723,1.000,0.00,-0.00,-151.07,2.600,4.576,5.200,4.576,2.934,0.500,0.061,0.000,-0.154
2026-05-12 19:20:30.645115,RETURNING,32.590,1.000,0.00,-0.00,-153.71,2.600,4.576,5.200,4.576,2.934,0.500,0.061,0.000,-0.154
2026-05-12 19:20:31.015033,RETURNING,32.455,1.000,0.00,-0.00,-156.36,2.825,7.627,3.878,4.868,3.575,0.500,0.037,0.000,-0.077
2026-05-12 19:20:31.146599,RETURNING,32.362,1.000,0.00,-0.00,-158.12,3.011,7.627,3.467,4.868,4.974,0.500,-0.002,0.000,-0.035
2026-05-12 19:20:31.520511,RETURNING,32.222,1.000,0.00,-0.00,-160.10,3.134,7.151,3.365,4.868,5.085,0.500,-0.004,0.000,-0.017
2026-05-12 19:20:31.842458,RETURNING,32.057,1.000,0.00,-0.00,-161.41,3.223,7.151,3.269,4.868,4.670,0.500,0.004,0.000,-0.003
2026-05-12 19:20:31.999680,RETURNING,31.986,1.000,0.00,-0.00,-161.64,3.223,7.151,3.269,4.868,4.670,0.500,0.004,0.000,-0.003
2026-05-12 19:20:32.324897,RETURNING,31.843,1.000,0.00,-0.00,-161.91,3.178,6.934,3.223,4.868,5.200,0.500,-0.007,0.000,-0.003
2026-05-12 19:20:32.544908,RETURNING,31.772,1.000,0.00,-0.00,-161.94,3.178,6.934,3.223,4.868,5.200,0.500,-0.007,0.000,-0.003
2026-05-12 19:20:32.663015,RETURNING,31.701,1.000,0.00,-0.00,-161.97,3.178,6.934,3.223,4.868,5.200,0.500,-0.007,0.000,-0.003
2026-05-12 19:20:32.999390,RETURNING,31.582,1.000,0.00,-0.00,-161.93,3.011,6.730,3.178,4.868,6.022,0.500,-0.020,0.000,-0.014
2026-05-12 19:20:33.146956,RETURNING,31.487,1.000,0.00,-0.00,-161.97,3.092,6.538,3.223,4.868,4.400,0.500,0.011,0.000,-0.010
2026-05-12 19:20:33.523307,RETURNING,31.344,1.000,0.00,-0.00,-162.07,3.092,6.538,3.223,4.868,4.400,0.500,0.011,0.000,-0.010
2026-05-12 19:20:33.670051,RETURNING,31.273,1.000,0.00,-0.00,-162.19,3.092,6.538,3.223,4.868,4.400,0.500,0.011,0.000,-0.010
2026-05-12 19:20:33.982519,RETURNING,31.106,1.000,0.00,-0.00,-162.42,3.223,6.538,3.134,4.868,4.974,0.500,-0.002,0.000,0.007
2026-05-12 19:20:34.305479,RETURNING,30.963,1.000,0.00,-0.00,-162.60,3.365,6.356,3.223,4.868,4.400,0.500,0.011,0.000,0.010
2026-05-12 19:20:34.659908,RETURNING,30.796,1.000,0.00,-0.00,-162.45,3.520,6.356,3.269,4.868,4.317,0.500,0.013,0.000,0.017
2026-05-12 19:20:35.066516,RETURNING,30.653,1.000,0.00,-0.00,-162.27,3.575,6.538,3.134,4.868,4.767,0.500,0.002,0.000,0.031
2026-05-12 19:20:35.328658,RETURNING,30.510,1.000,0.00,-0.00,-162.06,3.632,6.538,3.178,4.868,4.160,0.500,0.017,0.000,0.031
2026-05-12 19:20:35.610739,RETURNING,30.368,1.000,0.00,-0.00,-161.76,3.632,6.538,3.178,4.868,4.160,0.500,0.017,0.000,0.031
2026-05-12 19:20:35.732265,RETURNING,30.320,1.000,0.00,-0.00,-161.59,3.632,6.538,3.178,4.868,4.160,0.500,0.017,0.000,0.031
2026-05-12 19:20:35.992112,RETURNING,30.178,1.000,0.00,-0.00,-161.05,3.575,6.538,3.134,4.868,5.581,0.500,-0.013,0.000,0.031
2026-05-12 19:20:36.326144,RETURNING,30.084,1.000,0.00,-0.00,-160.69,3.575,6.538,3.134,4.868,5.581,0.500,-0.013,0.000,0.031
2026-05-12 19:20:36.646830,RETURNING,29.942,1.000,0.00,-0.00,-160.15,3.520,7.381,3.178,4.868,5.321,0.500,-0.009,0.000,0.024
2026-05-12 19:20:36.945725,RETURNING,29.801,1.000,0.00,-0.00,-159.60,3.415,6.538,3.178,4.868,5.720,0.500,-0.015,0.000,0.017
2026-05-12 19:20:37.254040,RETURNING,29.661,1.000,0.00,-0.00,-159.17,3.415,7.381,3.134,4.868,6.184,0.500,-0.022,0.000,0.021
2026-05-12 19:20:37.410891,RETURNING,29.614,1.000,0.00,-0.00,-159.03,3.415,6.184,3.092,4.868,4.974,0.500,-0.002,0.000,0.024
2026-05-12 19:20:37.687171,RETURNING,29.474,1.000,0.00,-0.00,-158.72,3.467,6.538,3.134,4.868,5.085,0.500,-0.004,0.000,0.024
2026-05-12 19:20:37.804662,RETURNING,29.428,1.000,0.00,-0.00,-158.60,3.467,6.538,3.134,4.868,5.085,0.500,-0.004,0.000,0.024
2026-05-12 19:20:38.099336,RETURNING,29.288,1.000,0.00,-0.00,-158.21,3.365,7.381,3.178,4.868,5.720,0.500,-0.015,0.000,0.014
2026-05-12 19:20:38.271743,RETURNING,29.242,1.000,0.00,-0.00,-158.07,3.365,7.381,3.178,4.868,5.720,0.500,-0.015,0.000,0.014
2026-05-12 19:20:38.542863,RETURNING,29.080,1.000,0.00,-0.00,-157.62,3.365,6.730,3.178,4.868,5.321,0.500,-0.009,0.000,0.014
2026-05-12 19:20:38.668848,RETURNING,29.034,1.000,0.00,-0.00,-157.54,3.365,6.730,3.178,4.868,5.321,0.500,-0.009,0.000,0.014
2026-05-12 19:20:38.981577,RETURNING,28.918,1.000,0.00,-0.00,-157.34,3.316,6.022,3.178,4.868,4.400,0.500,0.011,0.000,0.010
2026-05-12 19:20:39.115432,RETURNING,28.849,1.000,0.00,-0.00,-157.22,3.316,6.022,3.178,4.868,4.400,0.500,0.011,0.000,0.010
2026-05-12 19:20:39.429533,RETURNING,28.734,1.000,0.00,-0.00,-157.02,3.316,6.022,3.178,4.868,4.400,0.500,0.011,0.000,0.010
2026-05-12 19:20:39.685394,RETURNING,28.642,1.000,0.00,-0.00,-156.89,3.316,6.356,3.092,4.868,4.014,0.500,0.022,0.000,0.017
2026-05-12 19:20:39.992461,RETURNING,28.504,1.000,0.00,-0.00,-156.71,3.365,6.356,3.092,4.868,3.269,0.500,0.050,0.000,0.021
2026-05-12 19:20:40.153100,RETURNING,28.435,1.000,0.00,-0.00,-156.62,3.415,6.538,3.051,4.868,4.237,0.500,0.015,0.000,0.028
2026-05-12 19:20:40.314491,RETURNING,28.366,1.000,0.00,-0.00,-156.47,3.365,6.022,3.134,4.868,3.945,0.500,0.024,0.000,0.017
2026-05-12 19:20:40.580412,RETURNING,28.229,1.000,0.00,-0.00,-156.12,3.365,6.022,3.178,4.868,3.945,0.500,0.024,0.000,0.014
2026-05-12 19:20:40.718326,RETURNING,28.183,1.000,0.00,-0.00,-155.98,3.365,6.022,3.178,4.868,3.945,0.500,0.024,0.000,0.014
2026-05-12 19:20:40.976217,RETURNING,28.024,1.000,0.00,-0.00,-155.56,3.223,5.867,3.316,4.868,3.751,0.500,0.031,0.000,-0.007
2026-05-12 19:20:41.255272,RETURNING,27.933,1.000,0.00,-0.00,-155.40,3.223,6.022,3.365,4.868,3.467,0.500,0.042,0.000,-0.010
2026-05-12 19:20:41.585985,RETURNING,27.819,1.000,0.00,-0.00,-155.37,3.178,5.867,3.365,4.868,3.051,0.500,0.061,0.000,-0.014
2026-05-12 19:20:41.755550,RETURNING,27.751,1.000,0.00,-0.00,-155.43,3.178,6.022,3.365,4.767,3.223,0.500,0.050,0.000,-0.014
2026-05-12 19:20:42.047843,RETURNING,27.660,1.000,0.00,-0.00,-155.56,3.178,6.022,3.269,4.767,2.724,0.500,0.079,0.000,-0.007
2026-05-12 19:20:42.300484,RETURNING,27.523,1.000,0.00,-0.00,-155.79,3.223,5.867,3.269,4.868,3.751,0.500,0.031,0.000,-0.003
2026-05-12 19:20:42.603200,RETURNING,27.409,1.000,0.00,-0.00,-155.99,3.178,6.022,3.223,4.767,2.934,0.500,0.066,0.000,-0.003
2026-05-12 19:20:42.871894,RETURNING,27.272,1.000,0.00,-0.00,-156.13,3.134,5.720,3.269,4.868,2.724,0.500,0.081,0.000,-0.010
2026-05-12 19:20:43.020940,RETURNING,27.226,1.000,0.00,-0.00,-156.15,3.134,5.720,3.316,4.868,2.630,0.500,0.087,0.000,-0.014
2026-05-12 19:20:43.292331,RETURNING,27.089,1.000,0.00,-0.00,-156.22,3.092,6.022,3.365,4.974,2.542,0.500,0.096,0.000,-0.021
2026-05-12 19:20:43.448649,RETURNING,27.043,1.000,0.00,-0.00,-156.28,3.178,5.720,3.415,4.868,2.757,0.500,0.079,0.000,-0.017
2026-05-12 19:20:43.753637,RETURNING,26.906,1.000,0.00,-0.00,-156.50,3.178,5.720,3.415,4.868,2.757,0.500,0.079,0.000,-0.017
2026-05-12 19:20:44.060876,RETURNING,26.768,1.000,0.00,-0.00,-156.85,3.178,5.200,3.467,4.868,3.051,0.500,0.061,0.000,-0.021
2026-05-12 19:20:44.206277,RETURNING,26.722,1.000,0.00,-0.00,-156.95,3.178,5.200,3.467,4.868,3.051,0.500,0.061,0.000,-0.021
2026-05-12 19:20:44.508898,RETURNING,26.584,1.000,0.00,-0.00,-157.25,3.223,5.581,3.467,4.868,2.434,0.500,0.103,0.000,-0.017
2026-05-12 19:20:44.643559,RETURNING,26.538,1.000,0.00,-0.00,-157.35,3.223,5.720,3.467,4.868,4.576,0.500,0.007,0.000,-0.017
2026-05-12 19:20:44.910019,RETURNING,26.406,1.000,0.00,-0.00,-157.71,3.223,4.400,3.415,4.868,4.317,0.500,0.013,0.000,-0.014
2026-05-12 19:20:45.205164,RETURNING,26.319,1.000,0.00,-0.00,-157.98,3.178,4.160,3.467,4.868,4.237,0.500,0.015,0.000,-0.021
2026-05-12 19:20:45.536882,RETURNING,26.180,1.000,0.00,-0.00,-158.25,3.178,5.085,3.575,4.868,4.400,0.500,0.011,0.000,-0.028
2026-05-12 19:20:45.779150,RETURNING,26.110,1.000,0.00,-0.00,-158.37,3.178,5.085,3.575,4.868,4.400,0.500,0.011,0.000,-0.028
2026-05-12 19:20:45.983571,RETURNING,26.017,1.000,0.00,-0.00,-158.58,3.178,4.160,3.575,4.868,4.237,0.500,0.015,0.000,-0.028
2026-05-12 19:20:46.211530,RETURNING,25.877,1.000,0.00,-0.00,-159.01,3.092,4.160,3.520,4.868,4.086,0.500,0.020,0.000,-0.031
2026-05-12 19:20:46.402187,RETURNING,25.830,1.000,0.00,-0.00,-159.17,3.092,4.160,3.520,4.868,4.086,0.500,0.020,0.000,-0.031
2026-05-12 19:20:46.755638,RETURNING,25.667,1.000,0.00,-0.00,-159.72,3.051,4.400,3.467,4.868,4.160,0.500,0.017,0.000,-0.031
2026-05-12 19:20:46.915523,RETURNING,25.596,1.000,0.00,-0.00,-159.99,3.051,4.086,3.467,4.868,4.086,0.500,0.020,0.000,-0.031
2026-05-12 19:20:47.220423,RETURNING,25.455,1.000,0.00,-0.00,-160.51,3.092,4.160,3.415,4.868,4.160,0.500,0.017,0.000,-0.024
2026-05-12 19:20:47.537108,RETURNING,25.313,1.000,0.00,-0.00,-161.05,3.092,4.160,3.415,4.868,4.160,0.500,0.017,0.000,-0.024
2026-05-12 19:20:47.678736,RETURNING,25.242,1.000,0.00,-0.00,-161.28,3.269,4.160,3.269,4.487,2.790,0.500,0.068,0.000,0.000
2026-05-12 19:20:47.958706,RETURNING,25.100,1.000,0.00,-0.00,-161.70,3.223,4.086,3.223,4.317,4.086,0.500,0.007,0.000,0.000
2026-05-12 19:20:48.082491,RETURNING,25.053,1.000,0.00,-0.00,-161.84,3.223,4.086,3.223,4.317,4.086,0.500,0.007,0.000,0.000
2026-05-12 19:20:48.303365,RETURNING,24.910,1.000,0.00,-0.00,-161.98,3.269,3.178,3.223,4.237,4.086,0.500,0.004,0.000,0.003
2026-05-12 19:20:48.655808,RETURNING,24.791,1.000,0.00,-0.00,-161.98,3.178,3.945,3.178,4.160,3.269,0.500,0.033,0.000,0.000
2026-05-12 19:20:48.882783,RETURNING,24.696,1.000,0.00,-0.00,-161.94,3.011,3.575,3.178,3.691,3.467,0.500,0.009,0.000,-0.014
2026-05-12 19:20:49.189736,RETURNING,24.577,1.000,0.00,-0.00,-161.89,3.011,3.467,3.223,3.814,3.365,0.500,0.017,0.000,-0.017
2026-05-12 19:20:49.464946,RETURNING,24.458,1.000,0.00,-0.00,-161.95,3.011,3.520,3.134,3.751,2.896,0.500,0.039,0.000,-0.010
2026-05-12 19:20:49.636749,RETURNING,24.411,1.000,0.00,-0.00,-162.03,3.011,3.520,3.134,3.751,2.896,0.500,0.039,0.000,-0.010
2026-05-12 19:20:49.919185,RETURNING,24.268,1.000,0.00,-0.00,-162.30,3.134,3.575,3.134,3.520,2.661,0.500,0.046,0.000,0.000
2026-05-12 19:20:50.050980,RETURNING,24.221,1.000,0.00,-0.00,-162.40,3.134,3.575,3.134,3.520,2.661,0.500,0.046,0.000,0.000
2026-05-12 19:20:50.428810,RETURNING,24.054,1.000,0.00,-0.00,-162.61,3.178,3.269,3.223,3.269,3.178,0.500,0.004,0.000,-0.003
2026-05-12 19:20:50.552534,RETURNING,23.982,1.000,0.00,-0.00,-162.61,2.896,3.316,3.269,3.269,3.178,0.500,0.004,0.000,-0.031
2026-05-12 19:20:50.845721,RETURNING,23.863,1.000,0.00,-0.00,-162.63,2.972,3.223,3.223,3.223,3.011,0.500,0.011,0.000,-0.021
2026-05-12 19:20:51.125536,RETURNING,23.720,1.000,0.00,-0.00,-162.72,2.972,3.223,3.223,3.223,3.011,0.500,0.011,0.000,-0.021
2026-05-12 19:20:51.450535,RETURNING,23.600,1.000,0.00,-0.00,-163.09,2.600,2.860,3.011,2.825,2.825,0.500,0.000,0.000,-0.042
2026-05-12 19:20:51.624690,RETURNING,23.504,1.000,0.00,-0.00,-163.33,2.600,2.790,3.011,2.790,2.790,0.500,0.000,0.000,-0.042
2026-05-12 19:20:51.882963,RETURNING,23.361,1.000,0.00,-0.00,-163.55,2.600,2.630,2.896,2.600,2.630,0.500,-0.002,0.000,-0.031
2026-05-12 19:20:52.199381,RETURNING,23.241,1.000,0.00,-0.00,-163.90,2.542,2.487,2.860,2.514,2.460,0.500,0.004,0.000,-0.035
2026-05-12 19:20:52.439490,RETURNING,23.120,1.000,0.00,-0.00,-164.46,2.359,2.384,2.825,2.384,2.384,0.500,0.000,0.000,-0.056
2026-05-12 19:20:52.694012,RETURNING,23.000,1.000,0.00,-0.00,-164.88,2.288,2.311,2.724,2.288,2.288,0.500,0.000,0.000,-0.056
2026-05-12 19:20:52.970944,RETURNING,22.903,1.000,0.00,-0.00,-165.35,2.138,2.138,2.661,2.179,2.179,0.500,0.000,0.000,-0.073
2026-05-12 19:20:53.261570,RETURNING,22.782,1.000,0.00,-0.00,-166.15,2.007,2.061,2.571,2.080,2.043,0.500,0.004,0.000,-0.087
2026-05-12 19:20:53.505374,RETURNING,22.685,1.000,0.00,-0.00,-166.85,1.907,2.043,2.487,2.061,2.025,0.500,0.004,0.000,-0.098
2026-05-12 19:20:53.617235,RETURNING,22.636,1.000,0.00,-0.00,-167.23,1.816,1.973,2.434,1.990,2.061,0.500,-0.009,0.000,-0.112
2026-05-12 19:20:53.909308,RETURNING,22.489,1.000,0.00,-0.00,-168.55,1.816,1.973,2.434,1.990,2.061,0.500,-0.009,0.000,-0.112
2026-05-12 19:20:54.102813,RETURNING,22.440,1.000,0.00,-0.00,-169.05,1.816,1.973,2.434,1.990,2.061,0.500,-0.009,0.000,-0.112
2026-05-12 19:20:54.440831,RETURNING,22.268,1.000,0.00,-0.00,-171.16,1.430,3.415,2.099,3.415,2.600,0.500,0.046,0.000,-0.178
2026-05-12 19:20:54.594325,RETURNING,22.194,1.000,0.00,-0.00,-172.12,1.430,3.415,2.099,3.415,2.600,0.500,0.046,0.000,-0.178
2026-05-12 19:20:54.852751,RETURNING,22.020,1.000,0.00,-0.00,-174.83,1.264,2.757,1.845,2.757,2.630,0.500,0.009,0.000,-0.199
2026-05-12 19:20:55.117217,RETURNING,21.920,1.000,0.00,-0.00,-176.79,1.264,2.757,1.845,2.757,2.630,0.500,0.009,0.000,-0.199
2026-05-12 19:20:55.259084,RETURNING,21.870,1.000,0.00,-0.00,-177.86,1.264,2.757,1.845,2.757,2.630,0.500,0.009,0.000,-0.199
2026-05-12 19:20:55.570238,RETURNING,21.746,1.000,0.00,0.00,179.12,3.467,2.222,1.589,2.200,2.200,0.500,0.000,0.000,0.273
2026-05-12 19:20:55.868704,RETURNING,21.596,1.000,0.00,0.00,175.70,3.269,2.061,1.515,2.080,2.061,0.500,0.002,0.000,0.283
2026-05-12 19:20:55.986894,RETURNING,21.546,1.000,0.00,0.00,174.55,3.415,2.099,1.505,2.099,2.119,0.500,-0.002,0.000,0.297
2026-05-12 19:20:56.271848,RETURNING,21.396,1.000,0.00,0.00,178.94,3.467,2.138,1.505,2.179,2.159,0.500,0.002,0.000,0.301
2026-05-12 19:20:56.541147,RETURNING,21.296,1.000,0.00,-0.00,-177.82,3.691,2.384,1.505,2.384,2.359,0.500,0.002,0.000,0.315
2026-05-12 19:20:56.827993,RETURNING,21.147,1.000,0.00,-0.00,-172.69,3.691,2.384,1.505,2.384,2.359,0.500,0.002,0.000,0.315
2026-05-12 19:20:56.968102,RETURNING,21.097,1.000,0.00,-0.00,-170.97,5.581,2.692,1.634,2.692,2.661,0.500,0.002,0.000,0.346
2026-05-12 19:20:57.285083,RETURNING,20.950,1.000,0.00,-0.00,-165.57,6.934,2.934,1.845,2.934,2.487,0.500,0.031,0.000,0.318
2026-05-12 19:20:57.419474,RETURNING,20.902,1.000,0.00,-0.00,-163.76,6.184,3.051,1.939,3.092,2.860,0.500,0.013,0.000,0.283
2026-05-12 19:20:57.720611,RETURNING,20.760,1.000,0.00,-0.00,-157.99,7.381,3.415,2.007,3.365,2.630,0.500,0.042,0.000,0.290
2026-05-12 19:20:57.883604,RETURNING,20.714,1.000,0.00,-0.00,-156.17,6.022,4.014,2.138,4.086,3.223,0.500,0.033,0.000,0.241
2026-05-12 19:20:58.195405,RETURNING,20.580,1.000,0.00,-0.00,-150.94,4.487,5.321,2.359,4.868,4.237,0.500,0.015,0.000,0.161
2026-05-12 19:20:58.583990,RETURNING,20.452,1.000,0.00,-0.00,-146.26,3.751,6.538,2.600,4.868,4.767,0.500,0.002,0.000,0.094
2026-05-12 19:20:58.861242,RETURNING,20.329,1.000,0.00,-0.00,-142.81,3.520,6.934,2.860,4.868,3.691,0.500,0.033,0.000,0.052
2026-05-12 19:20:59.164057,RETURNING,20.231,1.000,0.00,-0.00,-140.81,3.365,7.151,3.011,4.868,3.632,0.500,0.035,0.000,0.028
2026-05-12 19:20:59.443228,RETURNING,20.135,1.000,0.00,-0.00,-139.62,3.316,7.890,3.269,4.868,3.467,0.500,0.042,0.000,0.003
2026-05-12 19:20:59.792372,RETURNING,20.022,1.000,0.00,-0.00,-138.79,3.178,7.627,3.365,4.868,3.316,0.500,0.048,0.000,-0.014
2026-05-12 19:21:00.268948,RETURNING,19.965,1.000,0.00,-0.00,-138.59,3.178,7.627,3.365,4.868,3.316,0.500,0.048,0.000,-0.014
2026-05-12 19:21:01.016902,RETURNING,19.759,1.000,0.00,-0.00,-138.61,3.178,7.627,3.415,4.868,2.896,0.500,0.070,0.000,-0.017
2026-05-12 19:21:01.335320,RETURNING,19.665,1.000,0.00,-0.00,-138.81,3.178,7.627,3.415,4.868,2.896,0.500,0.070,0.000,-0.017
2026-05-12 19:21:01.640900,RETURNING,19.533,1.000,0.00,-0.00,-139.09,3.178,7.627,3.316,4.868,2.896,0.500,0.070,0.000,-0.010
2026-05-12 19:21:02.000628,RETURNING,19.420,1.000,0.00,-0.00,-139.39,3.223,7.381,3.316,4.868,3.011,0.500,0.063,0.000,-0.007
2026-05-12 19:21:02.299432,RETURNING,19.344,1.000,0.00,-0.00,-139.56,3.223,7.381,3.269,4.868,2.860,0.500,0.072,0.000,-0.003
2026-05-12 19:21:02.579753,RETURNING,19.191,1.000,0.00,-0.00,-139.76,3.223,7.627,3.178,4.767,2.972,0.500,0.063,0.000,0.003
2026-05-12 19:21:02.737580,RETURNING,19.134,1.000,0.00,-0.00,-139.82,3.223,7.381,3.223,4.868,2.542,0.500,0.094,0.000,0.000
2026-05-12 19:21:03.033624,RETURNING,19.039,1.000,0.00,-0.00,-139.89,3.269,7.381,3.223,4.868,2.409,0.500,0.105,0.000,0.003
2026-05-12 19:21:03.339092,RETURNING,18.924,1.000,0.00,-0.00,-139.84,3.223,7.381,3.269,4.868,2.972,0.500,0.066,0.000,-0.003
2026-05-12 19:21:03.641528,RETURNING,18.809,1.000,0.00,-0.00,-139.75,3.223,7.381,3.223,4.868,2.514,0.500,0.096,0.000,0.000
2026-05-12 19:21:03.973286,RETURNING,18.695,1.000,0.00,-0.00,-139.77,3.269,7.151,3.269,4.868,2.460,0.500,0.101,0.000,0.000
2026-05-12 19:21:04.149215,RETURNING,18.657,1.000,0.00,-0.00,-139.79,3.269,7.151,3.269,4.868,2.460,0.500,0.101,0.000,0.000
2026-05-12 19:21:04.442296,RETURNING,18.542,1.000,0.00,-0.00,-139.79,3.269,7.151,3.269,4.868,2.460,0.500,0.101,0.000,0.000
2026-05-12 19:21:04.752308,RETURNING,18.427,1.000,0.00,-0.00,-139.79,3.223,6.934,3.269,4.868,2.460,0.500,0.101,0.000,-0.003
2026-05-12 19:21:05.065183,RETURNING,18.313,1.000,0.00,-0.00,-139.79,3.223,6.934,3.316,4.767,2.460,0.500,0.098,0.000,-0.007
2026-05-12 19:21:05.303923,RETURNING,18.237,1.000,0.00,-0.00,-139.80,3.269,6.934,3.269,4.868,2.542,0.500,0.094,0.000,0.000
2026-05-12 19:21:05.636765,RETURNING,18.122,1.000,0.00,-0.00,-139.88,3.316,6.934,3.178,4.868,2.409,0.500,0.105,0.000,0.010
2026-05-12 19:21:05.818049,RETURNING,18.026,1.000,0.00,-0.00,-139.97,3.269,6.934,3.178,4.868,2.487,0.500,0.098,0.000,0.007
2026-05-12 19:21:06.254651,RETURNING,17.911,1.000,0.00,-0.00,-139.90,3.269,6.730,3.092,4.767,2.692,0.500,0.081,0.000,0.014
2026-05-12 19:21:06.415412,RETURNING,17.835,1.000,0.00,-0.00,-139.79,3.269,6.730,3.051,4.868,2.934,0.500,0.068,0.000,0.017
2026-05-12 19:21:06.622119,RETURNING,17.778,1.000,0.00,-0.00,-139.73,3.223,6.538,2.972,4.868,2.790,0.500,0.076,0.000,0.021
2026-05-12 19:21:06.813045,RETURNING,17.702,1.000,0.00,-0.00,-139.60,3.223,6.538,2.972,4.868,2.460,0.500,0.101,0.000,0.021
2026-05-12 19:21:07.197932,RETURNING,17.569,1.000,0.00,-0.00,-139.27,3.365,6.356,3.134,4.974,2.571,0.500,0.094,0.000,0.017
2026-05-12 19:21:07.529114,RETURNING,17.474,1.000,0.00,-0.00,-138.97,3.316,6.184,3.365,4.868,2.487,0.500,0.098,0.000,-0.003
2026-05-12 19:21:07.793946,RETURNING,17.361,1.000,0.00,-0.00,-138.61,3.178,6.022,3.520,4.868,2.514,0.500,0.096,0.000,-0.024
2026-05-12 19:21:08.143488,RETURNING,17.249,1.000,0.00,-0.00,-138.53,3.178,6.022,3.467,4.868,2.542,0.500,0.094,0.000,-0.021
2026-05-12 19:21:08.456178,RETURNING,17.136,1.000,0.00,-0.00,-138.81,3.178,6.022,3.520,4.868,2.514,0.500,0.096,0.000,-0.024
2026-05-12 19:21:08.622275,RETURNING,17.061,1.000,0.00,-0.00,-139.04,3.223,5.867,3.467,4.974,2.514,0.500,0.098,0.000,-0.017
2026-05-12 19:21:08.951902,RETURNING,16.947,1.000,0.00,-0.00,-139.42,3.178,5.867,3.632,4.974,2.571,0.500,0.094,0.000,-0.031
2026-05-12 19:21:09.200505,RETURNING,16.871,1.000,0.00,-0.00,-139.69,3.092,5.867,3.632,4.868,2.692,0.500,0.083,0.000,-0.038
2026-05-12 19:21:09.517742,RETURNING,16.756,1.000,0.00,-0.00,-140.09,3.134,5.867,3.632,4.868,2.661,0.500,0.085,0.000,-0.035
2026-05-12 19:21:09.915721,RETURNING,16.622,1.000,0.00,-0.00,-140.74,3.178,5.867,3.467,4.767,3.316,0.500,0.046,0.000,-0.021
2026-05-12 19:21:10.133510,RETURNING,16.544,1.000,0.00,-0.00,-141.17,3.134,6.022,3.575,4.487,2.335,0.500,0.103,0.000,-0.031
