timestamp,state,x,z,roll_deg,pitch_deg,yaw_deg,left,center,right,top,bottom,cmd_vx,cmd_vz,cmd_roll,cmd_yaw
2026-05-12 19:09:22.697838,SEARCHING,0.000,1.000,0.00,0.00,0.00,10.000,10.000,10.000,10.000,10.000,0.700,0.000,0.000,0.000
2026-05-12 19:09:22.900901,SEARCHING,0.119,1.000,0.00,0.00,0.00,10.000,10.000,10.000,10.000,10.000,0.700,0.000,0.000,0.000
2026-05-12 19:09:23.115407,SEARCHING,0.259,1.000,0.00,0.00,0.00,10.000,10.000,10.000,10.000,10.000,0.700,0.000,0.000,0.000
2026-05-12 19:09:23.344671,SEARCHING,0.399,1.000,0.00,0.00,0.62,5.448,4.974,2.790,4.868,4.160,0.700,0.021,0.079,0.157
2026-05-12 19:09:23.528875,SEARCHING,0.539,1.000,0.00,0.00,2.36,4.767,5.085,2.825,4.974,4.317,0.700,0.018,0.065,0.130
2026-05-12 19:09:23.749664,SEARCHING,0.679,1.000,0.00,0.00,3.74,4.014,5.200,2.934,4.868,4.237,0.700,0.018,0.041,0.083
2026-05-12 19:09:23.952213,SEARCHING,0.818,1.000,0.00,0.00,4.69,3.814,5.321,2.934,4.868,4.317,0.700,0.016,0.035,0.071
2026-05-12 19:09:24.158355,SEARCHING,0.958,1.000,0.00,0.00,5.50,3.691,5.581,2.972,4.868,4.317,0.700,0.016,0.029,0.059
2026-05-12 19:09:24.361893,SEARCHING,1.097,1.000,0.00,0.00,6.19,3.632,5.581,3.011,4.767,4.317,0.700,0.013,0.026,0.051
2026-05-12 19:09:24.564495,SEARCHING,1.236,1.000,0.00,0.00,6.79,3.575,5.867,3.011,4.868,4.317,0.700,0.016,0.024,0.047
2026-05-12 19:09:24.768337,SEARCHING,1.375,1.000,0.00,0.00,7.32,3.467,5.720,3.051,4.868,4.317,0.700,0.016,0.018,0.035
2026-05-12 19:09:24.989405,SEARCHING,1.514,1.000,0.00,0.00,7.74,3.415,5.720,3.092,4.868,4.160,0.700,0.021,0.014,0.028
2026-05-12 19:09:25.187034,SEARCHING,1.653,1.000,0.00,0.00,8.08,3.415,5.720,3.051,4.767,4.086,0.700,0.021,0.016,0.031
2026-05-12 19:09:25.403371,SEARCHING,1.791,1.000,0.00,0.00,8.49,3.632,5.720,3.092,4.868,4.237,0.700,0.018,0.022,0.043
2026-05-12 19:09:25.636694,SEARCHING,1.930,1.000,0.00,0.00,8.97,3.751,5.720,3.178,4.868,5.720,0.700,-0.018,0.022,0.043
2026-05-12 19:09:25.842823,SEARCHING,2.068,1.000,0.00,0.00,9.46,3.814,5.720,3.134,4.868,5.581,0.700,-0.016,0.026,0.051
2026-05-12 19:09:26.045862,SEARCHING,2.206,1.000,0.00,0.00,10.00,3.751,5.720,3.178,4.868,5.581,0.700,-0.016,0.022,0.043
2026-05-12 19:09:26.252355,SEARCHING,2.344,1.000,0.00,0.00,10.51,3.691,5.720,3.092,4.868,4.400,0.700,0.013,0.024,0.047
2026-05-12 19:09:26.449317,SEARCHING,2.481,1.000,0.00,0.00,11.07,3.632,5.720,3.051,4.767,5.321,0.700,-0.013,0.024,0.047
2026-05-12 19:09:26.660085,SEARCHING,2.618,1.000,0.00,0.00,11.60,3.575,5.720,3.051,4.868,5.321,0.700,-0.010,0.022,0.043
2026-05-12 19:09:26.862587,SEARCHING,2.755,1.000,0.00,0.00,12.06,3.520,4.868,3.092,4.767,4.974,0.700,-0.005,0.018,0.035
2026-05-12 19:09:27.060645,SEARCHING,2.892,1.000,0.00,0.00,12.47,3.520,5.720,3.092,4.868,5.720,0.700,-0.018,0.018,0.035
2026-05-12 19:09:27.270754,SEARCHING,3.029,1.000,0.00,0.00,12.86,3.415,5.720,3.092,4.868,5.867,0.700,-0.021,0.014,0.028
2026-05-12 19:09:27.472617,SEARCHING,3.165,1.000,0.00,0.00,13.17,3.415,7.381,3.051,4.868,7.381,0.700,-0.042,0.016,0.031
2026-05-12 19:09:27.673510,SEARCHING,3.301,1.000,0.00,0.00,13.50,3.316,7.381,3.092,4.974,7.381,0.700,-0.039,0.010,0.020
2026-05-12 19:09:27.881986,SEARCHING,3.438,1.000,0.00,0.00,13.74,3.316,7.890,3.051,4.868,7.381,0.700,-0.042,0.012,0.024
2026-05-12 19:09:28.100510,SEARCHING,3.573,1.000,0.00,0.00,13.97,3.223,7.151,3.092,4.868,7.381,0.700,-0.042,0.006,0.012
2026-05-12 19:09:28.306429,SEARCHING,3.709,1.000,0.00,0.00,14.09,3.134,6.934,3.134,4.868,3.575,0.700,0.045,0.000,0.000
2026-05-12 19:09:28.510165,SEARCHING,3.845,1.000,0.00,0.00,14.11,3.134,7.151,3.223,4.868,4.086,0.700,0.024,-0.004,-0.008
2026-05-12 19:09:28.724470,SEARCHING,3.981,1.000,0.00,0.00,14.00,3.092,7.381,3.316,4.868,6.730,0.700,-0.034,-0.010,-0.020
2026-05-12 19:09:28.916579,SEARCHING,4.117,1.000,0.00,0.00,13.77,3.134,6.934,3.365,4.868,6.934,0.700,-0.037,-0.010,-0.020
2026-05-12 19:09:29.121580,SEARCHING,4.253,1.000,0.00,0.00,13.54,3.134,6.934,3.365,4.767,7.151,0.700,-0.042,-0.010,-0.020
2026-05-12 19:09:29.352721,SEARCHING,4.389,1.000,0.00,0.00,13.33,3.178,6.934,3.316,4.868,6.934,0.700,-0.037,-0.006,-0.012
2026-05-12 19:09:29.552234,SEARCHING,4.525,1.000,0.00,0.00,13.19,3.223,6.934,3.316,4.868,6.934,0.700,-0.037,-0.004,-0.008
2026-05-12 19:09:29.757908,SEARCHING,4.662,1.000,0.00,0.00,13.06,3.178,6.730,3.269,4.868,6.730,0.700,-0.034,-0.004,-0.008
2026-05-12 19:09:29.969604,SEARCHING,4.798,1.000,0.00,0.00,12.95,3.223,6.934,3.269,4.868,6.934,0.700,-0.037,-0.002,-0.004
2026-05-12 19:09:30.178007,SEARCHING,4.934,1.000,0.00,0.00,12.92,3.316,6.538,3.223,4.974,6.538,0.700,-0.029,0.004,0.008
2026-05-12 19:09:30.380582,SEARCHING,5.071,1.000,0.00,0.00,13.03,3.365,6.356,3.134,4.767,5.867,0.700,-0.024,0.010,0.020
2026-05-12 19:09:30.591401,SEARCHING,5.207,1.000,0.00,0.00,13.24,3.365,6.538,3.178,4.767,5.720,0.700,-0.021,0.008,0.016
2026-05-12 19:09:30.800153,SEARCHING,5.343,1.000,0.00,0.00,13.43,3.365,6.184,3.178,4.868,6.356,0.700,-0.029,0.008,0.016
2026-05-12 19:09:31.013413,SEARCHING,5.480,1.000,0.00,0.00,13.61,3.365,6.184,3.134,4.868,5.867,0.700,-0.021,0.010,0.020
2026-05-12 19:09:31.232672,SEARCHING,5.616,1.000,0.00,0.00,13.81,3.316,6.184,3.178,4.868,5.720,0.700,-0.018,0.006,0.012
2026-05-12 19:09:31.426643,SEARCHING,5.751,1.000,0.00,0.00,13.96,3.365,5.720,3.223,4.868,5.448,0.700,-0.013,0.006,0.012
2026-05-12 19:09:31.631428,SEARCHING,5.887,1.000,0.00,0.00,14.08,3.365,5.867,3.178,4.868,5.581,0.700,-0.016,0.008,0.016
2026-05-12 19:09:31.840846,SEARCHING,6.023,1.000,0.00,0.00,14.23,3.269,5.720,3.223,4.974,5.321,0.700,-0.008,0.002,0.004
2026-05-12 19:09:32.063436,SEARCHING,6.159,1.000,0.00,0.00,14.32,3.269,5.321,3.178,4.974,5.448,0.700,-0.010,0.004,0.008
2026-05-12 19:09:32.251429,SEARCHING,6.294,1.000,0.00,0.00,14.41,3.365,5.448,3.178,4.868,5.085,0.700,-0.005,0.008,0.016
2026-05-12 19:09:32.485593,SEARCHING,6.430,1.000,0.00,0.00,14.56,3.269,5.200,3.269,4.767,4.767,0.700,0.000,0.000,0.000
2026-05-12 19:09:32.680362,SEARCHING,6.565,1.000,0.00,0.00,14.54,3.269,5.085,3.269,4.767,4.974,0.700,-0.005,0.000,0.000
2026-05-12 19:09:32.909483,SEARCHING,6.701,1.000,0.00,0.00,14.39,3.092,4.974,3.691,4.670,4.868,0.700,-0.005,-0.024,-0.047
2026-05-12 19:09:33.111677,SEARCHING,6.837,1.000,0.00,0.00,13.83,2.934,4.974,3.691,4.576,4.670,0.700,-0.003,-0.031,-0.063
2026-05-12 19:09:33.314959,SEARCHING,6.973,1.000,0.00,0.00,13.21,2.896,4.974,3.632,4.487,4.767,0.700,-0.008,-0.031,-0.063
2026-05-12 19:09:33.527619,SEARCHING,7.109,1.000,0.00,0.00,12.58,2.934,4.974,3.365,4.317,4.868,0.700,-0.016,-0.020,-0.039
2026-05-12 19:09:33.739743,SEARCHING,7.246,1.000,0.00,0.00,12.07,2.972,4.974,3.632,4.237,4.767,0.700,-0.016,-0.028,-0.055
2026-05-12 19:09:33.954711,SEARCHING,7.383,1.000,0.00,0.00,11.30,2.972,4.868,5.720,4.086,4.767,0.700,-0.021,-0.073,-0.146
2026-05-12 19:09:34.158660,SEARCHING,7.521,1.000,0.00,0.00,9.72,3.011,4.974,6.022,3.945,4.767,0.700,-0.026,-0.075,-0.149
2026-05-12 19:09:34.359895,SEARCHING,7.659,1.000,0.00,0.00,8.09,3.134,4.974,3.365,3.814,4.868,0.700,-0.034,-0.010,-0.020
2026-05-12 19:09:34.575521,SEARCHING,7.798,1.000,0.00,0.00,7.25,3.178,5.085,5.085,3.632,4.868,0.700,-0.042,-0.053,-0.106
2026-05-12 19:09:34.784781,SEARCHING,7.937,1.000,0.00,0.00,5.99,3.269,5.085,5.085,3.575,5.085,0.700,-0.050,-0.049,-0.098
2026-05-12 19:09:34.996346,SEARCHING,8.076,1.000,0.00,0.00,5.36,3.223,5.200,2.860,3.415,4.868,0.700,-0.052,0.018,0.035
2026-05-12 19:09:35.200113,SEARCHING,8.215,1.000,0.00,0.00,5.35,3.134,5.085,4.160,3.269,4.868,0.700,-0.060,-0.035,-0.071
2026-05-12 19:09:35.406415,SEARCHING,8.355,1.000,0.00,0.00,4.53,3.092,5.085,4.160,3.092,4.974,0.700,-0.073,-0.037,-0.075
2026-05-12 19:09:35.610095,SEARCHING,8.495,1.000,0.00,0.00,3.70,3.092,5.085,4.014,2.934,5.085,0.700,-0.087,-0.033,-0.067
2026-05-12 19:09:35.819878,SEARCHING,8.634,1.000,0.00,0.00,2.94,3.092,5.200,4.086,2.860,4.868,0.700,-0.087,-0.035,-0.071
2026-05-12 19:09:36.032187,SEARCHING,8.774,1.000,0.00,0.00,2.16,3.134,5.321,4.086,2.724,4.974,0.700,-0.100,-0.033,-0.067
2026-05-12 19:09:36.246392,SEARCHING,8.914,1.000,0.00,0.00,1.42,3.134,5.321,3.945,2.571,4.974,0.700,-0.113,-0.029,-0.059
2026-05-12 19:09:36.462510,SEARCHING,9.054,1.000,0.00,0.00,0.73,3.223,5.321,4.086,2.359,4.974,0.700,-0.134,-0.029,-0.059
2026-05-12 19:09:36.674523,SEARCHING,9.194,1.000,0.00,0.00,0.06,3.223,5.581,3.878,2.243,4.974,0.700,-0.147,-0.024,-0.047
2026-05-12 19:09:36.880115,SEARCHING,9.334,1.000,0.00,0.00,-0.50,3.269,5.720,3.878,2.061,5.200,0.700,-0.176,-0.022,-0.043
2026-05-12 19:09:37.081061,SEARCHING,9.474,1.000,0.00,0.00,-1.01,3.269,5.867,3.878,2.025,5.448,0.700,-0.186,-0.022,-0.043
2026-05-12 19:09:37.288921,SEARCHING,9.614,1.000,0.00,0.00,-1.52,3.178,5.720,3.814,1.939,4.974,0.700,-0.189,-0.024,-0.047
2026-05-12 19:09:37.499489,SEARCHING,9.754,1.000,0.00,0.00,-2.06,3.092,5.867,3.751,1.760,5.448,0.700,-0.231,-0.026,-0.051
2026-05-12 19:09:37.716961,SEARCHING,9.894,1.000,0.00,0.00,-2.63,3.051,6.022,3.632,1.611,5.448,0.700,-0.262,-0.024,-0.047
2026-05-12 19:09:37.919814,SEARCHING,10.034,1.000,0.00,0.00,-3.15,3.092,5.867,3.632,1.421,5.448,0.700,-0.312,-0.022,-0.043
2026-05-12 19:09:38.126603,SEARCHING,10.173,1.000,0.00,0.00,-3.66,3.051,5.867,3.632,1.395,5.581,0.700,-0.323,-0.024,-0.047
2026-05-12 19:09:38.335086,SEARCHING,10.313,1.000,0.00,0.00,-4.21,3.051,5.867,3.467,4.868,5.581,0.700,-0.016,-0.018,-0.035
2026-05-12 19:09:38.536574,SEARCHING,10.453,1.000,0.00,0.00,-4.63,3.051,5.867,3.467,4.868,5.581,0.700,-0.016,-0.018,-0.035
2026-05-12 19:09:38.758472,SEARCHING,10.592,1.000,0.00,0.00,-5.04,3.092,6.022,3.520,4.868,5.448,0.700,-0.013,-0.018,-0.035
2026-05-12 19:09:38.960518,SEARCHING,10.732,1.000,0.00,0.00,-5.43,3.051,6.022,3.415,4.868,5.448,0.700,-0.013,-0.016,-0.031
2026-05-12 19:09:39.175172,SEARCHING,10.871,1.000,0.00,0.00,-5.82,3.011,6.184,3.415,4.868,5.581,0.700,-0.016,-0.018,-0.035
2026-05-12 19:09:39.361515,SEARCHING,11.010,1.000,0.00,0.00,-6.22,3.051,6.184,3.415,4.767,5.321,0.700,-0.013,-0.016,-0.031
2026-05-12 19:09:39.573330,SEARCHING,11.149,1.000,0.00,0.00,-6.54,3.092,6.184,3.365,4.868,4.576,0.700,0.008,-0.012,-0.024
2026-05-12 19:09:39.794775,SEARCHING,11.288,1.000,0.00,0.00,-6.80,3.178,6.538,3.365,4.868,5.448,0.700,-0.013,-0.008,-0.016
2026-05-12 19:09:39.990309,SEARCHING,11.427,1.000,0.00,0.00,-6.99,3.178,6.356,3.316,4.868,5.321,0.700,-0.010,-0.006,-0.012
2026-05-12 19:09:40.201282,SEARCHING,11.566,1.000,0.00,0.00,-7.11,3.223,6.538,3.316,4.868,5.448,0.700,-0.013,-0.004,-0.008
2026-05-12 19:09:40.417284,SEARCHING,11.705,1.000,0.00,0.00,-7.23,3.178,6.538,3.316,4.868,5.720,0.700,-0.018,-0.006,-0.012
2026-05-12 19:09:40.628216,SEARCHING,11.844,1.000,0.00,0.00,-7.38,3.178,6.538,3.365,4.868,4.868,0.700,0.000,-0.008,-0.016
2026-05-12 19:09:40.837966,SEARCHING,11.983,1.000,0.00,0.00,-7.55,3.178,5.867,3.415,4.974,4.767,0.700,0.005,-0.010,-0.020
2026-05-12 19:09:41.045411,SEARCHING,12.122,1.000,0.00,0.00,-7.80,3.178,5.867,3.520,4.868,5.448,0.700,-0.013,-0.014,-0.028
2026-05-12 19:09:41.264840,SEARCHING,12.260,1.000,0.00,0.00,-8.10,3.178,6.356,3.632,4.868,6.022,0.700,-0.024,-0.018,-0.035
2026-05-12 19:09:41.463135,SEARCHING,12.399,1.000,0.00,0.00,-8.52,3.134,6.356,3.691,4.868,4.576,0.700,0.008,-0.022,-0.043
2026-05-12 19:09:41.680681,SEARCHING,12.537,1.000,0.00,0.00,-9.01,3.134,5.581,3.691,4.868,4.670,0.700,0.005,-0.022,-0.043
2026-05-12 19:09:41.949003,SEARCHING,12.675,1.000,0.00,0.00,-9.51,3.051,6.356,3.632,4.767,5.867,0.700,-0.024,-0.024,-0.047
2026-05-12 19:09:42.718202,SEARCHING,12.813,1.000,0.00,0.00,-10.04,3.011,6.184,3.575,4.868,5.581,0.700,-0.016,-0.024,-0.047
2026-05-12 19:09:42.932064,SEARCHING,12.951,1.000,0.00,0.00,-10.56,3.134,6.022,3.520,4.868,5.720,0.700,-0.018,-0.016,-0.031
2026-05-12 19:09:43.145849,SEARCHING,13.089,1.000,0.00,0.00,-10.92,3.134,6.184,3.467,4.868,5.720,0.700,-0.018,-0.014,-0.028
2026-05-12 19:09:43.354259,SEARCHING,13.226,1.000,0.00,0.00,-11.25,3.092,6.022,3.415,4.868,5.448,0.700,-0.013,-0.014,-0.028
2026-05-12 19:09:43.552207,SEARCHING,13.363,1.000,0.00,0.00,-11.57,3.092,6.022,3.415,4.868,5.581,0.700,-0.016,-0.014,-0.028
2026-05-12 19:09:43.784738,SEARCHING,13.500,1.000,0.00,0.00,-11.87,3.092,6.022,3.316,4.868,5.448,0.700,-0.013,-0.010,-0.020
2026-05-12 19:09:43.991017,SEARCHING,13.637,1.000,0.00,0.00,-12.10,3.134,6.184,3.365,4.868,5.720,0.700,-0.018,-0.010,-0.020
2026-05-12 19:09:44.211073,SEARCHING,13.774,1.000,0.00,0.00,-12.33,3.092,6.184,3.365,4.868,4.576,0.700,0.008,-0.012,-0.024
2026-05-12 19:09:44.419823,SEARCHING,13.911,1.000,0.00,0.00,-12.56,3.134,6.022,3.316,4.868,4.767,0.700,0.003,-0.008,-0.016
2026-05-12 19:09:44.610554,SEARCHING,14.047,1.000,0.00,0.00,-12.73,3.178,6.184,3.316,4.868,5.321,0.700,-0.010,-0.006,-0.012
2026-05-12 19:09:44.819417,SEARCHING,14.184,1.000,0.00,0.00,-12.85,3.178,6.022,3.316,4.868,5.085,0.700,-0.005,-0.006,-0.012
2026-05-12 19:09:45.035183,SEARCHING,14.320,1.000,0.00,0.00,-12.96,3.178,6.022,3.316,4.767,5.085,0.700,-0.008,-0.006,-0.012
2026-05-12 19:09:45.239129,SEARCHING,14.457,1.000,0.00,0.00,-13.06,3.178,6.022,3.316,4.868,5.321,0.700,-0.010,-0.006,-0.012
2026-05-12 19:09:45.455642,SEARCHING,14.593,1.000,0.00,0.00,-13.18,3.223,6.022,3.316,4.767,5.200,0.700,-0.010,-0.004,-0.008
2026-05-12 19:09:45.652770,SEARCHING,14.730,1.000,0.00,0.00,-13.27,3.223,6.022,3.316,4.868,4.974,0.700,-0.003,-0.004,-0.008
2026-05-12 19:09:45.858309,SEARCHING,14.866,1.000,0.00,0.00,-13.40,3.178,6.022,3.316,4.868,5.085,0.700,-0.005,-0.006,-0.012
2026-05-12 19:09:46.054735,SEARCHING,15.002,1.000,0.00,0.00,-13.58,3.178,6.184,3.632,4.868,5.085,0.700,-0.005,-0.018,-0.035
2026-05-12 19:09:46.274119,SEARCHING,15.138,1.000,0.00,0.00,-13.97,3.178,6.022,3.691,4.868,4.576,0.700,0.008,-0.020,-0.039
2026-05-12 19:09:46.485388,SEARCHING,15.274,1.000,0.00,0.00,-14.38,3.092,6.184,3.751,4.868,5.085,0.700,-0.005,-0.026,-0.051
2026-05-12 19:09:46.701022,SEARCHING,15.409,1.000,0.00,0.00,-14.90,3.134,6.184,3.878,4.868,5.581,0.700,-0.016,-0.028,-0.055
2026-05-12 19:09:46.932596,SEARCHING,15.544,1.000,0.00,0.00,-15.51,3.092,6.022,3.878,4.868,4.576,0.700,0.008,-0.029,-0.059
2026-05-12 19:09:47.125038,SEARCHING,15.679,1.000,0.00,0.00,-16.16,3.051,5.867,3.751,4.868,4.974,0.700,-0.003,-0.028,-0.055
2026-05-12 19:09:47.344837,SEARCHING,15.813,1.000,0.00,0.00,-16.79,3.011,5.867,3.691,4.868,4.487,0.700,0.010,-0.028,-0.055
2026-05-12 19:09:47.552759,SEARCHING,15.947,1.000,0.00,0.00,-17.42,3.011,5.581,3.575,4.767,4.487,0.700,0.008,-0.024,-0.047
2026-05-12 19:09:47.764355,SEARCHING,16.080,1.000,0.00,0.00,-17.96,3.051,5.321,3.520,4.767,4.086,0.700,0.021,-0.020,-0.039
2026-05-12 19:09:47.984454,SEARCHING,16.213,1.000,0.00,0.00,-18.41,3.011,5.321,3.467,4.868,4.317,0.700,0.016,-0.020,-0.039
2026-05-12 19:09:48.229410,SEARCHING,16.346,1.000,0.00,0.00,-18.82,3.051,5.200,3.415,4.868,4.086,0.700,0.024,-0.016,-0.031
2026-05-12 19:09:48.417491,SEARCHING,16.479,1.000,0.00,0.00,-19.18,3.051,5.200,3.415,4.868,4.086,0.700,0.024,-0.016,-0.031
2026-05-12 19:09:48.629728,SEARCHING,16.611,1.000,0.00,0.00,-19.54,3.011,4.767,3.269,4.868,4.317,0.700,0.016,-0.012,-0.024
2026-05-12 19:09:48.832572,SEARCHING,16.742,1.000,0.00,0.00,-19.82,3.051,4.767,3.316,4.868,4.400,0.700,0.013,-0.012,-0.024
2026-05-12 19:09:49.062123,SEARCHING,16.874,1.000,0.00,0.00,-20.05,3.178,4.487,3.223,4.868,4.237,0.700,0.018,-0.002,-0.004
2026-05-12 19:09:49.272998,SEARCHING,17.006,1.000,0.00,0.00,-20.10,3.178,4.487,3.223,4.868,4.237,0.700,0.018,-0.002,-0.004
2026-05-12 19:09:49.481557,SEARCHING,17.137,1.000,0.00,0.00,-20.12,3.269,4.400,3.223,4.868,4.160,0.700,0.021,0.002,0.004
2026-05-12 19:09:49.689622,SEARCHING,17.268,1.000,0.00,0.00,-20.07,3.316,4.237,3.178,4.868,3.751,0.700,0.037,0.006,0.012
2026-05-12 19:09:49.905823,SEARCHING,17.400,1.000,0.00,0.00,-19.95,3.269,4.014,3.178,4.868,3.632,0.700,0.042,0.004,0.008
2026-05-12 19:09:50.097081,SEARCHING,17.532,1.000,0.00,0.00,-19.85,3.223,3.878,3.223,4.868,3.751,0.700,0.037,0.000,0.000
2026-05-12 19:09:50.318082,SEARCHING,17.663,1.000,0.00,0.00,-19.86,3.223,3.814,3.269,4.868,3.365,0.700,0.055,-0.002,-0.004
2026-05-12 19:09:50.526954,SEARCHING,17.795,1.000,0.00,0.00,-19.89,3.223,3.632,3.316,4.868,3.316,0.700,0.058,-0.004,-0.008
2026-05-12 19:09:50.742284,SEARCHING,17.927,1.000,0.00,0.00,-19.96,3.223,3.467,3.365,4.868,3.269,0.700,0.060,-0.006,-0.012
2026-05-12 19:09:50.957578,SEARCHING,18.058,1.000,0.00,0.00,-20.09,3.223,3.365,3.365,4.868,3.178,0.700,0.066,-0.006,-0.012
2026-05-12 19:09:51.179944,SEARCHING,18.190,1.000,0.00,0.00,-20.29,3.134,3.223,3.467,4.868,3.178,0.700,0.066,-0.014,-0.028
2026-05-12 19:09:51.397975,SEARCHING,18.321,1.000,0.00,0.00,-20.62,3.051,3.011,3.520,4.868,2.972,0.700,0.079,-0.020,-0.039
2026-05-12 19:09:51.610242,SEARCHING,18.452,1.000,0.00,0.00,-21.06,2.896,2.825,3.520,4.868,2.896,0.700,0.084,-0.028,-0.055
2026-05-12 19:09:51.819350,SEARCHING,18.582,1.000,0.00,0.00,-21.66,2.724,2.757,3.467,2.790,2.757,0.700,0.003,-0.035,-0.071
2026-05-12 19:09:52.031850,SEARCHING,18.712,1.000,0.00,0.00,-22.46,2.661,2.724,3.415,2.692,2.692,0.700,0.000,-0.037,-0.075
2026-05-12 19:09:52.230385,SEARCHING,18.841,1.000,0.00,0.00,-23.37,2.487,2.600,3.316,4.868,2.571,0.700,0.110,-0.045,-0.090
2026-05-12 19:09:52.445635,SEARCHING,18.969,1.000,0.00,0.00,-24.44,2.335,2.460,3.178,2.460,2.542,0.700,-0.008,-0.051,-0.102
2026-05-12 19:09:52.662547,SEARCHING,19.096,1.000,0.00,0.00,-25.63,2.200,2.311,3.011,4.868,2.384,0.700,0.128,-0.055,-0.110
2026-05-12 19:09:52.865301,SEARCHING,19.221,1.000,0.00,0.00,-26.95,2.043,6.730,2.896,4.868,2.288,0.700,0.139,-0.065,-0.130
2026-05-12 19:09:53.070917,SEARCHING,19.346,1.000,0.00,0.00,-28.43,1.845,6.934,2.724,4.868,4.317,0.700,0.016,-0.079,-0.157
2026-05-12 19:09:53.275349,SEARCHING,19.468,1.000,0.00,0.00,-30.22,1.682,7.890,2.571,4.868,4.237,0.700,0.018,-0.092,-0.185
2026-05-12 19:09:53.477015,SEARCHING,19.588,1.000,0.00,0.00,-32.35,1.623,7.151,2.514,4.868,4.487,0.700,0.010,-0.098,-0.197
2026-05-12 19:09:53.689971,SEARCHING,19.704,1.000,0.00,0.00,-34.60,1.623,7.151,2.514,4.868,4.487,0.700,0.010,-0.098,-0.197
2026-05-12 19:09:53.902505,SEARCHING,19.818,1.000,0.00,0.00,-36.78,1.515,6.934,2.159,4.868,4.160,0.700,0.021,-0.088,-0.177
2026-05-12 19:09:54.109011,SEARCHING,19.929,1.000,0.00,0.00,-37.13,4.576,5.448,1.956,4.576,3.691,0.700,0.031,0.132,0.264
2026-05-12 19:09:54.307821,SEARCHING,20.043,1.000,0.00,0.00,-34.15,4.400,6.184,2.025,4.868,4.317,0.700,0.016,0.120,0.240
2026-05-12 19:09:54.530922,SEARCHING,20.160,1.000,0.00,0.00,-31.46,4.086,7.381,2.099,4.868,5.085,0.700,-0.005,0.104,0.208
2026-05-12 19:09:54.755103,SEARCHING,20.281,1.000,0.00,0.00,-29.24,3.814,8.172,2.434,4.868,7.151,0.700,-0.039,0.067,0.134
2026-05-12 19:09:54.970713,SEARCHING,20.404,1.000,0.00,0.00,-27.67,3.575,6.934,2.692,4.868,4.317,0.700,0.016,0.041,0.083
2026-05-12 19:09:55.192609,SEARCHING,20.529,1.000,0.00,0.00,-26.63,3.520,6.730,2.825,4.868,5.448,0.700,-0.013,0.031,0.063
2026-05-12 19:09:55.397135,SEARCHING,20.654,1.000,0.00,0.00,-25.94,3.467,6.356,3.011,4.767,5.720,0.700,-0.021,0.020,0.039
2026-05-12 19:09:55.600365,SEARCHING,20.780,1.000,0.00,0.00,-25.49,3.467,6.356,3.011,4.767,5.720,0.700,-0.021,0.020,0.039
2026-05-12 19:09:55.820692,SEARCHING,20.907,1.000,0.00,0.00,-25.40,3.134,6.022,3.814,4.974,4.576,0.700,0.010,-0.026,-0.051
2026-05-12 19:09:56.034374,SEARCHING,21.033,1.000,0.00,0.00,-25.97,3.134,6.022,3.814,4.868,5.200,0.700,-0.008,-0.026,-0.051
2026-05-12 19:09:56.232694,SEARCHING,21.159,1.000,0.00,0.00,-26.57,3.051,6.184,3.751,4.868,5.200,0.700,-0.008,-0.028,-0.055
2026-05-12 19:09:56.433230,SEARCHING,21.284,1.000,0.00,0.00,-27.20,3.051,6.022,3.751,4.868,5.720,0.700,-0.018,-0.028,-0.055
2026-05-12 19:09:56.679271,SEARCHING,21.408,1.000,0.00,0.00,-27.80,3.011,6.538,3.575,4.767,4.974,0.700,-0.005,-0.024,-0.047
2026-05-12 19:09:56.884303,SEARCHING,21.531,1.000,0.00,0.00,-28.34,3.011,6.538,3.520,4.868,5.200,0.700,-0.008,-0.022,-0.043
2026-05-12 19:09:57.114280,SEARCHING,21.654,1.000,0.00,0.00,-28.86,3.051,6.538,3.520,4.868,3.945,0.700,0.029,-0.020,-0.039
2026-05-12 19:09:57.342516,SEARCHING,21.777,1.000,0.00,0.00,-29.34,3.011,6.356,3.520,4.868,4.400,0.700,0.013,-0.022,-0.043
2026-05-12 19:09:57.583851,SEARCHING,21.898,1.000,0.00,0.00,-29.82,3.011,6.538,3.520,4.868,4.487,0.700,0.010,-0.022,-0.043
2026-05-12 19:09:57.777167,SEARCHING,22.020,1.000,0.00,0.00,-30.27,3.051,6.538,3.467,4.868,4.576,0.700,0.008,-0.018,-0.035
2026-05-12 19:09:57.988220,SEARCHING,22.140,1.000,0.00,0.00,-30.68,3.011,6.934,3.415,4.868,4.974,0.700,-0.003,-0.018,-0.035
2026-05-12 19:09:58.198842,SEARCHING,22.261,1.000,0.00,0.00,-31.07,3.051,6.730,3.415,4.868,4.670,0.700,0.005,-0.016,-0.031
2026-05-12 19:09:58.430392,SEARCHING,22.380,1.000,0.00,0.00,-31.35,3.178,6.934,3.365,4.868,4.868,0.700,0.000,-0.008,-0.016
2026-05-12 19:09:58.656058,SEARCHING,22.500,1.000,0.00,0.00,-31.51,3.178,6.934,3.316,4.767,6.538,0.700,-0.034,-0.006,-0.012
2026-05-12 19:09:58.855176,SEARCHING,22.619,1.000,0.00,0.00,-31.66,3.178,6.934,3.316,4.767,5.720,0.700,-0.021,-0.006,-0.012
2026-05-12 19:09:59.078327,SEARCHING,22.738,1.000,0.00,0.00,-31.80,3.223,6.934,3.316,4.868,4.317,0.700,0.016,-0.004,-0.008
2026-05-12 19:09:59.276408,SEARCHING,22.857,1.000,0.00,0.00,-31.90,3.223,6.538,3.316,4.974,5.720,0.700,-0.016,-0.004,-0.008
2026-05-12 19:09:59.482861,SEARCHING,22.976,1.000,0.00,0.00,-32.02,3.178,6.934,3.365,4.868,4.317,0.700,0.016,-0.008,-0.016
2026-05-12 19:09:59.700553,SEARCHING,23.094,1.000,0.00,0.00,-32.18,3.178,6.934,3.269,4.868,4.317,0.700,0.016,-0.004,-0.008
2026-05-12 19:09:59.912844,SEARCHING,23.213,1.000,0.00,0.00,-32.26,3.223,7.151,3.316,4.868,5.448,0.700,-0.013,-0.004,-0.008
2026-05-12 19:10:00.137415,SEARCHING,23.331,1.000,0.00,0.00,-32.33,3.223,7.151,3.269,4.767,4.487,0.700,0.008,-0.002,-0.004
2026-05-12 19:10:00.332940,SEARCHING,23.449,1.000,0.00,0.00,-32.38,3.178,6.934,3.316,4.868,4.576,0.700,0.008,-0.006,-0.012
2026-05-12 19:10:00.538165,SEARCHING,23.568,1.000,0.00,0.00,-32.48,3.223,7.151,3.316,4.868,6.022,0.700,-0.024,-0.004,-0.008
2026-05-12 19:10:00.740309,SEARCHING,23.686,1.000,0.00,0.00,-32.59,3.223,6.934,3.316,4.868,4.487,0.700,0.010,-0.004,-0.008
2026-05-12 19:10:00.954311,SEARCHING,23.804,1.000,0.00,0.00,-32.69,3.269,7.151,3.269,4.868,4.487,0.700,0.010,0.000,0.000
2026-05-12 19:10:01.178193,SEARCHING,23.921,1.000,0.00,0.00,-32.72,3.223,7.151,3.316,4.767,4.487,0.700,0.008,-0.004,-0.008
2026-05-12 19:10:01.391287,SEARCHING,24.039,1.000,0.00,0.00,-32.76,3.269,6.934,3.223,4.868,5.720,0.700,-0.018,0.002,0.004
2026-05-12 19:10:01.621048,SEARCHING,24.157,1.000,0.00,0.00,-32.76,3.223,6.934,3.316,4.868,4.767,0.700,0.003,-0.004,-0.008
2026-05-12 19:10:01.826906,SEARCHING,24.275,1.000,0.00,0.00,-32.82,3.178,6.730,3.365,4.868,4.767,0.700,0.003,-0.008,-0.016
2026-05-12 19:10:02.050314,SEARCHING,24.392,1.000,0.00,0.00,-33.00,3.134,6.730,3.415,4.868,5.448,0.700,-0.013,-0.012,-0.024
2026-05-12 19:10:02.270247,SEARCHING,24.509,1.000,0.00,0.00,-33.25,3.178,6.730,3.415,4.868,4.767,0.700,0.003,-0.010,-0.020
2026-05-12 19:10:02.477157,SEARCHING,24.626,1.000,0.00,0.00,-33.49,3.178,6.538,3.467,4.868,5.200,0.700,-0.008,-0.012,-0.024
2026-05-12 19:10:02.702476,SEARCHING,24.743,1.000,0.00,0.00,-33.76,3.051,6.356,3.575,4.868,4.576,0.700,0.008,-0.022,-0.043
2026-05-12 19:10:02.916252,SEARCHING,24.859,1.000,0.00,0.00,-34.21,3.051,6.184,3.520,4.868,5.200,0.700,-0.008,-0.020,-0.039
2026-05-12 19:10:03.129539,SEARCHING,24.975,1.000,0.00,0.00,-34.61,3.092,6.022,3.415,4.767,5.448,0.700,-0.016,-0.014,-0.028
2026-05-12 19:10:03.333189,SEARCHING,25.090,1.000,0.00,0.00,-34.94,3.092,5.867,3.467,4.868,6.538,0.700,-0.031,-0.016,-0.031
2026-05-12 19:10:03.539953,SEARCHING,25.204,1.000,0.00,0.00,-35.28,3.134,5.581,3.415,4.868,6.538,0.700,-0.031,-0.012,-0.024
2026-05-12 19:10:03.763809,SEARCHING,25.318,1.000,0.00,0.00,-35.56,3.134,5.448,3.415,4.974,6.184,0.700,-0.024,-0.012,-0.024
2026-05-12 19:10:03.963153,SEARCHING,25.432,1.000,0.00,0.00,-35.83,3.134,5.448,3.415,4.974,6.356,0.700,-0.026,-0.012,-0.024
2026-05-12 19:10:04.166381,SEARCHING,25.545,1.000,0.00,0.00,-36.10,3.134,5.200,3.415,4.868,6.538,0.700,-0.031,-0.012,-0.024
2026-05-12 19:10:04.391890,SEARCHING,25.658,1.000,0.00,0.00,-36.37,3.134,5.085,3.316,4.868,6.184,0.700,-0.026,-0.008,-0.016
2026-05-12 19:10:04.603916,SEARCHING,25.771,1.000,0.00,0.00,-36.58,3.051,4.767,3.415,4.767,6.022,0.700,-0.026,-0.016,-0.031
2026-05-12 19:10:04.790885,SEARCHING,25.883,1.000,0.00,0.00,-36.85,3.178,4.767,3.365,4.670,6.184,0.700,-0.031,-0.008,-0.016
2026-05-12 19:10:05.008673,SEARCHING,25.995,1.000,0.00,0.00,-37.03,3.178,4.670,3.365,4.487,4.400,0.700,0.003,-0.008,-0.016
2026-05-12 19:10:05.247379,SEARCHING,26.107,1.000,0.00,0.00,-37.19,3.178,4.487,3.316,4.487,5.085,0.700,-0.016,-0.006,-0.012
2026-05-12 19:10:05.441057,SEARCHING,26.218,1.000,0.00,0.00,-37.34,3.178,4.317,3.316,4.317,4.767,0.700,-0.013,-0.006,-0.012
2026-05-12 19:10:05.643634,SEARCHING,26.329,1.000,0.00,0.00,-37.48,3.223,4.237,3.316,4.237,5.720,0.700,-0.037,-0.004,-0.008
2026-05-12 19:10:05.844061,SEARCHING,26.440,1.000,0.00,0.00,-37.58,3.178,4.086,3.269,4.160,4.767,0.700,-0.018,-0.004,-0.008
2026-05-12 19:10:06.055676,SEARCHING,26.551,1.000,0.00,0.00,-37.67,3.223,3.814,3.316,3.945,4.487,0.700,-0.018,-0.004,-0.008
2026-05-12 19:10:06.263844,SEARCHING,26.634,1.000,0.00,0.00,-37.74,3.223,3.814,3.316,3.945,4.487,0.700,-0.018,-0.004,-0.008
2026-05-12 19:10:06.474601,SEARCHING,26.773,1.000,0.00,0.00,-37.87,3.178,3.365,3.269,3.575,4.767,0.700,-0.042,-0.004,-0.008
2026-05-12 19:10:06.674963,SEARCHING,26.883,1.000,0.00,0.00,-37.96,3.223,3.365,3.316,3.575,4.576,0.700,-0.037,-0.004,-0.008
2026-05-12 19:10:06.898954,SEARCHING,26.993,1.000,0.00,0.00,-37.96,3.467,3.269,3.178,3.316,4.400,0.700,-0.045,0.012,0.024
2026-05-12 19:10:07.102896,SEARCHING,27.104,1.000,0.00,0.00,-37.67,3.520,3.134,3.134,3.365,4.400,0.700,-0.042,0.016,0.031
2026-05-12 19:10:07.297689,SEARCHING,27.215,1.000,0.00,0.00,-37.22,3.691,3.134,3.011,3.223,5.085,0.700,-0.068,0.028,0.055
2026-05-12 19:10:07.538762,SEARCHING,27.327,1.000,0.00,0.00,-36.79,3.051,2.934,3.011,3.011,5.085,0.700,-0.081,0.002,0.004
2026-05-12 19:10:07.746435,SEARCHING,27.439,1.000,0.00,0.00,-36.76,2.896,2.790,2.972,2.790,4.487,0.700,-0.081,-0.004,-0.008
2026-05-12 19:10:07.946418,SEARCHING,27.551,1.000,0.00,0.00,-36.87,2.860,2.724,3.011,2.757,4.237,0.700,-0.076,-0.008,-0.016
2026-05-12 19:10:08.172041,SEARCHING,27.663,1.000,0.00,0.00,-37.11,2.724,2.600,2.934,2.600,4.400,0.700,-0.094,-0.012,-0.024
2026-05-12 19:10:08.392779,SEARCHING,27.774,1.000,0.00,0.00,-37.48,2.514,2.409,2.896,2.409,4.317,0.700,-0.110,-0.024,-0.047
2026-05-12 19:10:08.596577,SEARCHING,27.885,1.000,0.00,0.00,-38.01,2.359,2.266,2.825,2.288,4.160,0.700,-0.118,-0.031,-0.063
2026-05-12 19:10:08.796016,SEARCHING,27.995,1.000,0.00,0.00,-38.77,2.159,2.099,2.757,2.099,4.237,0.700,-0.144,-0.045,-0.090
2026-05-12 19:10:09.002308,SEARCHING,28.103,1.000,0.00,0.00,-39.83,2.025,2.007,2.692,2.007,4.237,0.700,-0.157,-0.055,-0.110
2026-05-12 19:10:09.209481,SEARCHING,28.209,1.000,0.00,0.00,-41.13,1.923,1.923,2.600,1.939,4.086,0.673,-0.163,-0.061,-0.122
2026-05-12 19:10:09.446017,SEARCHING,28.307,1.000,0.00,0.00,-42.65,1.695,1.760,2.434,1.760,1.747,0.616,0.003,-0.081,-0.161
2026-05-12 19:10:09.692176,SEARCHING,28.396,1.000,0.00,0.00,-44.48,1.695,1.760,2.434,1.760,1.747,0.616,0.003,-0.081,-0.161
2026-05-12 19:10:09.871377,SEARCHING,28.483,1.000,0.00,0.00,-46.33,1.695,1.760,2.434,1.760,1.747,0.616,0.003,-0.081,-0.161
2026-05-12 19:10:10.081890,SEARCHING,28.567,1.000,0.00,0.00,-48.18,1.695,1.760,2.434,1.760,1.747,0.616,0.003,-0.081,-0.161
2026-05-12 19:10:10.291048,SEARCHING,28.651,1.000,0.00,0.00,-50.61,1.167,3.178,1.990,3.178,2.757,0.700,0.029,-0.159,-0.319
2026-05-12 19:10:10.520993,SEARCHING,28.737,1.000,0.00,0.00,-54.37,1.074,2.896,1.845,2.896,2.790,0.700,0.008,-0.175,-0.350
2026-05-12 19:10:10.740885,SEARCHING,28.815,1.000,0.00,0.00,-58.06,4.086,2.409,1.611,2.434,2.409,0.700,0.003,0.169,0.338
2026-05-12 19:10:10.952955,SEARCHING,28.891,1.000,0.00,0.00,-55.22,3.814,2.266,1.525,2.288,2.288,0.700,0.000,0.177,0.354
2026-05-12 19:10:11.178248,SEARCHING,28.974,1.000,0.00,0.00,-51.18,3.878,2.288,1.536,2.311,2.288,0.700,0.003,0.177,0.354
2026-05-12 19:10:11.394506,SEARCHING,29.065,1.000,0.00,0.00,-47.05,4.670,2.460,1.600,2.434,2.434,0.700,0.000,0.185,0.370
2026-05-12 19:10:11.615591,SEARCHING,29.164,1.000,0.00,0.00,-42.80,6.184,2.724,1.682,2.757,2.630,0.700,0.010,0.195,0.389
2026-05-12 19:10:11.817191,SEARCHING,29.270,1.000,0.00,0.00,-38.42,6.184,2.860,1.720,2.860,2.661,0.700,0.016,0.189,0.378
2026-05-12 19:10:12.029713,SEARCHING,29.382,1.000,0.00,0.00,-34.18,6.184,3.223,1.816,3.269,2.972,0.700,0.018,0.175,0.350
2026-05-12 19:10:12.231094,SEARCHING,29.501,1.000,0.00,0.00,-30.34,5.581,3.632,1.990,3.632,2.692,0.700,0.058,0.146,0.291
2026-05-12 19:10:12.437048,SEARCHING,29.623,1.000,0.00,0.00,-27.24,4.767,4.237,2.243,4.237,3.575,0.700,0.026,0.106,0.212
2026-05-12 19:10:13.326835,SEARCHING,29.749,1.000,0.00,0.00,-24.83,4.670,4.767,2.335,4.400,3.365,0.700,0.042,0.096,0.193
2026-05-12 19:10:13.347169,SEARCHING,29.877,1.000,0.00,0.00,-22.62,4.670,4.767,2.335,4.400,3.365,0.700,0.042,0.096,0.193
2026-05-12 19:10:13.529917,SEARCHING,30.007,1.000,0.00,0.00,-20.42,3.751,5.581,2.630,4.767,5.448,0.700,-0.016,0.051,0.102
2026-05-12 19:10:13.740024,SEARCHING,30.139,1.000,0.00,0.00,-19.09,3.575,5.448,2.790,4.868,4.400,0.700,0.013,0.035,0.071
2026-05-12 19:10:13.962122,SEARCHING,30.271,1.000,0.00,0.00,-18.22,3.632,5.321,2.860,4.974,3.178,0.700,0.068,0.033,0.067
2026-05-12 19:10:14.161627,SEARCHING,30.371,1.000,0.00,0.00,-17.64,3.632,5.321,2.860,4.974,3.178,0.700,0.068,0.033,0.067
2026-05-12 19:10:14.387007,SEARCHING,30.538,1.000,0.00,0.00,-16.81,3.316,5.085,3.178,4.868,4.400,0.700,0.013,0.006,0.012
2026-05-12 19:10:14.605395,SEARCHING,30.672,1.000,0.00,0.00,-16.76,3.223,4.868,3.467,4.868,4.160,0.700,0.021,-0.010,-0.020
2026-05-12 19:10:14.828957,SEARCHING,30.806,1.000,0.00,0.00,-17.03,3.092,4.767,3.691,4.767,4.086,0.700,0.021,-0.024,-0.047
2026-05-12 19:10:15.050318,SEARCHING,30.940,1.000,0.00,0.00,-17.56,3.051,4.767,3.691,4.670,4.160,0.700,0.016,-0.026,-0.051
2026-05-12 19:10:15.242342,SEARCHING,31.073,1.000,0.00,0.00,-18.15,3.092,4.576,3.575,4.576,4.014,0.700,0.018,-0.020,-0.039
2026-05-12 19:10:15.443626,SEARCHING,31.206,1.000,0.00,0.00,-18.62,3.092,4.487,3.575,4.487,3.178,0.700,0.055,-0.020,-0.039
2026-05-12 19:10:15.651404,SEARCHING,31.339,1.000,0.00,0.00,-19.05,3.092,4.317,3.467,4.317,4.086,0.700,0.008,-0.016,-0.031
2026-05-12 19:10:15.872204,SEARCHING,31.471,1.000,0.00,0.00,-19.42,3.092,4.160,3.467,4.237,3.365,0.700,0.037,-0.016,-0.031
2026-05-12 19:10:16.077220,SEARCHING,31.603,1.000,0.00,0.00,-19.78,3.134,4.086,3.467,4.086,3.269,0.700,0.037,-0.014,-0.028
2026-05-12 19:10:16.285004,SEARCHING,31.735,1.000,0.00,0.00,-20.14,3.092,3.945,3.575,3.945,3.365,0.700,0.026,-0.020,-0.039
2026-05-12 19:10:16.495552,SEARCHING,31.866,1.000,0.00,0.00,-20.56,3.134,3.814,3.467,3.751,3.316,0.700,0.021,-0.014,-0.028
2026-05-12 19:10:16.733386,SEARCHING,31.997,1.000,0.00,0.00,-20.89,3.269,3.691,3.415,3.632,2.487,0.700,0.076,-0.006,-0.012
2026-05-12 19:10:16.922494,SEARCHING,32.127,1.000,0.00,0.00,-21.12,3.178,3.520,3.316,3.520,3.316,0.700,0.010,-0.006,-0.012
2026-05-12 19:10:17.120564,SEARCHING,32.258,1.000,0.00,0.00,-21.31,3.011,3.467,3.223,3.415,3.051,0.700,0.021,-0.010,-0.020
2026-05-12 19:10:17.336835,SEARCHING,32.388,1.000,0.00,0.00,-21.51,2.972,3.269,3.051,3.269,3.092,0.700,0.010,-0.004,-0.008
2026-05-12 19:10:17.545718,SEARCHING,32.519,1.000,0.00,0.00,-21.60,2.896,3.178,2.972,3.178,2.934,0.700,0.016,-0.004,-0.008
2026-05-12 19:10:17.755131,SEARCHING,32.649,1.000,0.00,0.00,-21.66,2.825,2.972,2.790,2.972,2.860,0.700,0.008,0.002,0.004
2026-05-12 19:10:17.961502,SEARCHING,32.779,1.000,0.00,0.00,-21.61,2.790,2.860,2.692,2.860,2.860,0.700,0.000,0.006,0.012
2026-05-12 19:10:18.174914,SEARCHING,32.909,1.000,0.00,0.00,-21.48,2.757,2.757,2.571,2.757,2.757,0.700,0.000,0.012,0.024
2026-05-12 19:10:18.392030,SEARCHING,33.039,1.000,0.00,0.00,-21.20,2.724,2.661,2.434,2.630,2.661,0.700,-0.003,0.020,0.039
2026-05-12 19:10:18.600569,SEARCHING,33.170,1.000,0.00,0.00,-20.74,2.661,2.571,2.359,2.571,2.542,0.700,0.003,0.022,0.043
2026-05-12 19:10:18.816838,SEARCHING,33.301,1.000,0.00,0.00,-20.22,2.571,2.384,2.200,2.384,2.384,0.700,0.000,0.029,0.059
2026-05-12 19:10:19.016639,SEARCHING,33.433,1.000,0.00,0.00,-19.54,2.434,2.243,2.043,2.243,2.243,0.700,0.000,0.035,0.071
2026-05-12 19:10:19.232142,SEARCHING,33.565,1.000,0.00,0.00,-18.75,2.359,2.159,1.990,2.159,2.138,0.700,0.003,0.035,0.071
2026-05-12 19:10:19.446987,SEARCHING,33.698,1.000,0.00,0.00,-17.89,2.243,2.025,1.845,2.025,2.025,0.700,0.000,0.043,0.087
2026-05-12 19:10:19.655313,SEARCHING,33.830,1.000,0.00,0.00,-16.89,2.099,1.907,1.733,1.891,1.891,0.667,0.000,0.045,0.090
2026-05-12 19:10:19.874423,SEARCHING,33.956,1.000,0.00,0.00,-15.79,1.939,1.747,1.567,1.747,1.747,0.611,0.000,0.055,0.110
2026-05-12 19:10:20.073560,SEARCHING,34.074,1.000,0.00,0.00,-14.50,1.876,1.670,1.496,1.670,1.670,0.585,0.000,0.061,0.122
2026-05-12 19:10:20.283185,SEARCHING,34.186,1.000,0.00,0.00,-13.07,1.802,1.589,1.421,1.589,1.589,0.556,0.000,0.067,0.134
2026-05-12 19:10:20.501753,SEARCHING,34.293,1.000,0.00,0.00,-11.46,1.670,1.448,1.285,1.439,1.448,0.507,-0.003,0.081,0.161
2026-05-12 19:10:20.708687,SEARCHING,34.392,1.000,0.00,0.00,-9.56,1.567,1.346,1.173,1.354,1.346,0.471,0.003,0.096,0.193
2026-05-12 19:10:20.909542,SEARCHING,34.486,1.000,0.00,0.00,-7.33,1.557,1.315,1.150,1.323,1.323,0.460,0.000,0.102,0.205
2026-05-12 19:10:21.118642,SEARCHING,34.576,1.000,0.00,0.00,-4.87,1.515,1.271,1.090,1.271,1.271,0.445,0.000,0.116,0.232
2026-05-12 19:10:21.321557,SEARCHING,34.663,1.000,0.00,0.00,-2.07,1.448,1.192,1.012,1.198,1.192,0.417,0.003,0.134,0.267
2026-05-12 19:10:21.541064,SEARCHING,34.746,1.000,0.00,0.00,0.99,1.362,1.122,0.930,1.116,1.116,0.393,0.000,0.153,0.307
2026-05-12 19:10:21.757996,SEARCHING,34.825,1.000,0.00,0.00,4.44,1.300,1.084,0.890,1.084,1.095,0.380,-0.005,0.159,0.319
2026-05-12 19:10:21.960854,SEARCHING,34.901,1.000,0.00,0.00,8.04,1.198,1.069,0.851,1.064,1.064,0.374,0.000,0.153,0.307
2026-05-12 19:10:22.197501,SEARCHING,34.975,1.000,0.00,0.00,11.57,1.116,1.045,0.809,1.045,1.050,0.366,-0.003,0.153,0.307
2026-05-12 19:10:22.423199,SEARCHING,35.047,1.000,0.00,0.00,15.05,1.035,1.035,0.786,1.040,1.040,0.362,0.000,0.138,0.275
2026-05-12 19:10:22.620219,SEARCHING,35.116,1.000,0.00,0.00,18.25,0.982,1.045,0.776,1.045,1.045,0.366,0.000,0.122,0.244
2026-05-12 19:10:22.850481,SEARCHING,35.185,1.000,0.00,0.00,21.08,0.912,1.040,0.748,1.045,1.040,0.364,0.003,0.108,0.216
2026-05-12 19:10:23.059170,SEARCHING,35.252,1.000,0.00,0.00,23.55,0.873,1.040,0.738,1.040,1.040,0.364,0.000,0.094,0.189
2026-05-12 19:10:23.320951,INSPECTING,35.318,1.000,0.00,0.00,25.64,0.797,0.938,0.720,0.938,0.938,0.000,0.000,0.000,0.000
2026-05-12 19:10:23.540863,INSPECTING,35.368,1.000,0.00,0.00,29.92,0.797,0.938,0.720,0.938,0.938,0.350,0.550,0.552,0.850
2026-05-12 19:10:23.711039,INSPECTING,35.426,1.000,0.00,0.00,36.74,0.717,0.814,0.729,0.814,0.814,0.350,0.550,-0.552,-0.850
2026-05-12 19:10:23.970708,INSPECTING,35.485,1.000,0.00,0.00,27.00,0.632,0.713,0.702,0.713,0.715,0.350,0.550,-0.552,-0.850
2026-05-12 19:10:24.197202,INSPECTING,35.550,1.000,0.00,0.00,17.26,0.632,0.713,0.702,0.713,0.715,0.350,0.550,-0.552,-0.850
2026-05-12 19:10:24.431089,INSPECTING,35.618,1.000,0.00,0.00,8.50,0.561,0.691,0.515,0.691,0.691,0.350,0.550,0.552,0.850
2026-05-12 19:10:24.791401,INSPECTING,35.686,1.000,0.00,0.00,18.24,0.494,0.581,0.435,0.581,0.581,0.000,0.000,0.000,0.000
2026-05-12 19:10:25.002720,INSPECTING,35.719,1.000,0.00,0.00,20.18,0.494,0.581,0.435,0.581,0.581,0.000,0.000,0.000,0.000
2026-05-12 19:10:25.414292,INSPECTING,35.769,1.000,0.00,0.00,12.88,0.415,0.474,0.359,0.475,0.474,0.000,0.000,0.000,0.000
2026-05-12 19:10:25.646261,TURNING,35.769,1.000,0.00,0.00,12.88,0.415,0.474,0.359,0.475,0.474,0.000,0.000,0.000,0.000
2026-05-12 19:10:25.844421,TURNING,35.769,1.000,0.00,0.00,12.88,0.415,0.474,0.359,0.475,0.474,0.000,0.000,0.000,0.800
2026-05-12 19:10:26.063382,TURNING,35.769,1.000,0.00,0.00,12.88,0.406,0.500,0.380,0.499,0.499,0.000,0.000,0.000,0.800
2026-05-12 19:10:26.297110,TURNING,35.769,1.000,0.00,0.00,13.34,0.394,0.453,0.446,0.455,0.455,0.000,0.000,0.000,0.800
2026-05-12 19:10:26.509180,TURNING,35.769,1.000,0.00,0.00,24.80,0.400,0.437,0.480,0.437,0.437,0.000,0.000,0.000,0.800
2026-05-12 19:10:26.696008,TURNING,35.769,1.000,0.00,0.00,33.96,0.406,0.435,0.469,0.434,0.435,0.000,0.000,0.000,0.800
2026-05-12 19:10:26.885993,TURNING,35.769,1.000,0.00,0.00,45.42,0.447,0.443,0.441,0.443,0.444,0.000,0.000,0.000,0.800
2026-05-12 19:10:27.140175,TURNING,35.769,1.000,0.00,0.00,56.88,0.466,0.444,0.423,0.444,0.444,0.000,0.000,0.000,0.800
2026-05-12 19:10:27.305468,TURNING,35.769,1.000,0.00,0.00,63.76,0.507,0.456,0.415,0.457,0.457,0.000,0.000,0.000,0.800
2026-05-12 19:10:27.549033,TURNING,35.769,1.000,0.00,0.00,75.22,0.578,0.486,0.420,0.487,0.486,0.000,0.000,0.000,0.800
2026-05-12 19:10:27.762702,TURNING,35.769,1.000,0.00,0.00,84.38,0.809,0.535,0.435,0.532,0.535,0.000,0.000,0.000,0.800
2026-05-12 19:10:27.983048,TURNING,35.769,1.000,0.00,0.00,93.55,0.982,0.781,0.476,0.786,0.784,0.000,0.000,0.000,0.800
2026-05-12 19:10:28.164231,TURNING,35.769,1.000,0.00,0.00,102.72,1.144,0.826,0.514,0.829,0.826,0.000,0.000,0.000,0.800
2026-05-12 19:10:28.384126,TURNING,35.769,1.000,0.00,0.00,116.47,1.293,0.877,0.536,0.877,0.877,0.000,0.000,0.000,0.800
2026-05-12 19:10:28.611398,TURNING,35.769,1.000,0.00,0.00,130.22,2.630,1.198,0.803,1.204,1.211,0.000,0.000,0.000,0.800
2026-05-12 19:10:28.809368,TURNING,35.769,1.000,0.00,0.00,141.68,4.086,1.578,0.926,1.567,1.546,0.000,0.000,0.000,0.800
2026-05-12 19:10:29.037051,TURNING,35.769,1.000,0.00,0.00,150.85,4.974,1.831,1.012,1.845,1.831,0.000,0.000,0.000,0.734
2026-05-12 19:10:29.233715,TURNING,35.769,1.000,0.00,0.00,159.59,5.321,2.934,1.257,2.934,2.514,0.000,0.000,0.000,0.581
2026-05-12 19:10:29.465122,TURNING,35.769,1.000,0.00,0.00,166.51,4.400,5.448,2.179,4.868,3.178,0.000,0.000,0.000,0.460
2026-05-12 19:10:29.665216,TURNING,35.769,1.000,0.00,0.00,173.42,3.365,5.581,2.934,4.868,5.867,0.000,0.000,0.000,0.340
2026-05-12 19:10:29.909073,TURNING,35.769,1.000,0.00,0.00,176.60,2.972,5.200,4.670,4.868,4.974,0.000,0.000,0.000,0.300
2026-05-12 19:10:30.136137,TURNING,35.769,1.000,0.00,-0.00,-179.80,2.790,4.767,4.086,4.767,4.767,0.000,0.000,0.000,0.300
2026-05-12 19:10:30.322197,TURNING,35.769,1.000,0.00,-0.00,-176.36,2.600,4.317,5.200,4.317,3.945,0.000,0.000,0.000,0.300
2026-05-12 19:10:30.549431,RETURNING,35.769,1.000,0.00,-0.00,-172.07,2.600,4.317,5.200,4.317,3.945,0.000,0.000,0.000,0.000
2026-05-12 19:10:30.748644,RETURNING,35.769,1.000,0.00,-0.00,-170.00,2.600,4.317,5.200,4.317,3.945,0.500,0.011,0.000,-0.154
2026-05-12 19:10:30.923195,RETURNING,35.675,1.000,0.00,-0.00,-171.68,2.600,4.317,5.200,4.317,3.945,0.500,0.011,0.000,-0.154
2026-05-12 19:10:31.176745,RETURNING,35.576,1.000,0.00,-0.00,-173.44,2.434,3.365,4.868,3.365,3.134,0.500,0.011,0.000,-0.164
2026-05-12 19:10:31.386200,RETURNING,35.477,1.000,0.00,-0.00,-175.32,2.409,3.467,4.767,3.467,3.134,0.500,0.015,0.000,-0.164
2026-05-12 19:10:31.571487,RETURNING,35.377,1.000,0.00,-0.00,-177.19,2.359,3.520,4.767,3.520,3.223,0.500,0.013,0.000,-0.171
2026-05-12 19:10:31.770817,RETURNING,35.277,1.000,0.00,-0.00,-179.15,2.359,3.520,4.767,3.520,3.223,0.500,0.013,0.000,-0.171
2026-05-12 19:10:31.997594,RETURNING,35.177,1.000,0.00,0.00,178.89,2.311,3.945,4.670,3.945,3.814,0.500,0.004,0.000,-0.175
2026-05-12 19:10:32.139799,RETURNING,35.127,1.000,0.00,0.00,177.91,2.359,4.014,4.670,4.014,3.751,0.500,0.009,0.000,-0.168
2026-05-12 19:10:32.381714,RETURNING,34.977,1.000,0.00,0.00,174.97,2.359,4.014,4.670,4.014,3.751,0.500,0.009,0.000,-0.168
2026-05-12 19:10:32.578172,RETURNING,34.878,1.000,0.00,0.00,173.05,2.359,4.014,4.670,4.014,3.751,0.500,0.009,0.000,-0.168
2026-05-12 19:10:32.816022,RETURNING,34.779,1.000,0.00,0.00,171.13,2.571,4.670,4.317,4.576,4.160,0.500,0.011,0.000,-0.126
2026-05-12 19:10:33.042428,RETURNING,34.655,1.000,0.00,0.00,169.34,2.757,4.868,4.237,4.487,4.767,0.500,-0.007,0.000,-0.101
2026-05-12 19:10:33.241870,RETURNING,34.582,1.000,0.00,0.00,168.40,2.757,4.868,4.237,4.487,4.767,0.500,-0.007,0.000,-0.101
2026-05-12 19:10:33.435609,RETURNING,34.484,1.000,0.00,0.00,167.24,2.934,4.317,4.160,4.237,4.868,0.500,-0.015,0.000,-0.080
2026-05-12 19:10:33.683829,RETURNING,34.387,1.000,0.00,0.00,166.28,2.934,4.237,4.086,4.160,4.868,0.500,-0.017,0.000,-0.077
2026-05-12 19:10:33.867197,RETURNING,34.290,1.000,0.00,0.00,165.40,2.972,4.160,4.160,4.160,5.200,0.500,-0.024,0.000,-0.077
2026-05-12 19:10:34.036765,RETURNING,34.193,1.000,0.00,0.00,164.52,3.011,4.014,3.945,3.945,5.200,0.500,-0.031,0.000,-0.063
2026-05-12 19:10:34.253192,RETURNING,34.097,1.000,0.00,0.00,163.74,2.972,4.014,3.945,3.945,5.200,0.500,-0.031,0.000,-0.066
2026-05-12 19:10:34.478442,RETURNING,34.001,1.000,0.00,0.00,162.98,3.051,3.878,3.751,3.878,5.085,0.500,-0.031,0.000,-0.049
2026-05-12 19:10:34.720517,RETURNING,33.906,1.000,0.00,0.00,162.42,3.051,3.751,3.751,3.691,5.321,0.500,-0.042,0.000,-0.049
2026-05-12 19:10:34.955254,RETURNING,33.787,1.000,0.00,0.00,161.77,3.092,3.691,3.632,3.691,5.321,0.500,-0.042,0.000,-0.038
2026-05-12 19:10:35.173441,RETURNING,33.692,1.000,0.00,0.00,161.33,3.178,3.415,3.575,3.467,5.581,0.500,-0.055,0.000,-0.028
2026-05-12 19:10:35.367445,RETURNING,33.597,1.000,0.00,0.00,160.96,3.178,3.415,3.575,3.467,5.581,0.500,-0.055,0.000,-0.028
2026-05-12 19:10:35.567095,RETURNING,33.503,1.000,0.00,0.00,160.64,3.134,3.365,3.467,3.415,5.448,0.500,-0.055,0.000,-0.024
2026-05-12 19:10:35.768984,RETURNING,33.432,1.000,0.00,0.00,160.43,3.134,3.365,3.467,3.415,5.448,0.500,-0.055,0.000,-0.024
2026-05-12 19:10:35.955708,RETURNING,33.338,1.000,0.00,0.00,160.17,3.223,3.178,3.415,3.269,5.448,0.500,-0.061,0.000,-0.014
2026-05-12 19:10:36.158447,RETURNING,33.244,1.000,0.00,0.00,160.01,3.178,3.051,3.178,3.092,5.448,0.500,-0.070,0.000,0.000
2026-05-12 19:10:36.354265,RETURNING,33.150,1.000,0.00,0.00,159.94,3.134,2.934,3.134,2.972,5.200,0.500,-0.072,0.000,0.000
2026-05-12 19:10:36.607231,RETURNING,33.056,1.000,0.00,0.00,159.96,3.134,2.934,3.134,2.972,5.200,0.500,-0.072,0.000,0.000
2026-05-12 19:10:36.817108,RETURNING,32.985,1.000,0.00,0.00,159.96,3.134,2.934,3.134,2.972,5.200,0.500,-0.072,0.000,0.000
2026-05-12 19:10:37.034325,RETURNING,32.868,1.000,0.00,0.00,160.04,3.051,2.630,2.600,2.724,5.085,0.500,-0.085,0.000,0.045
2026-05-12 19:10:37.249011,RETURNING,32.774,1.000,0.00,0.00,160.58,3.011,2.571,2.514,2.630,5.321,0.500,-0.096,0.000,0.052
2026-05-12 19:10:37.472804,RETURNING,32.679,1.000,0.00,0.00,161.14,2.972,2.487,2.600,2.514,4.868,0.500,-0.096,0.000,0.038
2026-05-12 19:10:37.662943,RETURNING,32.585,1.000,0.00,0.00,161.66,2.896,2.335,2.434,2.384,4.974,0.500,-0.109,0.000,0.052
2026-05-12 19:10:37.887834,RETURNING,32.490,1.000,0.00,0.00,162.22,2.896,2.335,2.434,2.384,4.974,0.500,-0.109,0.000,0.052
2026-05-12 19:10:38.168077,RETURNING,32.394,1.000,0.00,0.00,162.82,2.790,2.266,2.288,2.266,2.460,0.500,-0.017,0.000,0.063
2026-05-12 19:10:38.393714,RETURNING,32.299,1.000,0.00,0.00,163.53,2.692,2.061,2.080,2.061,2.138,0.500,-0.009,0.000,0.087
2026-05-12 19:10:38.547329,RETURNING,32.251,1.000,0.00,0.00,163.89,2.692,2.061,2.080,2.061,2.138,0.500,-0.009,0.000,0.087
2026-05-12 19:10:38.787085,RETURNING,32.130,1.000,0.00,0.00,165.05,2.571,1.939,1.907,1.939,4.086,0.500,-0.135,0.000,0.108
2026-05-12 19:10:39.002191,RETURNING,32.033,1.000,0.00,0.00,166.19,2.571,1.939,1.907,1.939,4.086,0.500,-0.135,0.000,0.108
2026-05-12 19:10:39.212603,RETURNING,31.936,1.000,0.00,0.00,167.44,2.335,1.831,1.634,1.831,3.691,0.500,-0.138,0.000,0.147
2026-05-12 19:10:39.460154,RETURNING,31.838,1.000,0.00,0.00,168.72,2.311,1.760,1.578,1.760,3.691,0.500,-0.149,0.000,0.161
2026-05-12 19:10:39.592582,RETURNING,31.789,1.000,0.00,0.00,169.56,2.311,1.760,1.578,1.760,3.691,0.500,-0.149,0.000,0.161
2026-05-12 19:10:39.888148,RETURNING,31.666,1.000,0.00,0.00,171.80,2.138,3.467,1.370,3.467,3.415,0.500,0.002,0.000,0.210
2026-05-12 19:10:39.994655,RETURNING,31.616,1.000,0.00,0.00,172.72,2.138,3.467,1.370,3.467,3.415,0.500,0.002,0.000,0.210
2026-05-12 19:10:40.241766,RETURNING,31.467,1.000,0.00,0.00,176.13,2.138,3.467,1.370,3.467,3.415,0.500,0.002,0.000,0.210
2026-05-12 19:10:40.429265,RETURNING,31.317,1.000,0.00,0.00,179.75,1.788,2.630,1.192,2.630,2.630,0.500,0.000,0.000,0.224
2026-05-12 19:10:40.631739,RETURNING,31.217,1.000,0.00,-0.00,-177.69,1.682,2.434,1.162,2.409,2.434,0.500,-0.002,0.000,0.213
2026-05-12 19:10:40.874798,RETURNING,31.117,1.000,0.00,-0.00,-177.20,1.557,2.159,3.467,2.179,2.159,0.500,0.002,0.000,-0.283
2026-05-12 19:10:41.046025,RETURNING,31.017,1.000,0.00,0.00,179.59,1.525,2.119,3.415,2.119,2.119,0.500,0.000,0.000,-0.290
2026-05-12 19:10:41.244730,RETURNING,30.917,1.000,0.00,0.00,176.25,1.536,2.243,3.632,2.243,2.243,0.500,0.000,0.000,-0.301
2026-05-12 19:10:41.467159,RETURNING,30.818,1.000,0.00,0.00,172.78,1.546,2.487,4.014,2.487,2.487,0.500,0.000,0.000,-0.318
2026-05-12 19:10:41.692687,RETURNING,30.719,1.000,0.00,0.00,169.15,1.546,2.487,4.014,2.487,2.487,0.500,0.000,0.000,-0.318
2026-05-12 19:10:41.894155,RETURNING,30.621,1.000,0.00,0.00,165.51,1.634,2.724,4.767,2.724,2.661,0.500,0.004,0.000,-0.322
2026-05-12 19:10:42.133583,RETURNING,30.525,1.000,0.00,0.00,161.90,1.891,2.934,6.934,2.896,2.934,0.500,-0.002,0.000,-0.308
2026-05-12 19:10:42.295559,RETURNING,30.431,1.000,0.00,0.00,158.28,1.956,3.134,7.627,3.178,3.092,0.500,0.004,0.000,-0.304
2026-05-12 19:10:42.524539,RETURNING,30.340,1.000,0.00,0.00,154.75,1.956,3.134,7.627,3.178,3.092,0.500,0.004,0.000,-0.304
2026-05-12 19:10:42.722700,RETURNING,30.250,1.000,0.00,0.00,151.38,2.080,3.575,6.538,3.575,3.365,0.500,0.009,0.000,-0.262
2026-05-12 19:10:42.933242,RETURNING,30.164,1.000,0.00,0.00,148.38,2.243,4.014,4.974,4.160,3.878,0.500,0.009,0.000,-0.196
2026-05-12 19:10:43.157216,RETURNING,30.079,1.000,0.00,0.00,146.10,2.409,5.200,4.767,4.868,4.487,0.500,0.009,0.000,-0.164
2026-05-12 19:10:44.104205,RETURNING,29.997,1.000,0.00,0.00,144.05,2.571,6.934,4.317,4.868,5.448,0.500,-0.011,0.000,-0.126
2026-05-12 19:10:44.190544,RETURNING,29.957,1.000,0.00,0.00,143.11,2.571,6.934,4.317,4.868,5.448,0.500,-0.011,0.000,-0.126
2026-05-12 19:10:44.414925,RETURNING,29.878,1.000,0.00,0.00,141.23,3.011,7.890,3.520,4.868,3.365,0.500,0.046,0.000,-0.038
2026-05-12 19:10:44.617906,RETURNING,29.763,1.000,0.00,0.00,138.87,3.051,7.381,3.316,4.868,4.767,0.500,0.002,0.000,-0.021
2026-05-12 19:10:44.808488,RETURNING,29.614,1.000,0.00,0.00,137.55,3.134,6.730,3.269,4.868,4.160,0.500,0.017,0.000,-0.010
2026-05-12 19:10:45.041208,RETURNING,29.541,1.000,0.00,0.00,137.45,3.134,6.730,3.269,4.868,4.160,0.500,0.017,0.000,-0.010
2026-05-12 19:10:45.256556,RETURNING,29.467,1.000,0.00,0.00,137.33,3.269,6.538,3.223,4.868,5.321,0.500,-0.009,0.000,0.003
2026-05-12 19:10:45.415415,RETURNING,29.394,1.000,0.00,0.00,137.28,3.269,6.538,3.223,4.868,5.321,0.500,-0.009,0.000,0.003
2026-05-12 19:10:45.623505,RETURNING,29.320,1.000,0.00,0.00,137.32,3.269,6.538,3.223,4.868,5.321,0.500,-0.009,0.000,0.003
2026-05-12 19:10:45.876586,RETURNING,29.247,1.000,0.00,0.00,137.36,3.269,6.538,3.223,4.868,5.321,0.500,-0.009,0.000,0.003
2026-05-12 19:10:46.122820,RETURNING,29.173,1.000,0.00,0.00,137.40,3.269,6.538,3.223,4.868,5.321,0.500,-0.009,0.000,0.003
2026-05-12 19:10:46.364038,RETURNING,29.099,1.000,0.00,0.00,137.44,3.520,6.538,3.178,4.868,3.092,0.500,0.059,0.000,0.024
2026-05-12 19:10:46.604411,RETURNING,28.989,1.000,0.00,0.00,137.65,3.520,6.538,3.178,4.868,3.092,0.500,0.059,0.000,0.024
2026-05-12 19:10:46.797480,RETURNING,28.915,1.000,0.00,0.00,137.94,3.520,6.730,3.134,4.868,3.691,0.500,0.033,0.000,0.028
2026-05-12 19:10:47.032498,RETURNING,28.840,1.000,0.00,0.00,138.26,3.520,6.730,3.134,4.868,3.814,0.500,0.028,0.000,0.028
2026-05-12 19:10:47.263407,RETURNING,28.766,1.000,0.00,0.00,138.58,3.467,6.022,3.134,4.868,4.237,0.500,0.015,0.000,0.024
2026-05-12 19:10:47.496691,RETURNING,28.690,1.000,0.00,0.00,138.88,3.467,6.934,3.134,4.868,3.269,0.500,0.050,0.000,0.024
2026-05-12 19:10:47.699842,RETURNING,28.615,1.000,0.00,0.00,139.16,3.467,6.934,3.134,4.868,3.269,0.500,0.050,0.000,0.024
2026-05-12 19:10:47.895684,RETURNING,28.520,1.000,0.00,0.00,139.51,3.415,7.151,3.134,4.868,3.467,0.500,0.042,0.000,0.021
2026-05-12 19:10:48.116073,RETURNING,28.463,1.000,0.00,0.00,139.69,3.415,7.151,3.134,4.868,3.467,0.500,0.042,0.000,0.021
2026-05-12 19:10:48.384509,RETURNING,28.387,1.000,0.00,0.00,139.93,3.415,7.151,3.134,4.868,3.467,0.500,0.042,0.000,0.021
2026-05-12 19:10:48.563706,RETURNING,28.310,1.000,0.00,0.00,140.17,3.415,6.022,3.134,4.868,4.237,0.500,0.015,0.000,0.021
2026-05-12 19:10:48.741436,RETURNING,28.233,1.000,0.00,0.00,140.41,3.365,5.867,3.092,4.868,2.724,0.500,0.081,0.000,0.021
2026-05-12 19:10:48.957890,RETURNING,28.175,1.000,0.00,0.00,140.59,3.365,6.022,3.223,4.868,4.576,0.500,0.007,0.000,0.010
2026-05-12 19:10:49.200170,RETURNING,28.078,1.000,0.00,0.00,140.85,3.365,6.022,3.223,4.868,4.576,0.500,0.007,0.000,0.010
2026-05-12 19:10:49.375141,RETURNING,27.981,1.000,0.00,0.00,141.00,3.365,6.022,3.223,4.868,4.576,0.500,0.007,0.000,0.010
2026-05-12 19:10:49.560483,RETURNING,27.904,1.000,0.00,0.00,141.11,3.316,5.867,3.223,4.868,4.400,0.500,0.011,0.000,0.007
2026-05-12 19:10:49.769402,RETURNING,27.826,1.000,0.00,0.00,141.19,3.316,5.867,3.223,4.868,4.400,0.500,0.011,0.000,0.007
2026-05-12 19:10:49.990224,RETURNING,27.767,1.000,0.00,0.00,141.25,3.365,6.730,3.223,4.767,4.400,0.500,0.009,0.000,0.010
2026-05-12 19:10:50.175542,RETURNING,27.689,1.000,0.00,0.00,141.35,3.365,5.867,3.223,4.868,4.400,0.500,0.011,0.000,0.010
2026-05-12 19:10:50.394842,RETURNING,27.611,1.000,0.00,0.00,141.47,3.365,5.867,3.134,4.868,4.767,0.500,0.002,0.000,0.017
2026-05-12 19:10:50.604651,RETURNING,27.533,1.000,0.00,0.00,141.67,3.365,5.867,3.223,4.868,4.400,0.500,0.011,0.000,0.010
2026-05-12 19:10:50.853566,RETURNING,27.454,1.000,0.00,0.00,141.81,3.316,6.022,3.223,4.767,4.400,0.500,0.009,0.000,0.007
2026-05-12 19:10:51.010726,RETURNING,27.376,1.000,0.00,0.00,141.90,3.316,5.867,3.134,4.868,4.400,0.500,0.011,0.000,0.014
2026-05-12 19:10:51.229337,RETURNING,27.297,1.000,0.00,0.00,142.06,3.365,6.538,3.051,4.868,4.400,0.500,0.011,0.000,0.024
2026-05-12 19:10:51.439671,RETURNING,27.218,1.000,0.00,0.00,142.30,3.365,5.867,3.051,4.767,4.400,0.500,0.009,0.000,0.024
2026-05-12 19:10:51.639070,RETURNING,27.139,1.000,0.00,0.00,142.56,3.365,6.184,3.178,4.868,4.576,0.500,0.007,0.000,0.014
2026-05-12 19:10:51.878090,RETURNING,27.059,1.000,0.00,0.00,142.72,3.316,6.356,3.178,4.974,5.720,0.500,-0.013,0.000,0.010
2026-05-12 19:10:52.081124,RETURNING,26.980,1.000,0.00,0.00,142.84,3.269,6.022,3.223,4.868,4.400,0.500,0.011,0.000,0.003
2026-05-12 19:10:52.299458,RETURNING,26.900,1.000,0.00,0.00,142.91,3.269,6.022,3.223,4.868,4.400,0.500,0.011,0.000,0.003
2026-05-12 19:10:52.539828,RETURNING,26.820,1.000,0.00,0.00,142.95,3.269,5.867,3.223,4.670,5.321,0.500,-0.013,0.000,0.003
2026-05-12 19:10:52.722564,RETURNING,26.740,1.000,0.00,0.00,142.99,3.223,5.867,3.316,4.868,4.400,0.500,0.011,0.000,-0.007
2026-05-12 19:10:52.948858,RETURNING,26.660,1.000,0.00,0.00,142.97,3.269,5.867,3.269,4.868,4.400,0.500,0.011,0.000,0.000
2026-05-12 19:10:53.145804,RETURNING,26.581,1.000,0.00,0.00,142.95,3.223,5.867,3.269,4.767,5.720,0.500,-0.017,0.000,-0.003
2026-05-12 19:10:53.340100,RETURNING,26.501,1.000,0.00,0.00,142.91,3.223,5.867,3.269,4.974,4.237,0.500,0.017,0.000,-0.003
2026-05-12 19:10:53.595549,RETURNING,26.421,1.000,0.00,0.00,142.87,3.223,5.867,3.269,4.974,4.237,0.500,0.017,0.000,-0.003
2026-05-12 19:10:53.785606,RETURNING,26.341,1.000,0.00,0.00,142.83,3.223,5.720,3.269,4.868,4.237,0.500,0.015,0.000,-0.003
2026-05-12 19:10:53.991889,RETURNING,26.262,1.000,0.00,0.00,142.78,3.092,5.581,3.316,4.868,3.467,0.500,0.042,0.000,-0.017
2026-05-12 19:10:54.234088,RETURNING,26.182,1.000,0.00,0.00,142.58,3.092,5.448,3.365,4.868,5.321,0.500,-0.009,0.000,-0.021
2026-05-12 19:10:54.436440,RETURNING,26.103,1.000,0.00,0.00,142.34,3.011,5.448,3.316,4.868,4.086,0.500,0.020,0.000,-0.024
2026-05-12 19:10:54.646331,RETURNING,26.024,1.000,0.00,0.00,142.08,3.011,5.448,3.316,4.868,4.086,0.500,0.020,0.000,-0.024
2026-05-12 19:10:54.840755,RETURNING,25.945,1.000,0.00,0.00,141.80,3.092,5.200,3.365,4.868,4.160,0.500,0.017,0.000,-0.021
2026-05-12 19:10:55.075580,RETURNING,25.867,1.000,0.00,0.00,141.54,3.092,5.321,3.316,4.868,4.086,0.500,0.020,0.000,-0.017
2026-05-12 19:10:55.286998,RETURNING,25.788,1.000,0.00,0.00,141.34,3.223,5.085,3.365,4.868,3.365,0.500,0.046,0.000,-0.010
2026-05-12 19:10:55.502107,RETURNING,25.710,1.000,0.00,0.00,141.22,3.269,4.670,3.316,4.868,3.316,0.500,0.048,0.000,-0.003
2026-05-12 19:10:55.741776,RETURNING,25.632,1.000,0.00,0.00,141.17,3.269,4.767,3.269,4.974,4.086,0.500,0.022,0.000,0.000
2026-05-12 19:10:55.913123,RETURNING,25.554,1.000,0.00,0.00,141.18,3.316,4.670,3.223,4.868,4.086,0.500,0.020,0.000,0.007
2026-05-12 19:10:56.162048,RETURNING,25.477,1.000,0.00,0.00,141.26,3.365,4.670,3.223,4.868,3.223,0.500,0.052,0.000,0.010
2026-05-12 19:10:56.331935,RETURNING,25.398,1.000,0.00,0.00,141.38,3.365,4.487,3.223,4.868,3.178,0.500,0.055,0.000,0.010
2026-05-12 19:10:56.605266,RETURNING,25.320,1.000,0.00,0.00,141.50,3.365,4.400,3.178,4.868,2.288,0.500,0.116,0.000,0.014
2026-05-12 19:10:56.808557,RETURNING,25.222,1.000,0.00,0.00,141.67,3.365,4.400,3.178,4.868,3.051,0.500,0.061,0.000,0.014
2026-05-12 19:10:57.024050,RETURNING,25.163,1.000,0.00,0.00,141.80,3.316,4.317,3.092,4.868,2.600,0.500,0.090,0.000,0.017
2026-05-12 19:10:57.237615,RETURNING,25.065,1.000,0.00,0.00,142.02,3.269,4.160,3.134,4.868,2.384,0.500,0.107,0.000,0.010
2026-05-12 19:10:57.427265,RETURNING,25.006,1.000,0.00,0.00,142.14,3.269,4.086,3.134,4.868,2.860,0.500,0.072,0.000,0.010
2026-05-12 19:10:57.637785,RETURNING,24.927,1.000,0.00,0.00,142.26,3.316,3.945,3.178,4.868,2.860,0.500,0.072,0.000,0.010
2026-05-12 19:10:57.829694,RETURNING,24.848,1.000,0.00,0.00,142.38,3.365,3.814,3.134,4.868,2.630,0.500,0.087,0.000,0.017
2026-05-12 19:10:58.065768,RETURNING,24.769,1.000,0.00,0.00,142.55,3.415,3.691,3.134,4.868,3.223,0.500,0.052,0.000,0.021
2026-05-12 19:10:58.269026,RETURNING,24.689,1.000,0.00,0.00,142.77,3.467,3.520,3.178,4.868,2.514,0.500,0.096,0.000,0.021
2026-05-12 19:10:58.477145,RETURNING,24.609,1.000,0.00,0.00,143.01,3.415,3.467,3.134,4.868,3.011,0.500,0.063,0.000,0.021
2026-05-12 19:10:58.721706,RETURNING,24.529,1.000,0.00,0.00,143.25,3.415,3.365,3.223,4.868,2.661,0.500,0.085,0.000,0.014
2026-05-12 19:10:58.909693,RETURNING,24.469,1.000,0.00,0.00,143.38,3.415,3.415,3.269,4.868,2.661,0.500,0.085,0.000,0.010
2026-05-12 19:10:59.139087,RETURNING,24.369,1.000,0.00,0.00,143.54,3.415,2.896,3.178,4.868,2.061,0.500,0.140,0.000,0.017
2026-05-12 19:10:59.305727,RETURNING,24.288,1.000,0.00,0.00,143.70,3.415,2.896,3.178,4.868,2.061,0.500,0.140,0.000,0.017
2026-05-12 19:10:59.526501,RETURNING,24.208,1.000,0.00,0.00,143.88,3.415,2.542,3.178,4.868,2.661,0.500,0.085,0.000,0.017
2026-05-12 19:10:59.778756,RETURNING,24.127,1.000,0.00,0.00,144.05,3.365,2.790,3.178,4.868,2.692,0.500,0.083,0.000,0.014
2026-05-12 19:10:59.996960,RETURNING,24.046,1.000,0.00,0.00,144.22,3.316,2.630,2.934,4.767,2.600,0.500,0.087,0.000,0.031
2026-05-12 19:11:00.222634,RETURNING,23.964,1.000,0.00,0.00,144.56,3.365,2.571,2.934,4.868,2.860,0.500,0.072,0.000,0.035
2026-05-12 19:11:00.456550,RETURNING,23.883,1.000,0.00,0.00,144.96,3.365,2.571,2.934,4.868,2.860,0.500,0.072,0.000,0.035
2026-05-12 19:11:00.629050,RETURNING,23.801,1.000,0.00,0.00,145.36,3.316,2.692,2.692,4.868,2.600,0.500,0.090,0.000,0.056
2026-05-12 19:11:00.868411,RETURNING,23.718,1.000,0.00,0.00,145.95,3.223,2.661,2.600,2.790,2.600,0.500,0.013,0.000,0.059
2026-05-12 19:11:01.078315,RETURNING,23.635,1.000,0.00,0.00,146.61,3.223,2.600,2.514,2.630,2.571,0.500,0.004,0.000,0.070
2026-05-12 19:11:01.235797,RETURNING,23.551,1.000,0.00,0.00,147.39,3.134,2.542,2.409,2.600,2.542,0.500,0.004,0.000,0.077
2026-05-12 19:11:01.475735,RETURNING,23.467,1.000,0.00,0.00,148.27,3.051,2.288,2.266,4.868,2.335,0.500,0.111,0.000,0.091
2026-05-12 19:11:01.693191,RETURNING,23.381,1.000,0.00,0.00,149.22,2.972,2.266,2.138,4.868,2.200,0.500,0.125,0.000,0.105
2026-05-12 19:11:01.910796,RETURNING,23.295,1.000,0.00,0.00,150.36,2.972,2.266,2.138,4.868,2.200,0.500,0.125,0.000,0.105
2026-05-12 19:11:02.099162,RETURNING,23.207,1.000,0.00,0.00,151.57,2.825,6.934,2.007,4.868,2.384,0.500,0.107,0.000,0.115
2026-05-12 19:11:02.364602,RETURNING,23.119,1.000,0.00,0.00,152.89,2.600,7.381,1.802,4.868,6.730,0.500,-0.028,0.000,0.136
2026-05-12 19:11:02.542068,RETURNING,23.030,1.000,0.00,0.00,154.25,2.542,7.627,1.760,4.767,6.538,0.500,-0.028,0.000,0.140
2026-05-12 19:11:02.749804,RETURNING,22.916,1.000,0.00,0.00,156.25,2.409,7.890,1.695,4.868,6.730,0.500,-0.028,0.000,0.140
2026-05-12 19:11:02.976190,RETURNING,22.824,1.000,0.00,0.00,157.85,2.179,6.184,1.589,4.868,4.974,0.500,-0.002,0.000,0.136
2026-05-12 19:11:03.165310,RETURNING,22.754,1.000,0.00,0.00,159.04,2.179,6.184,1.589,4.868,4.974,0.500,-0.002,0.000,0.136
2026-05-12 19:11:03.341170,RETURNING,22.661,1.000,0.00,0.00,160.60,1.990,5.085,4.868,4.767,4.767,0.500,0.000,0.000,-0.238
2026-05-12 19:11:03.543383,RETURNING,22.566,1.000,0.00,0.00,159.38,1.923,4.670,4.868,4.670,4.400,0.500,0.007,0.000,-0.252
2026-05-12 19:11:03.753614,RETURNING,22.474,1.000,0.00,0.00,156.56,1.990,5.448,4.487,4.767,4.670,0.500,0.002,0.000,-0.224
2026-05-12 19:11:03.973600,RETURNING,22.383,1.000,0.00,0.00,153.95,2.266,7.890,4.014,4.868,6.538,0.500,-0.026,0.000,-0.154
2026-05-12 19:11:04.218657,RETURNING,22.294,1.000,0.00,0.00,151.83,2.266,7.890,4.014,4.868,6.538,0.500,-0.026,0.000,-0.154
2026-05-12 19:11:04.443133,RETURNING,22.206,1.000,0.00,0.00,150.07,2.825,7.627,3.415,4.868,4.400,0.500,0.011,0.000,-0.049
2026-05-12 19:11:04.668386,RETURNING,22.098,1.000,0.00,0.00,149.36,3.223,6.730,3.316,4.868,5.867,0.500,-0.017,0.000,-0.007
2026-05-12 19:11:04.892282,RETURNING,22.034,1.000,0.00,0.00,149.30,3.316,6.356,3.269,4.868,6.022,0.500,-0.020,0.000,0.003
2026-05-12 19:11:05.105846,RETURNING,21.948,1.000,0.00,0.00,149.32,3.316,6.356,3.269,4.868,6.022,0.500,-0.020,0.000,0.003
2026-05-12 19:11:05.283777,RETURNING,21.862,1.000,0.00,0.00,149.36,3.365,6.538,3.178,4.974,5.581,0.500,-0.011,0.000,0.014
2026-05-12 19:11:05.523336,RETURNING,21.776,1.000,0.00,0.00,149.50,3.316,6.184,3.134,4.974,4.974,0.500,0.000,0.000,0.014
2026-05-12 19:11:05.701677,RETURNING,21.689,1.000,0.00,0.00,149.66,3.316,6.356,3.178,4.868,5.867,0.500,-0.017,0.000,0.010
2026-05-12 19:11:05.918754,RETURNING,21.603,1.000,0.00,0.00,149.79,3.223,6.356,3.178,4.868,4.487,0.500,0.009,0.000,0.003
2026-05-12 19:11:06.146959,RETURNING,21.517,1.000,0.00,0.00,149.86,3.178,6.356,3.134,4.868,4.767,0.500,0.002,0.000,0.003
2026-05-12 19:11:06.351194,RETURNING,21.408,1.000,0.00,0.00,149.91,3.178,6.356,3.134,4.868,4.767,0.500,0.002,0.000,0.003
2026-05-12 19:11:06.559995,RETURNING,21.344,1.000,0.00,0.00,149.94,3.051,6.356,3.134,4.868,4.767,0.500,0.002,0.000,-0.007
2026-05-12 19:11:06.790383,RETURNING,21.257,1.000,0.00,0.00,149.91,3.051,6.356,3.134,4.868,4.767,0.500,0.002,0.000,-0.007
2026-05-12 19:11:07.007687,RETURNING,21.149,1.000,0.00,0.00,149.81,3.092,6.184,3.134,4.868,4.237,0.500,0.015,0.000,-0.003
2026-05-12 19:11:07.207773,RETURNING,21.084,1.000,0.00,0.00,149.76,3.092,6.184,3.051,4.868,4.576,0.500,0.007,0.000,0.003
2026-05-12 19:11:07.489104,RETURNING,20.998,1.000,0.00,0.00,149.76,3.092,6.022,3.134,4.868,4.317,0.500,0.013,0.000,-0.003
2026-05-12 19:11:07.649985,RETURNING,20.868,1.000,0.00,0.00,149.77,3.316,5.867,3.134,4.974,4.317,0.500,0.015,0.000,0.014
2026-05-12 19:11:07.889421,RETURNING,20.782,1.000,0.00,0.00,149.93,3.520,5.867,3.178,4.868,3.223,0.500,0.052,0.000,0.024
2026-05-12 19:11:08.103532,RETURNING,20.695,1.000,0.00,0.00,150.25,3.575,5.867,3.178,4.868,4.317,0.500,0.013,0.000,0.028
2026-05-12 19:11:08.334920,RETURNING,20.608,1.000,0.00,0.00,150.57,3.632,5.867,3.316,4.868,3.575,0.500,0.037,0.000,0.021
2026-05-12 19:11:08.513338,RETURNING,20.499,1.000,0.00,0.00,150.92,3.632,5.867,3.316,4.868,3.575,0.500,0.037,0.000,0.021
